,SALE TYPE,SOLD DATE,PROPERTY TYPE,ADDRESS,CITY,STATE OR PROVINCE,ZIP OR POSTAL CODE,PRICE,BEDS,BATHS,LOCATION,SQUARE FEET,LOT SIZE,YEAR BUILT,DAYS ON MARKET,$/SQUARE FEET,HOA/MONTH,STATUS,NEXT OPEN HOUSE START TIME,NEXT OPEN HOUSE END TIME,URL (SEE http://www.redfin.com/buy-a-home/comparative-market-analysis FOR INFO ON PRICING),SOURCE,MLS#,FAVORITE,INTERESTED,LATITUDE,LONGITUDE
0,MLS Listing,,Condo/Co-op,208 N Lake Merced Hls Unit 1A,SAN FRANCISCO,CA,94132,798000.0,2.0,2.0,SAN FRANCISCO,1320.0,,1975.0,5.0,605.0,910.0,Active,,,http://www.redfin.com/CA/San-Francisco/208-N-Lake-Merced-Hls-94132/unit-1A/home/1744740,MLSListings,ML81868448,N,Y,37.7133825,-122.4832983
1,MLS Listing,,Single Family Residential,189 Warren Dr,San Francisco,CA,94131,2498000.0,5.0,4.0,San Francisco,2857.0,4896.0,1959.0,11.0,874.0,,Active,November-4-2021 04:30 PM,November-4-2021 06:30 PM,http://www.redfin.com/CA/San-Francisco/189-Warren-Dr-94131/home/676635,San Francisco MLS,421606493,N,Y,37.7535836,-122.4600593
2,MLS Listing,,Condo/Co-op,1940 Bush St,SAN FRANCISCO,CA,94115,1798000.0,4.0,2.0,SAN FRANCISCO,1900.0,,1900.0,12.0,946.0,267.0,Active,,,http://www.redfin.com/CA/San-Francisco/1940-Bush-St-94115/home/1296522,MLSListings,ML81867694,N,Y,37.787837,-122.42931
3,MLS Listing,,Single Family Residential,979 Teresita Blvd,San Francisco,CA,94127,1199000.0,3.0,3.0,San Francisco,,,1949.0,13.0,,,Active,,,http://www.redfin.com/CA/San-Francisco/979-Teresita-Blvd-94127/home/690538,San Francisco MLS,421603398,N,Y,37.7341598,-122.4482412
4,MLS Listing,,Single Family Residential,2183 16th Ave,San Francisco,CA,94116,1499000.0,3.0,2.0,San Francisco,1536.0,2996.0,1931.0,13.0,976.0,,Active,,,http://www.redfin.com/CA/San-Francisco/2183-16th-Ave-94116/home/1081532,San Francisco MLS,421603414,N,Y,37.7473356,-122.4729729
5,MLS Listing,,Single Family Residential,773 Minna St,SAN FRANCISCO,CA,94103,1888000.0,2.0,2.5,SAN FRANCISCO,2520.0,1600.0,1906.0,18.0,749.0,,Active,,,http://www.redfin.com/CA/San-Francisco/773-Minna-St-94103/home/28945815,MLSListings,ML81867047,N,Y,37.7760888,-122.4135468
6,MLS Listing,,Condo/Co-op,1190 Sacramento St #2,San Francisco,CA,94108,1595000.0,2.0,2.0,San Francisco,,1470.0,1955.0,19.0,,,Active,,,http://www.redfin.com/CA/San-Francisco/1190-Sacramento-St-94108/unit-002/home/12399940,San Francisco MLS,421604010,N,Y,37.7926896,-122.4125054
7,MLS Listing,,Condo/Co-op,201 Harrison St #501,SAN FRANCISCO,CA,94105,475000.0,0.0,1.0,SAN FRANCISCO,432.0,,1991.0,24.0,1100.0,658.0,Active,,,http://www.redfin.com/CA/San-Francisco/201-Harrison-St-94105/unit-501/home/1438671,MLSListings,ML81866194,N,Y,37.7874798,-122.3905769
8,MLS Listing,,Single Family Residential,669 Marina Blvd,San Francisco,CA,94123,8998000.0,5.0,5.0,San Francisco,4752.0,4944.0,1931.0,53.0,1894.0,,Active,,,http://www.redfin.com/CA/San-Francisco/669-Marina-Blvd-94123/home/582205,San Francisco MLS,421593475,N,Y,37.8052133,-122.4449164
9,MLS Listing,,Condo/Co-op,461 2nd St Unit C118,San Francisco,CA,94107,750000.0,1.0,1.0,San Francisco,672.0,56167.0,1907.0,56.0,1116.0,651.0,Active,,,http://www.redfin.com/CA/San-Francisco/461-2nd-St-94107/unit-C118/home/1203053,San Francisco MLS,421589274,N,Y,37.783797,-122.3937191
10,MLS Listing,,Condo/Co-op,2000 Ellis St #205,San Francisco,CA,94115,749000.0,1.0,1.0,San Francisco,595.0,8090.0,2013.0,71.0,1259.0,466.0,Active,,,http://www.redfin.com/CA/San-Francisco/2000-Ellis-St-94115/unit-205/home/55244549,San Francisco MLS,421587794,N,Y,37.7816364,-122.439602
11,MLS Listing,,Condo/Co-op,1998 Broadway #807,San Francisco,CA,94109,1299000.0,2.0,2.0,San Francisco,1030.0,15195.0,1964.0,83.0,1261.0,1288.0,Active,,,http://www.redfin.com/CA/San-Francisco/1998-Broadway-94109/unit-807/home/1865773,San Francisco MLS,421583886,N,Y,37.7953251,-122.4298254
12,MLS Listing,,Single Family Residential,618 Mangels Ave,San Francisco,CA,94127,1775000.0,3.0,3.0,San Francisco,1920.0,3746.0,1912.0,89.0,924.0,,Active,,,http://www.redfin.com/CA/San-Francisco/618-Mangels-Ave-94127/home/1719034,San Francisco MLS,421582030,N,Y,37.7332736,-122.4516557
13,MLS Listing,,Multi-Family (2-4 Unit),1382 - 1384 10th Ave,San Francisco,CA,94122,2788888.0,0.0,,San Francisco,3622.0,3000.0,1986.0,1.0,770.0,,Active,,,http://www.redfin.com/CA/San-Francisco/1382-10th-Ave-94122/home/1866976,San Francisco MLS,421609162,N,Y,37.7624591,-122.4669914
14,MLS Listing,,Condo/Co-op,250 King St #848,San Francisco,CA,94107,699000.0,1.0,1.0,San Francisco,798.0,213232.0,2004.0,1.0,876.0,812.0,Active,November-6-2021 02:00 PM,November-6-2021 04:00 PM,http://www.redfin.com/CA/San-Francisco/250-King-St-94107/unit-848/home/22889816,San Francisco MLS,421600938,N,Y,37.7781222,-122.3932903
15,MLS Listing,,Single Family Residential,1617 Treat Ave,San Francisco,CA,94110,1695000.0,3.0,1.0,Bernal Heights,1314.0,2750.0,1910.0,1.0,1290.0,,Active,November-6-2021 02:00 PM,November-6-2021 04:00 PM,http://www.redfin.com/CA/San-Francisco/1617-Treat-Ave-94110/home/1327457,"bridgeMLS, Bay East AOR, or Contra Costa AOR",40973042,N,Y,37.7446179,-122.4121056
16,MLS Listing,,Single Family Residential,3741 Scott St,San Francisco,CA,94123,3495000.0,3.0,3.5,San Francisco,2653.0,2343.0,1926.0,1.0,1317.0,,Active,November-3-2021 04:30 PM,November-3-2021 05:30 PM,http://www.redfin.com/CA/San-Francisco/3741-Scott-St-94123/home/1699801,San Francisco MLS,421606233,N,Y,37.8044842,-122.4423349
17,MLS Listing,,Vacant Land,1235 Sansome St,SAN FRANCISCO,CA,94111,1498000.0,,,SAN FRANCISCO,,6866.0,,1.0,,,Active,,,http://www.redfin.com/CA/San-Francisco/1235-Sansome-St-94111/home/112390042,MLSListings,ML81868930,N,Y,37.8015613,-122.4030781
18,MLS Listing,,Single Family Residential,98 Laidley St,San Francisco,CA,94131,2350000.0,2.0,1.5,San Francisco,1600.0,2644.0,1913.0,1.0,1469.0,,Active,November-6-2021 12:00 PM,November-6-2021 02:00 PM,http://www.redfin.com/CA/San-Francisco/98-Laidley-St-94131/home/948944,San Francisco MLS,421599678,N,Y,37.7403471,-122.4309604
19,MLS Listing,,Condo/Co-op,445 Broderick St,SAN FRANCISCO,CA,94117,1398000.0,3.0,1.0,SAN FRANCISCO,1335.0,,1900.0,1.0,1047.0,400.0,Active,November-6-2021 02:00 PM,November-6-2021 04:30 PM,http://www.redfin.com/CA/San-Francisco/445-Broderick-St-94117/home/22043455,MLSListings,ML81868913,N,Y,37.774412,-122.439682
20,MLS Listing,,Condo/Co-op,241 San Jose Ave,San Francisco,CA,94110,1199000.0,4.0,2.0,Inner Mission,1550.0,2247.0,1904.0,1.0,774.0,,Active,November-13-2021 12:00 PM,November-13-2021 03:00 PM,http://www.redfin.com/CA/San-Francisco/241-San-Jose-Ave-94110/home/177044425,"bridgeMLS, Bay East AOR, or Contra Costa AOR",40972998,N,Y,37.7514524,-122.4213491
21,MLS Listing,,Multi-Family (2-4 Unit),72-74 Park St,San Francisco,CA,94110,1199000.0,,,San Francisco,2144.0,2500.0,1907.0,1.0,559.0,,Active,,,http://www.redfin.com/CA/San-Francisco/72-Park-St-94110/unit-74/home/1472361,"bridgeMLS, Bay East AOR, or Contra Costa AOR",40972990,N,Y,37.7364656,-122.424956
22,MLS Listing,,Multi-Family (2-4 Unit),559 - 561 Minna St,San Francisco,CA,94103,1699000.0,8.0,8.0,San Francisco,3038.0,1873.0,1911.0,1.0,559.0,,Active,,,http://www.redfin.com/CA/San-Francisco/559-Minna-St-94103/home/1791476,San Francisco MLS,421607184,N,Y,37.7793729,-122.4093764
23,MLS Listing,,Multi-Family (5+ Unit),569 - 571 Arguello Blvd,San Francisco,CA,94118,2089000.0,0.0,,San Francisco,4288.0,3000.0,1953.0,1.0,487.0,,Active,,,http://www.redfin.com/CA/San-Francisco/569-Arguello-Blvd-94118/home/615937,San Francisco MLS,421609017,N,Y,37.7798762,-122.4591743
24,MLS Listing,,Condo/Co-op,701 Hampshire St #4,San Francisco,CA,94110,595000.0,1.0,1.0,San Francisco,,,1961.0,1.0,,422.0,Active,,,http://www.redfin.com/CA/San-Francisco/701-Hampshire-St-94110/unit-4/home/174960159,San Francisco MLS,421608976,N,Y,37.7603979,-122.4078827
25,MLS Listing,,Single Family Residential,763 University St,San Francisco,CA,94134,1650000.0,4.0,5.0,San Francisco,3161.0,2996.0,1963.0,1.0,522.0,,Active,,,http://www.redfin.com/CA/San-Francisco/763-University-St-94134/home/1901521,San Francisco MLS,421606915,N,Y,37.7207461,-122.4114862
26,MLS Listing,,Multi-Family (2-4 Unit),2831 - 2835 Folsom St,San Francisco,CA,94110,899000.0,8.0,4.0,San Francisco,3000.0,1598.0,1908.0,1.0,300.0,,Active,,,http://www.redfin.com/CA/San-Francisco/2831-Folsom-St-94110/home/796906,San Francisco MLS,421607668,N,Y,37.7520111,-122.413796
27,MLS Listing,,Single Family Residential,345 Day St,San Francisco,CA,94131,1795000.0,2.0,1.0,San Francisco,1400.0,2848.0,1924.0,1.0,1282.0,,Active,,,http://www.redfin.com/CA/San-Francisco/345-Day-St-94131/home/2028142,San Francisco MLS,421608614,N,Y,37.7425633,-122.4298053
28,MLS Listing,,Condo/Co-op,55 Oak St #210,San Francisco,CA,94102,850000.0,1.0,1.0,San Francisco,723.0,10227.0,2021.0,1.0,1176.0,802.0,Active,,,http://www.redfin.com/CA/San-Francisco/55-Oak-St-94102/unit-210/home/177030898,San Francisco MLS,421608861,N,Y,37.7750848,-122.4200908
29,MLS Listing,,Single Family Residential,166 Shakespeare St,SAN FRANCISCO,CA,94112,1150000.0,5.0,2.0,SAN FRANCISCO,2033.0,2500.0,1928.0,1.0,566.0,,Active,,,http://www.redfin.com/CA/San-Francisco/166-Shakespeare-St-94112/home/2009543,MLSListings,ML81868826,N,Y,37.7090576,-122.4635634
30,MLS Listing,,Single Family Residential,1473 Hudson Ave,San Francisco,CA,94124,1999000.0,4.0,4.0,San Francisco,2745.0,2996.0,1933.0,1.0,728.0,,Active,,,http://www.redfin.com/CA/San-Francisco/1473-Hudson-Ave-94124/home/1293132,San Francisco MLS,421608777,N,Y,37.7385214,-122.3859962
31,MLS Listing,,Single Family Residential,3025 Laguna St,San Francisco,CA,94123,1750000.0,2.0,1.0,San Francisco,1560.0,2173.0,1912.0,1.0,1122.0,,Active,,,http://www.redfin.com/CA/San-Francisco/3025-Laguna-St-94123/unit-A/home/563004,San Francisco MLS,421608806,N,Y,37.7989937,-122.4310546
32,MLS Listing,,Condo/Co-op,3620 Market St #6,San Francisco,CA,94131,1575000.0,2.0,2.5,San Francisco,1114.0,9846.0,1987.0,1.0,1414.0,545.0,Active,,,http://www.redfin.com/CA/San-Francisco/3620-Market-St-94131/unit-6/home/1873378,San Francisco MLS,421608664,N,Y,37.7556977,-122.4416295
33,MLS Listing,,Condo/Co-op,1360 Montgomery St #11,San Francisco,CA,94133,3250000.0,2.0,2.0,San Francisco,1550.0,,1936.0,1.0,2097.0,1172.0,Active,,,http://www.redfin.com/CA/San-Francisco/1360-Montgomery-St-94133/unit-11/home/1466173,"bridgeMLS, Bay East AOR, or Contra Costa AOR",40972886,N,Y,37.8017784,-122.4044008
34,MLS Listing,,Single Family Residential,742 Cabrillo St,SAN FRANCISCO,CA,94118,1745000.0,4.0,3.0,SAN FRANCISCO,2210.0,1872.0,1900.0,1.0,790.0,,Active,,,http://www.redfin.com/CA/San-Francisco/742-Cabrillo-St-94118/home/1937934,MLSListings,ML81868810,N,Y,37.7754477,-122.4667657
35,MLS Listing,,Condo/Co-op,1800 Bryant St #112,San Francisco,CA,94110,899000.0,1.0,2.0,San Francisco,889.0,14972.0,2000.0,1.0,1011.0,531.0,Active,,,http://www.redfin.com/CA/San-Francisco/1800-Bryant-St-94110/unit-112/home/1355938,San Francisco MLS,421608731,N,Y,37.7641196,-122.4108749
36,MLS Listing,,Single Family Residential,38 Avila St,San Francisco,CA,94301,3495000.0,3.0,3.0,San Francisco,,2495.0,1924.0,1.0,,,Active,November-3-2021 04:30 PM,November-3-2021 05:30 PM,http://www.redfin.com/CA/San-Francisco/38-Avila-St-94123/home/1401129,San Francisco MLS,421607469,N,Y,37.8008686,-122.4402291
37,MLS Listing,,Condo/Co-op,1825 Turk St #306,San Francisco,CA,94115,1395000.0,3.0,2.0,San Francisco,1318.0,4903.0,1988.0,1.0,1058.0,500.0,Active,,,http://www.redfin.com/CA/San-Francisco/1825-Turk-Blvd-94115/unit-306/home/592747,San Francisco MLS,421605487,N,Y,37.7792854,-122.4395676
38,MLS Listing,,Single Family Residential,190 Ewing Ter,San Francisco,CA,94118,2995000.0,4.0,3.5,San Francisco,2859.0,2195.0,1939.0,1.0,1048.0,,Active,November-4-2021 05:00 PM,November-4-2021 06:00 PM,http://www.redfin.com/CA/San-Francisco/190-Ewing-Ter-94118/home/1643343,San Francisco MLS,421606881,N,Y,37.7806077,-122.4489566
39,MLS Listing,,Multi-Family (5+ Unit),15 - 27 Alhambra St,San Francisco,CA,94123,5275000.0,0.0,,San Francisco,7800.0,5186.0,1927.0,1.0,676.0,,Active,,,http://www.redfin.com/CA/San-Francisco/15-Alhambra-St-94123/home/1383294,San Francisco MLS,421606627,N,Y,37.802693,-122.437441
40,MLS Listing,,Condo/Co-op,451 Donahue St #414,SAN FRANCISCO,CA,94124,690000.0,1.0,1.0,SAN FRANCISCO,744.0,,2015.0,1.0,927.0,629.0,Active,,,http://www.redfin.com/CA/San-Francisco/451-Donahue-St-94124/unit-414/home/109464540,MLSListings,ML81868768,N,Y,37.7288191,-122.3697461
41,MLS Listing,,Condo/Co-op,3620 19th St #26,San Francisco,CA,94110,1598000.0,3.0,2.0,San Francisco,1370.0,39396.0,2008.0,1.0,1166.0,720.0,Active,November-6-2021 11:00 AM,November-6-2021 01:00 PM,http://www.redfin.com/CA/San-Francisco/3620-19th-St-94110/unit-26/home/23424258,San Francisco MLS,421607557,N,Y,37.7601561,-122.4243176
42,MLS Listing,,Condo/Co-op,530 Sanchez St #2,San Francisco,CA,94114,3100000.0,3.0,3.5,San Francisco,2042.0,2624.0,2014.0,1.0,1518.0,200.0,Active,November-6-2021 11:00 AM,November-6-2021 01:00 PM,http://www.redfin.com/CA/San-Francisco/530-Sanchez-St-94114/unit-2/home/56483776,San Francisco MLS,421605489,N,Y,37.7605991,-122.4307888
43,MLS Listing,,Condo/Co-op,378 Arguello Blvd,San Francisco,CA,94118,2695000.0,3.0,2.5,San Francisco,2356.0,2996.0,1917.0,1.0,1144.0,,Active,November-3-2021 04:00 PM,November-3-2021 06:00 PM,http://www.redfin.com/CA/San-Francisco/378-Arguello-Blvd-94118/home/2015798,San Francisco MLS,421596440,N,Y,37.7842905,-122.4589693
44,MLS Listing,,Condo/Co-op,280 Spear St Unit 8F,San Francisco,CA,94105,1650000.0,2.0,2.0,San Francisco,1305.0,47916.0,,1.0,1264.0,1252.0,Active,,,http://www.redfin.com/CA/San-Francisco/280-Spear-St-94105/unit-8F/home/175563253,San Francisco MLS,421608682,N,Y,37.7904356,-122.3918209
45,MLS Listing,,Single Family Residential,850 Steiner St,San Francisco,CA,94117,5125000.0,4.0,5.0,San Francisco,4125.0,3023.0,1899.0,1.0,1242.0,,Active,November-4-2021 05:00 PM,November-4-2021 06:30 PM,http://www.redfin.com/CA/San-Francisco/850-Steiner-St-94117/home/148090985,San Francisco MLS,421608231,N,Y,37.7772399,-122.4330086
46,MLS Listing,,Single Family Residential,622 41st Ave,San Francisco,CA,94121,1195000.0,3.0,1.0,San Francisco,1540.0,2996.0,1923.0,1.0,776.0,,Active,November-7-2021 02:00 PM,November-7-2021 04:00 PM,http://www.redfin.com/CA/San-Francisco/622-41st-Ave-94121/home/1228831,San Francisco MLS,421608580,N,Y,37.776897,-122.5015365
47,MLS Listing,,Condo/Co-op,181 Fremont Unit 56B,San Francisco,CA,94105,5900000.0,2.0,2.5,San Francisco,2226.0,,2018.0,2.0,2650.0,3051.0,Active,,,http://www.redfin.com/CA/San-Francisco/181-Fremont-St-94105/unit-56B/home/167299428,San Francisco MLS,421608610,N,Y,37.7898082,-122.3953565
48,MLS Listing,,Single Family Residential,655 Andover St,San Francisco,CA,94110,1299000.0,2.0,1.0,Bernal Heights,1125.0,1751.0,1926.0,2.0,1155.0,,Active,,,http://www.redfin.com/CA/San-Francisco/655-Andover-St-94110/home/1423227,"bridgeMLS, Bay East AOR, or Contra Costa AOR",40972831,N,Y,37.7353665,-122.4166078
49,MLS Listing,,Condo/Co-op,950 Tennessee St #125,San Francisco,CA,94107,1689000.0,2.0,2.0,San Francisco,1419.0,,2020.0,2.0,1190.0,764.0,Active,,,http://www.redfin.com/CA/San-Francisco/950-Tennessee-St-94107/unit-125/home/175051409,San Francisco MLS,421608636,N,Y,37.7596747,-122.3898245
50,MLS Listing,,Condo/Co-op,965 Folsom St #303,San Francisco,CA,94107,1100000.0,1.0,1.0,San Francisco,1199.0,8332.0,2000.0,2.0,917.0,700.0,Active,,,http://www.redfin.com/CA/San-Francisco/965-Folsom-St-94107/unit-303/home/12396796,San Francisco MLS,421606966,N,Y,37.7789664,-122.4044726
51,MLS Listing,,Condo/Co-op,335 Berry St #505,San Francisco,CA,94158,303285.0,1.0,1.0,San Francisco,730.0,29040.0,2009.0,2.0,415.0,555.0,Active,,,http://www.redfin.com/CA/San-Francisco/335-Berry-St-94158/unit-505/home/28939143,San Francisco MLS,421606933,N,Y,37.7730819,-122.3962416
52,MLS Listing,,Condo/Co-op,950 Tennessee St #101,San Francisco,CA,94107,995000.0,1.0,1.0,San Francisco,846.0,,2020.0,2.0,1176.0,577.0,Active,,,http://www.redfin.com/CA/San-Francisco/950-Tennessee-St-94107/unit-101/home/170136838,San Francisco MLS,421608618,N,Y,37.759674,-122.389824
53,MLS Listing,,Condo/Co-op,219 - 223 Clayton St #221,San Francisco,CA,94117,1495000.0,2.0,1.5,San Francisco,1705.0,2652.0,1914.0,2.0,877.0,322.0,Active,,,http://www.redfin.com/CA/San-Francisco/219-Clayton-St-94117/unit-221/home/177014390,San Francisco MLS,421607790,N,Y,37.7731588,-122.4495672
54,MLS Listing,,Condo/Co-op,2002 3rd St #214,San Francisco,CA,94107,998000.0,2.0,2.0,San Francisco,1358.0,16636.0,2002.0,3.0,735.0,690.0,Active,November-3-2021 02:00 PM,November-3-2021 03:30 PM,http://www.redfin.com/CA/San-Francisco/2002-3rd-St-94107/unit-214/home/12398021,San Francisco MLS,421607690,N,Y,37.763914,-122.3891164
55,MLS Listing,,Condo/Co-op,1363 - 1365 Greenwich St #1363,San Francisco,CA,94109,1625000.0,3.0,1.5,San Francisco,1459.0,3644.0,1907.0,3.0,1114.0,,Active,November-3-2021 04:00 PM,November-3-2021 05:30 PM,http://www.redfin.com/CA/San-Francisco/1363-Greenwich-St-94109/unit-1363/home/177009851,San Francisco MLS,421607856,N,Y,37.8004218,-122.4220622
56,MLS Listing,,Condo/Co-op,1896 Pacific Ave #204,San Francisco,CA,94109,3200000.0,3.0,3.5,San Francisco,2771.0,,1924.0,3.0,1155.0,1745.0,Active,,,http://www.redfin.com/CA/San-Francisco/1896-Pacific-Ave-94109/unit-204/home/1974066,San Francisco MLS,421607984,N,Y,37.7947146,-122.4264416
57,MLS Listing,,Single Family Residential,2580 Mcallister St,San Francisco,CA,94118,1729000.0,6.0,3.0,San Francisco,3365.0,2125.0,1900.0,3.0,514.0,,Active,November-4-2021 05:00 PM,November-4-2021 06:00 PM,http://www.redfin.com/CA/San-Francisco/2580-McAllister-St-94118/home/1484163,San Francisco MLS,421606513,N,Y,37.7757296,-122.4546191
58,MLS Listing,,Single Family Residential,8 Joy St,San Francisco,CA,94110,1050000.0,4.0,2.5,San Francisco,1658.0,1750.0,1999.0,3.0,633.0,,Active,November-7-2021 01:00 PM,November-7-2021 04:00 PM,http://www.redfin.com/CA/San-Francisco/8-Joy-St-94110/home/1094862,San Francisco MLS,421608495,N,Y,37.743829,-122.406575
59,MLS Listing,,Condo/Co-op,8 Buchanan St #902,San Francisco,CA,94102,1275000.0,2.0,2.0,San Francisco,884.0,21140.0,2014.0,3.0,1442.0,685.0,Active,November-6-2021 11:30 AM,November-6-2021 01:30 PM,http://www.redfin.com/CA/San-Francisco/8-Buchanan-St-94102/unit-902/home/110051404,San Francisco MLS,421607301,N,Y,37.7699851,-122.4265079
60,MLS Listing,,Single Family Residential,268 Summit Way,San Francisco,CA,94132,1495000.0,3.0,2.5,San Francisco,2001.0,2040.0,2016.0,3.0,747.0,250.0,Active,November-6-2021 02:30 PM,November-6-2021 04:00 PM,http://www.redfin.com/CA/San-Francisco/268-Summit-Way-94132/home/110052106,San Francisco MLS,421608489,N,Y,37.7150004,-122.4774009
61,MLS Listing,,Single Family Residential,615 11th Ave,San Francisco,CA,94118,1999000.0,3.0,1.5,San Francisco,2538.0,2374.0,1915.0,3.0,788.0,,Active,,,http://www.redfin.com/CA/San-Francisco/615-11th-Ave-94118/home/1228801,San Francisco MLS,421608463,N,Y,37.7766318,-122.4696009
62,MLS Listing,,Single Family Residential,69 Aloha Ave,San Francisco,CA,94122,1749000.0,4.0,2.5,San Francisco,1962.0,2531.0,,4.0,891.0,,Active,,,http://www.redfin.com/CA/San-Francisco/69-Aloha-Ave-94122/home/1360012,San Francisco MLS,421608259,N,Y,37.7575574,-122.4712372
63,MLS Listing,,Single Family Residential,1270 Brussels St,San Francisco,CA,94134,1235000.0,3.0,2.5,San Francisco,1914.0,3000.0,1940.0,4.0,645.0,,Active,November-6-2021 02:00 PM,November-6-2021 04:00 PM,http://www.redfin.com/CA/San-Francisco/1270-Brussels-St-94134/home/783302,San Francisco MLS,421608441,N,Y,37.7165194,-122.4013529
64,MLS Listing,,Condo/Co-op,162 9th Ave,San Francisco,CA,94118,2250000.0,3.0,3.0,San Francisco,2195.0,3027.0,1900.0,4.0,1025.0,350.0,Active,November-7-2021 02:00 PM,November-7-2021 04:00 PM,http://www.redfin.com/CA/San-Francisco/162-9th-Ave-94118/home/173332535,BAREIS,421607805,N,Y,37.7853808,-122.4676219
65,MLS Listing,,Multi-Family (2-4 Unit),1235 - 1237 45th Ave,San Francisco,CA,94122,1699000.0,5.0,3.0,San Francisco,2200.0,2996.0,1912.0,4.0,772.0,,Active,November-6-2021 02:00 PM,November-6-2021 04:00 PM,http://www.redfin.com/CA/San-Francisco/1235-45th-Ave-94122/unit-1237/home/1948959,San Francisco MLS,421608420,N,Y,37.7634907,-122.5053983
66,MLS Listing,,Condo/Co-op,1896 Pacific Ave #504,San Francisco,CA,94109,3300000.0,3.0,3.5,San Francisco,2631.0,8537.0,1924.0,4.0,1254.0,1700.0,Active,,,http://www.redfin.com/CA/San-Francisco/1896-Pacific-Ave-94109/unit-504/home/2003208,San Francisco MLS,421607305,N,Y,37.7947146,-122.4264416
67,MLS Listing,,Single Family Residential,931 Prague St,San Francisco,CA,94112,1099000.0,4.0,1.0,San Francisco,1980.0,3114.0,1924.0,4.0,555.0,,Active,,,http://www.redfin.com/CA/San-Francisco/931-Prague-St-94112/home/797507,San Francisco MLS,421605030,N,Y,37.7099442,-122.4355986
68,MLS Listing,,Condo/Co-op,2001 Mcallister St #143,San Francisco,CA,94118,795000.0,1.0,1.0,San Francisco,686.0,98109.0,2002.0,4.0,1159.0,725.0,Active,,,http://www.redfin.com/CA/San-Francisco/2001-McAllister-St-94118/unit-143/home/12398013,San Francisco MLS,421607991,N,Y,37.776448,-122.4460603
69,MLS Listing,,Condo/Co-op,55 Red Rock Way Unit 104O,San Francisco,CA,94131,499000.0,0.0,1.0,San Francisco,592.0,7396.0,1972.0,4.0,843.0,516.0,Active,,,http://www.redfin.com/CA/San-Francisco/55-Red-Rock-Way-94131/unit-104O/home/1880669,San Francisco MLS,421606514,N,Y,37.7459864,-122.4410176
70,MLS Listing,,Condo/Co-op,101 Crescent Way #2109,SAN FRANCISCO,CA,94134,799000.0,2.0,2.0,SAN FRANCISCO,1063.0,,2001.0,4.0,752.0,552.0,Active,,,http://www.redfin.com/CA/San-Francisco/101-Crescent-Way-94134/unit-2109/home/900170,MLSListings,ML81868600,N,Y,37.7108372,-122.3893377
71,MLS Listing,,Condo/Co-op,488 Folsom #5402,San Francisco,CA,94105,11750000.0,3.0,3.5,San Francisco,4312.0,,2019.0,4.0,2725.0,2489.0,Active,,,http://www.redfin.com/CA/San-Francisco/488-Folsom-St-94105/unit-5402/home/169571742,San Francisco MLS,421607621,N,Y,37.7877451,-122.3945599
72,MLS Listing,,Single Family Residential,230 Victoria St,SAN FRANCISCO,CA,94132,1150000.0,3.0,2.0,SAN FRANCISCO,1450.0,2495.0,1942.0,4.0,793.0,,Active,November-6-2021 02:00 PM,November-6-2021 04:00 PM,http://www.redfin.com/CA/San-Francisco/230-Victoria-St-94132/home/948588,MLSListings,ML81868586,N,Y,37.714909,-122.4651011
73,MLS Listing,,Single Family Residential,2465 15th Ave,San Francisco,CA,94116,1895000.0,4.0,3.0,San Francisco,2823.0,3375.0,1970.0,4.0,671.0,,Active,November-7-2021 02:00 PM,November-7-2021 04:00 PM,http://www.redfin.com/CA/San-Francisco/2465-15th-Ave-94116/home/1574255,San Francisco MLS,421608285,N,Y,37.742125,-122.4716293
74,MLS Listing,,Condo/Co-op,631 Ofarrell St #1905,San Francisco,CA,94109,469000.0,0.0,1.0,San Francisco,546.0,18438.0,1930.0,4.0,859.0,800.0,Active,,,http://www.redfin.com/CA/San-Francisco/631-O-Farrell-St-94109/unit-1905/home/1450861,San Francisco MLS,421597945,N,Y,37.7852037,-122.4151808
75,MLS Listing,,Condo/Co-op,"2 Fallon Pl Unit 24,25",San Francisco,CA,94133,1395000.0,1.0,1.5,San Francisco,1174.0,21923.0,1980.0,4.0,1188.0,1443.0,Active,,,http://www.redfin.com/CA/San-Francisco/2-Fallon-Pl-94133/unit-24-25/home/177014447,San Francisco MLS,421594577,N,Y,37.797786,-122.4132891
76,MLS Listing,,Multi-Family (2-4 Unit),1227 - 1229 Florida St,San Francisco,CA,94110,1495000.0,6.0,3.0,San Francisco,1616.0,2000.0,1920.0,4.0,925.0,,Active,November-6-2021 11:00 AM,November-6-2021 02:00 PM,http://www.redfin.com/CA/San-Francisco/1227-Florida-St-94110/home/736191,San Francisco MLS,421607529,N,Y,37.7522842,-122.4097455
77,MLS Listing,,Single Family Residential,1641 Green St,San Francisco,CA,94123,6925000.0,3.0,3.5,San Francisco,2705.0,4120.0,1940.0,4.0,2560.0,,Active,,,http://www.redfin.com/CA/San-Francisco/1641-Green-St-94123/home/2035752,San Francisco MLS,421606016,N,Y,37.7972108,-122.4261755
78,MLS Listing,,Single Family Residential,140 Cuvier St,San Francisco,CA,94112,1349000.0,4.0,2.0,San Francisco,2165.0,2604.0,1910.0,4.0,623.0,,Active,November-6-2021 12:00 PM,November-6-2021 02:00 PM,http://www.redfin.com/CA/San-Francisco/140-Cuvier-St-94112/home/1721163,San Francisco MLS,421606983,N,Y,37.7326775,-122.4286862
79,MLS Listing,,Single Family Residential,336 Edna St,SAN FRANCISCO,CA,94112,1010000.0,2.0,1.0,SAN FRANCISCO,1020.0,2500.0,1956.0,4.0,990.0,,Active,,,http://www.redfin.com/CA/San-Francisco/336-Edna-St-94112/home/1486654,MLSListings,ML81868136,N,Y,37.7296427,-122.4463921
80,MLS Listing,,Condo/Co-op,825 - 827 Corbett Ave Unit 101A,San Francisco,CA,94131,1128000.0,3.0,2.0,San Francisco,1561.0,7405.0,1961.0,4.0,723.0,572.0,Active,November-4-2021 05:00 PM,November-4-2021 07:00 PM,http://www.redfin.com/CA/San-Francisco/825-Corbett-Ave-94131/unit-101A/home/1003066,San Francisco MLS,421608183,N,Y,37.7535454,-122.4431511
81,MLS Listing,,Single Family Residential,475 Justin Dr,San Francisco,CA,94112,1095000.0,2.0,1.0,San Francisco,1413.0,2187.0,1941.0,4.0,775.0,,Active,November-6-2021 01:00 PM,November-6-2021 04:00 PM,http://www.redfin.com/CA/San-Francisco/475-Justin-Dr-94112/home/764794,San Francisco MLS,421608095,N,Y,37.7320161,-122.4250421
82,MLS Listing,,Single Family Residential,240 Theresa St,San Francisco,CA,94112,1149000.0,2.0,1.0,San Francisco,,2495.0,1924.0,4.0,,,Active,November-6-2021 01:00 PM,November-6-2021 03:00 PM,http://www.redfin.com/CA/San-Francisco/240-Theresa-St-94112/home/1940548,San Francisco MLS,421608094,N,Y,37.730112,-122.4359083
83,MLS Listing,,Single Family Residential,366 15th Ave,San Francisco,CA,94118,1995000.0,3.0,2.5,San Francisco,2360.0,3188.0,1911.0,4.0,845.0,,Active,,,http://www.redfin.com/CA/San-Francisco/366-15th-Ave-94118/home/609120,San Francisco MLS,421607472,N,Y,37.7812838,-122.4738242
84,MLS Listing,,Multi-Family (2-4 Unit),1254 - 1258 Leavenworth St,San Francisco,CA,94109,2500000.0,10.0,3.0,San Francisco,4028.0,2500.0,1908.0,4.0,621.0,,Active,,,http://www.redfin.com/CA/San-Francisco/1254-Leavenworth-St-94109/home/28945811,San Francisco MLS,421600036,N,Y,37.7928295,-122.4159544
85,MLS Listing,,Multi-Family (5+ Unit),511 Waller St,San Francisco,CA,94117,2275000.0,0.0,,San Francisco,,2066.0,1900.0,4.0,,,Active,,,http://www.redfin.com/CA/San-Francisco/511-Waller-St-94117/home/1523401,San Francisco MLS,421608238,N,Y,37.7707282,-122.4321601
86,MLS Listing,,Condo/Co-op,1120 Stanyan St,San Francisco,CA,94117,1395000.0,3.0,1.0,San Francisco,1660.0,2696.0,1904.0,4.0,840.0,250.0,Active,,,http://www.redfin.com/CA/San-Francisco/1120-Stanyan-St-94117/home/21965587,San Francisco MLS,421608198,N,Y,37.764027,-122.452162
87,MLS Listing,,Single Family Residential,270 Laguna Honda Blvd,SAN FRANCISCO,CA,94116,1695000.0,4.0,3.0,SAN FRANCISCO,2172.0,5436.0,1948.0,4.0,780.0,,Active,November-4-2021 05:00 PM,November-4-2021 07:00 PM,http://www.redfin.com/CA/San-Francisco/270-Laguna-Honda-Blvd-94116/home/681036,MLSListings,ML81868538,N,Y,37.7492346,-122.4602804
88,MLS Listing,,Single Family Residential,45 Burlwood Dr,San Francisco,CA,94127,1295000.0,3.0,2.0,San Francisco,1305.0,2922.0,1947.0,4.0,992.0,,Active,,,http://www.redfin.com/CA/San-Francisco/45-Burlwood-Dr-94127/home/1975960,San Francisco MLS,421605049,N,Y,37.734938,-122.4543538
89,MLS Listing,,Condo/Co-op,5102 Diamond Heights Blvd Unit B,San Francisco,CA,94131,1248000.0,3.0,2.0,San Francisco,,,,4.0,,1030.0,Active,,,http://www.redfin.com/CA/San-Francisco/5102-Diamond-Heights-Blvd-94131/unit-B/home/1729023,San Francisco MLS,421608195,N,Y,37.7467768,-122.4420467
90,MLS Listing,,Condo/Co-op,221 29th St #101,San Francisco,CA,94131,1275000.0,3.0,2.0,San Francisco,,2872.0,1981.0,4.0,,,Active,November-3-2021 05:00 PM,November-3-2021 06:00 PM,http://www.redfin.com/CA/San-Francisco/221-29th-St-94131/unit-101/home/1354387,San Francisco MLS,421607287,N,Y,37.7436033,-122.4252774
91,MLS Listing,,Single Family Residential,166 Sylvan Dr,San Francisco,CA,94132,1195000.0,2.0,1.0,San Francisco,1180.0,3301.0,1950.0,4.0,1013.0,,Active,,,http://www.redfin.com/CA/San-Francisco/166-Sylvan-Dr-94132/home/1977537,San Francisco MLS,421608191,N,Y,37.7313784,-122.4851333
92,MLS Listing,,Condo/Co-op,1645 Pacific Ave Unit 4F,San Francisco,CA,94109,2175000.0,2.0,2.5,San Francisco,1509.0,16141.0,2014.0,4.0,1441.0,980.0,Active,November-4-2021 05:00 PM,November-4-2021 06:30 PM,http://www.redfin.com/CA/San-Francisco/1645-Pacific-Ave-94109/unit-4F/home/69054946,San Francisco MLS,421601620,N,Y,37.7947619,-122.4223828
93,MLS Listing,,Condo/Co-op,456 Vallejo St Unit B,San Francisco,CA,94133,1095000.0,2.0,2.0,San Francisco,1090.0,2748.0,1910.0,4.0,1005.0,,Active,,,http://www.redfin.com/CA/San-Francisco/456-Vallejo-St-94133/unit-B/home/176998941,San Francisco MLS,421608059,N,Y,37.7993368,-122.4050027
94,MLS Listing,,Condo/Co-op,456 Vallejo St Unit D,San Francisco,CA,94133,499000.0,1.0,1.0,San Francisco,520.0,2748.0,1910.0,4.0,960.0,,Active,,,http://www.redfin.com/CA/San-Francisco/456-Vallejo-St-94133/unit-D/home/176998940,San Francisco MLS,421608063,N,Y,37.7993368,-122.4050027
95,MLS Listing,,Condo/Co-op,456 Vallejo St Unit A,San Francisco,CA,94133,2495000.0,3.0,2.0,San Francisco,2045.0,2748.0,1910.0,4.0,1220.0,,Active,,,http://www.redfin.com/CA/San-Francisco/456-Vallejo-St-94133/unit-A/home/176998818,San Francisco MLS,421607502,N,Y,37.7993368,-122.4050027
96,MLS Listing,,Condo/Co-op,4052 18th St,San Francisco,CA,94114,759000.0,3.0,1.0,San Francisco,1319.0,2500.0,1901.0,4.0,575.0,500.0,Active,,,http://www.redfin.com/CA/San-Francisco/4052-18th-St-94114/home/1767146,San Francisco MLS,421608099,N,Y,37.7611384,-122.434183
97,MLS Listing,,Single Family Residential,15 Otsego Ave,San Francisco,CA,94112,828000.0,4.0,2.0,San Francisco,1530.0,3293.0,1913.0,4.0,541.0,,Active,,,http://www.redfin.com/CA/San-Francisco/15-Otsego-Ave-94112/home/2024553,San Francisco MLS,421605540,N,Y,37.7268067,-122.4387837
98,MLS Listing,,Single Family Residential,75 Navajo Ave,San Francisco,CA,94112,1188000.0,4.0,4.0,San Francisco,1783.0,,,4.0,666.0,,Active,November-7-2021 02:00 PM,November-7-2021 04:00 PM,http://www.redfin.com/CA/San-Francisco/75-Navajo-Ave-94112/home/818053,San Francisco MLS,421607921,N,Y,37.7202455,-122.4444904
99,MLS Listing,,Single Family Residential,636 Arkansas St,San Francisco,CA,94107,1159000.0,3.0,2.0,San Francisco,1165.0,2495.0,1909.0,4.0,995.0,,Active,,,http://www.redfin.com/CA/San-Francisco/636-Arkansas-St-94107/home/1502591,San Francisco MLS,421607900,N,Y,37.7580935,-122.3982593
100,MLS Listing,,Single Family Residential,1968 Armstrong Ave,San Francisco,CA,94124,1159000.0,4.0,2.5,San Francisco,1995.0,2500.0,1996.0,4.0,581.0,21.0,Active,,,http://www.redfin.com/CA/San-Francisco/1968-Armstrong-Ave-94124/home/1906424,San Francisco MLS,421607788,N,Y,37.7292706,-122.3972265
101,MLS Listing,,Single Family Residential,345 Topeka Ave,San Francisco,CA,94124,895000.0,2.0,1.0,San Francisco,1150.0,1859.0,1942.0,4.0,778.0,,Active,,,http://www.redfin.com/CA/San-Francisco/345-Topeka-Ave-94124/home/1203932,San Francisco MLS,421607761,N,Y,37.7314033,-122.3951397
102,MLS Listing,,Condo/Co-op,1400 Webster St #5,San Francisco,CA,94115,699000.0,3.0,2.0,San Francisco,1050.0,127534.0,1964.0,4.0,666.0,959.0,Active,November-3-2021 04:30 PM,November-3-2021 06:30 PM,http://www.redfin.com/CA/San-Francisco/1400-Webster-St-94115/unit-5/home/12401143,San Francisco MLS,421606903,N,Y,37.7837205,-122.4308053
103,MLS Listing,,Condo/Co-op,2893 - B 24th St,San Francisco,CA,94110,495000.0,1.0,1.0,San Francisco,475.0,4025.0,1900.0,4.0,1042.0,164.0,Active,,,http://www.redfin.com/CA/San-Francisco/2893-24th-St-94110/home/26838631,San Francisco MLS,421607521,N,Y,37.7524329,-122.4098786
104,MLS Listing,,Condo/Co-op,451 Donahue St #510,San Francisco,CA,94124,730000.0,2.0,2.0,San Francisco,1024.0,,2016.0,4.0,713.0,603.0,Active,,,http://www.redfin.com/CA/San-Francisco/451-Donahue-St-94124/unit-510/home/109464697,San Francisco MLS,421608169,N,Y,37.7288191,-122.3697461
105,MLS Listing,,Single Family Residential,308 Crescent Ave,San Francisco,CA,94110,1688000.0,5.0,3.0,San Francisco,2069.0,1750.0,1906.0,4.0,816.0,,Active,November-7-2021 02:00 PM,November-7-2021 04:00 PM,http://www.redfin.com/CA/San-Francisco/308-Crescent-Ave-94110/home/1614202,San Francisco MLS,421607560,N,Y,37.7348149,-122.4184329
106,MLS Listing,,Condo/Co-op,379 Church St #302,San Francisco,CA,94114,995000.0,2.0,2.0,San Francisco,875.0,3125.0,1993.0,4.0,1137.0,295.0,Active,,,http://www.redfin.com/CA/San-Francisco/379-Church-St-94114/unit-302/home/706683,San Francisco MLS,421608124,N,Y,37.7649275,-122.4283179
107,MLS Listing,,Condo/Co-op,760 Duboce Ave,San Francisco,CA,94117,1695000.0,3.0,2.0,San Francisco,1793.0,3047.0,1900.0,4.0,945.0,335.0,Active,,,http://www.redfin.com/CA/San-Francisco/760-Duboce-Ave-94117/home/1269749,San Francisco MLS,421608093,N,Y,37.769176,-122.4363114
108,MLS Listing,,Single Family Residential,313 Los Palmos,San Francisco,CA,94127,1398000.0,3.0,2.0,San Francisco,1535.0,1807.0,1959.0,4.0,911.0,,Active,November-4-2021 05:00 PM,November-4-2021 06:30 PM,http://www.redfin.com/CA/San-Francisco/313-Los-Palmos-Dr-94127/home/1917064,San Francisco MLS,421585830,N,Y,37.7356419,-122.450373
109,MLS Listing,,Condo/Co-op,2040 Sutter St #404,San Francisco,CA,94115,1295000.0,2.0,2.0,San Francisco,1209.0,35698.0,1984.0,4.0,1071.0,752.0,Active,,,http://www.redfin.com/CA/San-Francisco/2040-Sutter-St-94115/unit-404/home/941184,San Francisco MLS,421608084,N,Y,37.7861455,-122.434382
110,MLS Listing,,Condo/Co-op,88 Townsend St #327,San Francisco,CA,94107,978000.0,1.0,1.0,San Francisco,791.0,37623.0,2004.0,4.0,1236.0,614.0,Active,,,http://www.redfin.com/CA/San-Francisco/88-Townsend-St-94102/unit-327/home/12401561,San Francisco MLS,421606099,N,Y,37.7811985,-122.3906654
111,MLS Listing,,Single Family Residential,886 Castro St,San Francisco,CA,94114,3098000.0,3.0,3.5,San Francisco,2435.0,3100.0,1994.0,4.0,1272.0,381.0,Active,,,http://www.redfin.com/CA/San-Francisco/886-Castro-St-94114/home/1590212,San Francisco MLS,421608080,N,Y,37.7547942,-122.434747
112,MLS Listing,,Single Family Residential,154 Denslowe Dr,San Francisco,CA,94132,1868000.0,4.0,2.5,San Francisco,2173.0,4061.0,1942.0,4.0,860.0,6.0,Active,,,http://www.redfin.com/CA/San-Francisco/154-Denslowe-Dr-94132/home/1705001,San Francisco MLS,421607955,N,Y,37.7220832,-122.4746976
113,MLS Listing,,Single Family Residential,824 Brussels St,San Francisco,CA,94134,1099000.0,2.0,1.0,San Francisco,1125.0,2996.0,1927.0,4.0,977.0,,Active,November-6-2021 02:00 PM,November-6-2021 04:00 PM,http://www.redfin.com/CA/San-Francisco/824-Brussels-St-94134/home/1696196,San Francisco MLS,421607288,N,Y,37.7218856,-122.403654
114,MLS Listing,,Condo/Co-op,2 Mint Plz #206,San Francisco,CA,94103,649000.0,1.0,1.0,San Francisco,674.0,7776.0,1926.0,4.0,963.0,804.0,Active,November-7-2021 02:00 PM,November-7-2021 04:00 PM,http://www.redfin.com/CA/San-Francisco/2-Mint-Plz-94103/unit-206/home/17306449,San Francisco MLS,421608137,N,Y,37.783154,-122.4076777
115,MLS Listing,,Single Family Residential,726 Ellsworth St,San Francisco,CA,94110,1195000.0,3.0,2.0,San Francisco,1243.0,1750.0,1945.0,4.0,961.0,,Active,November-6-2021 01:00 PM,November-6-2021 03:00 PM,http://www.redfin.com/CA/San-Francisco/726-Ellsworth-St-94110/home/766123,San Francisco MLS,421608136,N,Y,37.7342814,-122.4151698
116,MLS Listing,,Condo/Co-op,1545 Pine St #701,San Francisco,CA,94109,1998000.0,2.0,2.0,San Francisco,1071.0,14553.0,2017.0,4.0,1866.0,984.0,Active,,,http://www.redfin.com/CA/San-Francisco/1545-Pine-St-94109/unit-701/home/145945316,San Francisco MLS,421608069,N,Y,37.7893082,-122.4211982
117,MLS Listing,,Condo/Co-op,75 Collingwood St Unit A,San Francisco,CA,94114,775000.0,2.0,1.5,San Francisco,800.0,4375.0,1909.0,4.0,969.0,416.0,Active,November-6-2021 02:00 PM,November-6-2021 04:00 PM,http://www.redfin.com/CA/San-Francisco/75-Collingwood-St-94114/unit-A/home/22043560,San Francisco MLS,421607448,N,Y,37.7612927,-122.435892
118,MLS Listing,,Single Family Residential,2425 Ulloa St,San Francisco,CA,94116,1188000.0,2.0,1.0,San Francisco,1610.0,2495.0,1930.0,4.0,738.0,,Active,November-4-2021 05:00 PM,November-4-2021 07:00 PM,http://www.redfin.com/CA/San-Francisco/2425-Ulloa-St-94116/home/2010833,San Francisco MLS,421607425,N,Y,37.7407119,-122.4824846
119,MLS Listing,,Single Family Residential,140 Oak Park Dr,San Francisco,CA,94131,1545000.0,3.0,2.0,San Francisco,1433.0,3179.0,1959.0,4.0,1078.0,,Active,November-6-2021 01:00 PM,November-6-2021 03:00 PM,http://www.redfin.com/CA/San-Francisco/140-Oak-Park-Dr-94131/home/1437702,San Francisco MLS,421607493,N,Y,37.755591,-122.4560787
120,MLS Listing,,Condo/Co-op,1380 Greenwich St #301,San Francisco,CA,94109,935000.0,1.0,1.0,San Francisco,,18170.0,1990.0,4.0,,605.0,Active,November-3-2021 05:00 PM,November-3-2021 06:00 PM,http://www.redfin.com/CA/San-Francisco/1380-Greenwich-St-94109/unit-301/home/560682,San Francisco MLS,421603132,N,Y,37.800961,-122.422447
121,MLS Listing,,Townhouse,221 Argonaut Ave,San Francisco,CA,94134,828000.0,4.0,3.0,San Francisco,1725.0,1424.0,1962.0,4.0,480.0,156.0,Active,November-3-2021 03:00 PM,November-3-2021 05:30 PM,http://www.redfin.com/CA/San-Francisco/221-Argonaut-Ave-94134/home/791258,San Francisco MLS,421603612,N,Y,37.7105083,-122.4146548
122,MLS Listing,,Condo/Co-op,1318 Church St,San Francisco,CA,94114,1995000.0,3.0,2.0,San Francisco,1470.0,2581.0,2014.0,4.0,1357.0,270.0,Active,November-4-2021 04:00 PM,November-4-2021 06:00 PM,http://www.redfin.com/CA/San-Francisco/1318-Church-St-94114/home/55129303,San Francisco MLS,421603620,N,Y,37.7497459,-122.4274287
123,MLS Listing,,Single Family Residential,464 Lansdale Ave,San Francisco,CA,94127,2495000.0,4.0,5.0,San Francisco,2425.0,3371.0,1958.0,4.0,1029.0,,Active,,,http://www.redfin.com/CA/San-Francisco/464-Lansdale-Ave-94127/home/1927989,San Francisco MLS,421605907,N,Y,37.7359826,-122.4551941
124,MLS Listing,,Condo/Co-op,1079 Lombard St #301,San Francisco,CA,94109,4595000.0,3.0,4.5,San Francisco,3135.0,3295.0,1907.0,4.0,1466.0,448.0,Active,,,http://www.redfin.com/CA/San-Francisco/1079-Lombard-St-94109/unit-301/home/176994281,San Francisco MLS,421606668,N,Y,37.801964,-122.4192414
125,MLS Listing,,Single Family Residential,30 Temescal Ter,San Francisco,CA,94118,2495000.0,3.0,2.0,San Francisco,2320.0,2495.0,1938.0,5.0,1075.0,,Active,November-3-2021 04:30 PM,November-3-2021 05:30 PM,http://www.redfin.com/CA/San-Francisco/30-Temescal-Ter-94118/home/1716707,San Francisco MLS,421607764,N,Y,37.7775107,-122.452098
126,MLS Listing,,Single Family Residential,3573 22nd St,San Francisco,CA,94114,2495000.0,4.0,3.0,San Francisco,1820.0,1947.0,1900.0,5.0,1371.0,,Active,,,http://www.redfin.com/CA/San-Francisco/3573-22nd-St-94114/home/896325,San Francisco MLS,421606901,N,Y,37.7547759,-122.4271308
127,MLS Listing,,Multi-Family (2-4 Unit),52 Alvarado St,SAN FRANCISCO,CA,94110,1600000.0,4.0,3.0,SAN FRANCISCO,2660.0,2848.0,1906.0,5.0,602.0,,Active,,,http://www.redfin.com/CA/San-Francisco/52-Alvarado-St-94110/home/1292387,MLSListings,ML81867091,N,Y,37.7546614,-122.4223395
128,MLS Listing,,Condo/Co-op,320 Graystone Ter,San Francisco,CA,94114,995000.0,2.0,2.0,San Francisco,971.0,4091.0,1958.0,5.0,1025.0,300.0,Active,,,http://www.redfin.com/CA/San-Francisco/320-Graystone-Ter-94114/home/21966746,San Francisco MLS,421608013,N,Y,37.7563879,-122.4436938
129,MLS Listing,,Condo/Co-op,2169 Folsom St Unit M203,San Francisco,CA,94110,1149000.0,1.0,1.0,San Francisco,1012.0,,2001.0,5.0,1135.0,541.0,Active,,,http://www.redfin.com/CA/San-Francisco/2169-Folsom-St-94110/unit-M203/home/2025744,San Francisco MLS,421607750,N,Y,37.762607,-122.4147099
130,MLS Listing,,Condo/Co-op,34 Varennes St,San Francisco,CA,94133,749000.0,2.0,1.0,San Francisco,600.0,,1906.0,5.0,1248.0,1038.0,Active,,,http://www.redfin.com/CA/San-Francisco/34-Varennes-St-94133/home/40053809,San Francisco MLS,421605440,N,Y,37.800299,-122.4066221
131,MLS Listing,,Multi-Family (2-4 Unit),270 Castro St,San Francisco,CA,94114,2995000.0,4.0,3.5,San Francisco,3765.0,3118.0,1928.0,5.0,795.0,,Active,November-7-2021 11:00 AM,November-7-2021 01:00 PM,http://www.redfin.com/CA/San-Francisco/270-Castro-St-94114/home/669599,San Francisco MLS,421607977,N,Y,37.7645408,-122.4355213
132,MLS Listing,,Condo/Co-op,2727 Jackson St #2,San Francisco,CA,94115,769000.0,2.0,1.0,San Francisco,812.0,3510.0,1900.0,5.0,947.0,350.0,Active,,,http://www.redfin.com/CA/San-Francisco/2727-Jackson-St-94115/unit-2/home/114069450,San Francisco MLS,421608048,N,Y,37.791452,-122.440444
133,MLS Listing,,Condo/Co-op,950 Tennessee St #217,San Francisco,CA,94107,595000.0,0.0,1.0,San Francisco,432.0,,2020.0,5.0,1377.0,435.0,Active,,,http://www.redfin.com/CA/San-Francisco/950-Tennessee-St-94107/unit-217/home/172713167,San Francisco MLS,421608056,N,Y,37.7596747,-122.3898245
134,MLS Listing,,Condo/Co-op,1880 Steiner St #102,San Francisco,CA,94115,1350000.0,2.0,2.5,San Francisco,1332.0,17706.0,1999.0,5.0,1014.0,863.0,Active,,,http://www.redfin.com/CA/San-Francisco/1880-Steiner-St-94115/unit-102/home/1908163,San Francisco MLS,421607376,N,Y,37.7867101,-122.4346032
135,MLS Listing,,Condo/Co-op,1100 Northeast Leavenworth St #1298,San Francisco,CA,94109,650000.0,1.0,1.0,San Francisco,468.0,2406.0,1910.0,5.0,1389.0,524.0,Active,November-6-2021 02:00 AM,November-6-2021 04:00 PM,http://www.redfin.com/CA/San-Francisco/1100-Leavenworth-St-94109/unit-1298/home/176992862,San Francisco MLS,421607912,N,Y,37.7914729,-122.4156931
136,MLS Listing,,Single Family Residential,526 Bright St,San Francisco,CA,94132,899000.0,2.0,1.0,San Francisco,1225.0,2500.0,1927.0,5.0,734.0,,Active,,,http://www.redfin.com/CA/San-Francisco/526-Bright-St-94132/home/2014813,San Francisco MLS,421607617,N,Y,37.7202343,-122.4632878
137,MLS Listing,,Condo/Co-op,3410 California St,San Francisco,CA,94118,1825000.0,2.0,2.0,San Francisco,1197.0,3318.0,2006.0,5.0,1525.0,450.0,Active,November-6-2021 01:00 PM,November-6-2021 03:00 PM,http://www.redfin.com/CA/San-Francisco/3410-California-St-94118/home/12402275,San Francisco MLS,421606301,N,Y,37.7870565,-122.4507192
138,MLS Listing,,Single Family Residential,1230 Shafter Ave,San Francisco,CA,94124,938000.0,4.0,3.0,San Francisco,1642.0,2495.0,1948.0,5.0,571.0,,Active,November-6-2021 02:00 PM,November-6-2021 04:00 PM,http://www.redfin.com/CA/San-Francisco/1230-Shafter-Ave-94124/home/741178,San Francisco MLS,421607663,N,Y,37.7272953,-122.3837737
139,MLS Listing,,Single Family Residential,228 Evelyn Way,San Francisco,CA,94127,1195000.0,3.0,2.0,San Francisco,1468.0,2124.0,1944.0,5.0,814.0,,Active,November-6-2021 02:00 PM,November-6-2021 04:00 PM,http://www.redfin.com/CA/San-Francisco/228-Evelyn-Way-94127/home/684254,San Francisco MLS,421607842,N,Y,37.7428154,-122.4499307
140,MLS Listing,,Multi-Family (2-4 Unit),117 - 119 Sutro Heights Ave,San Francisco,CA,94121,3249000.0,7.0,2.0,San Francisco,3820.0,3000.0,1954.0,5.0,851.0,,Active,,,http://www.redfin.com/CA/San-Francisco/117-Sutro-Heights-Ave-94121/unit-119/home/28687206,San Francisco MLS,421607948,N,Y,37.7759571,-122.5085012
141,MLS Listing,,Vacant Land,1697 - 1699 Quint St,San Francisco,CA,94124,399000.0,0.0,,San Francisco,,8802.0,,5.0,,,Active,,,http://www.redfin.com/CA/San-Francisco/1697-Quint-St-94124/home/102821258,San Francisco MLS,421607765,N,Y,37.7353354,-122.3982046
142,MLS Listing,,Condo/Co-op,119 Sutro Heights Ave #119,San Francisco,CA,94121,1325000.0,3.0,2.0,San Francisco,1355.0,3000.0,1954.0,5.0,978.0,,Active,,,http://www.redfin.com/CA/San-Francisco/119-Sutro-Heights-Ave-94121/unit-119/home/176991475,San Francisco MLS,421607939,N,Y,37.775957,-122.5084852
143,MLS Listing,,Single Family Residential,88 Stanford Heights Ave,San Francisco,CA,94127,1099000.0,3.0,2.5,San Francisco,1612.0,2548.0,,5.0,682.0,,Active,,,http://www.redfin.com/CA/San-Francisco/88-Stanford-Heights-Ave-94127/home/690404,San Francisco MLS,421607816,N,Y,37.7356873,-122.4498442
144,MLS Listing,,Condo/Co-op,117 Sutro Heights Ave #117,San Francisco,CA,94121,1125000.0,3.0,2.0,San Francisco,1355.0,3000.0,1954.0,5.0,830.0,,Active,,,http://www.redfin.com/CA/San-Francisco/117-Sutro-Heights-Ave-94121/unit-117/home/28687205,San Francisco MLS,421607933,N,Y,37.7759571,-122.5085012
145,MLS Listing,,Condo/Co-op,117 - A Sutro Heights Ave,San Francisco,CA,94121,799000.0,2.0,2.0,San Francisco,1110.0,3000.0,1954.0,5.0,720.0,,Active,,,http://www.redfin.com/CA/San-Francisco/117-Sutro-Heights-Ave-94121/home/1306573,San Francisco MLS,421607924,N,Y,37.7759571,-122.5085012
146,MLS Listing,,Single Family Residential,2514 14th Ave,San Francisco,CA,94127,2495000.0,4.0,4.0,San Francisco,2708.0,2156.0,1968.0,5.0,921.0,,Active,,,http://www.redfin.com/CA/San-Francisco/2514-14th-Ave-94127/home/1884048,San Francisco MLS,421607269,N,Y,37.7411045,-122.4698773
147,MLS Listing,,Single Family Residential,274 Sussex St,San Francisco,CA,94131,1495000.0,3.0,2.0,San Francisco,1398.0,2400.0,1949.0,5.0,1069.0,,Active,November-7-2021 01:00 PM,November-7-2021 03:00 PM,http://www.redfin.com/CA/San-Francisco/274-Sussex-St-94131/home/2014989,San Francisco MLS,421599916,N,Y,37.7367068,-122.4376885
148,MLS Listing,,Condo/Co-op,633 Chestnut St,San Francisco,CA,94133,1699000.0,3.0,2.0,San Francisco,1435.0,3178.0,1925.0,5.0,1184.0,210.0,Active,,,http://www.redfin.com/CA/San-Francisco/633-Chestnut-St-94133/home/2002069,San Francisco MLS,421607826,N,Y,37.8034331,-122.4137833
149,MLS Listing,,Condo/Co-op,1047 Dolores St,San Francisco,CA,94110,1350000.0,2.0,2.0,San Francisco,1012.0,2948.0,1986.0,5.0,1334.0,367.0,Active,,,http://www.redfin.com/CA/San-Francisco/1047-Dolores-St-94110/home/56537672,San Francisco MLS,421607368,N,Y,37.7527534,-122.42492
150,MLS Listing,,Condo/Co-op,8300 Oceanview Ter #203,San Francisco,CA,94132,589000.0,1.0,1.0,San Francisco,688.0,325629.0,2002.0,5.0,856.0,616.0,Active,,,http://www.redfin.com/CA/San-Francisco/8300-Oceanview-Ter-94132/unit-203/home/1321500,San Francisco MLS,421605106,N,Y,37.7100162,-122.4683516
151,MLS Listing,,Condo/Co-op,1782 18th Ave,San Francisco,CA,94122,1298000.0,3.0,2.0,San Francisco,1380.0,,,5.0,941.0,,Active,November-3-2021 06:30 PM,November-3-2021 07:00 PM,http://www.redfin.com/CA/San-Francisco/1782-18th-Ave-94122/home/176988868,San Francisco MLS,421607070,N,Y,37.75463,-122.4752724
152,MLS Listing,,Condo/Co-op,1050 Noriega St,San Francisco,CA,94122,1998000.0,4.0,3.5,San Francisco,2365.0,3250.0,1916.0,5.0,845.0,,Active,November-6-2021 11:00 AM,November-6-2021 01:00 PM,http://www.redfin.com/CA/San-Francisco/1050-Noriega-St-94122/unit-18TH/home/641438,San Francisco MLS,421605360,N,Y,37.7545183,-122.4752724
153,MLS Listing,,Condo/Co-op,1 Crescent Way #1213,San Francisco,CA,94134,565838.0,2.0,2.0,San Francisco,1063.0,42105.0,2001.0,5.0,532.0,607.0,Active,,,http://www.redfin.com/CA/San-Francisco/1-Crescent-Way-94134/unit-1213/home/919650,San Francisco MLS,421603710,N,Y,37.7107619,-122.3903114
154,MLS Listing,,Single Family Residential,267 Roosevelt Way,San Francisco,CA,94114,2795000.0,3.0,3.0,San Francisco,2170.0,2874.0,1925.0,5.0,1288.0,,Active,,,http://www.redfin.com/CA/San-Francisco/267-Roosevelt-Way-94114/home/1230132,San Francisco MLS,421607725,N,Y,37.7656331,-122.440475
155,MLS Listing,,Condo/Co-op,979 Duncan St,San Francisco,CA,94131,1395000.0,3.0,2.0,San Francisco,1703.0,3388.0,1963.0,5.0,819.0,,Active,November-6-2021 12:00 PM,November-6-2021 02:00 PM,http://www.redfin.com/CA/San-Francisco/979-Duncan-St-94131/home/12353031,San Francisco MLS,421607760,N,Y,37.7449565,-122.4423422
156,MLS Listing,,Condo/Co-op,977 Duncan St,San Francisco,CA,94131,1495000.0,4.0,2.0,San Francisco,1734.0,3388.0,1963.0,5.0,862.0,,Active,November-6-2021 12:00 PM,November-6-2021 02:00 PM,http://www.redfin.com/CA/San-Francisco/977-Duncan-St-94131/unit-979/home/1364118,San Francisco MLS,421607737,N,Y,37.7448707,-122.442334
157,MLS Listing,,Single Family Residential,115 Monterey Blvd,San Francisco,CA,94131,1050000.0,2.0,2.0,San Francisco,1215.0,1875.0,1941.0,5.0,864.0,,Active,,,http://www.redfin.com/CA/San-Francisco/115-Monterey-Blvd-94131/home/917263,San Francisco MLS,421602725,N,Y,37.731406,-122.437879
158,MLS Listing,,Single Family Residential,2258 21st Ave,San Francisco,CA,94116,1395000.0,3.0,2.0,San Francisco,1984.0,2996.0,1926.0,5.0,703.0,,Active,November-4-2021 05:00 PM,November-4-2021 06:00 PM,http://www.redfin.com/CA/San-Francisco/2258-21st-Ave-94116/home/1629106,San Francisco MLS,421607758,N,Y,37.7456028,-122.477782
159,MLS Listing,,Condo/Co-op,3374 22nd St,San Francisco,CA,94110,1129000.0,2.0,1.5,San Francisco,1230.0,2850.0,1907.0,5.0,918.0,,Active,,,http://www.redfin.com/CA/San-Francisco/3374-22nd-St-94110/home/176988404,San Francisco MLS,421606360,N,Y,37.7553128,-122.4225653
160,MLS Listing,,Single Family Residential,191 San Felipe Ave,San Francisco,CA,94127,2999000.0,3.0,3.0,San Francisco,3085.0,3933.0,1926.0,5.0,972.0,,Active,November-4-2021 05:00 PM,November-4-2021 06:30 PM,http://www.redfin.com/CA/San-Francisco/191-San-Felipe-Ave-94127/home/1212225,San Francisco MLS,421603881,N,Y,37.7323193,-122.4634647
161,MLS Listing,,Single Family Residential,1418 Plymouth Ave,San Francisco,CA,94112,1095000.0,2.0,1.0,San Francisco,1280.0,3267.0,1927.0,5.0,855.0,12.0,Active,November-7-2021 02:00 PM,November-7-2021 04:00 PM,http://www.redfin.com/CA/San-Francisco/1418-Plymouth-Ave-94112/home/696827,San Francisco MLS,421607694,N,Y,37.7278969,-122.4562999
162,MLS Listing,,Single Family Residential,809 Scott St,San Francisco,CA,94117,5795000.0,4.0,3.5,San Francisco,4274.0,3998.0,1900.0,5.0,1356.0,,Active,,,http://www.redfin.com/CA/San-Francisco/809-Scott-St-94117/home/595785,San Francisco MLS,421586903,N,Y,37.7773835,-122.436793
163,MLS Listing,,Single Family Residential,150 Kingston St,San Francisco,CA,94110,1200000.0,2.0,1.5,San Francisco,,1855.0,1915.0,5.0,,,Active,November-4-2021 05:00 PM,November-4-2021 06:00 PM,http://www.redfin.com/CA/San-Francisco/150-Kingston-St-94110/home/1679888,San Francisco MLS,421606461,N,Y,37.7413001,-122.421718
164,MLS Listing,,Multi-Family (2-4 Unit),668 - 668B 29th St,San Francisco,CA,94131,1550000.0,3.0,2.0,San Francisco,2090.0,2848.0,1910.0,5.0,742.0,,Active,,,http://www.redfin.com/CA/San-Francisco/668-29th-St-94131/home/843808,San Francisco MLS,421591341,N,Y,37.7433549,-122.4348355
165,MLS Listing,,Single Family Residential,416 Melrose Ave,San Francisco,CA,94127,1090000.0,2.0,1.0,San Francisco,1050.0,2896.0,1946.0,5.0,1038.0,,Active,,,http://www.redfin.com/CA/San-Francisco/416-Melrose-Ave-94127/home/2000700,San Francisco MLS,421606419,N,Y,37.7339439,-122.4516557
166,MLS Listing,,Condo/Co-op,1155 Leavenworth St #14,San Francisco,CA,94109,425000.0,0.0,1.0,San Francisco,,,1911.0,5.0,,385.0,Active,November-6-2021 11:00 AM,November-6-2021 02:00 PM,http://www.redfin.com/CA/San-Francisco/1155-Leavenworth-St-94109/unit-14/home/146104732,BAREIS,421607726,N,Y,37.7919759,-122.4161542
167,MLS Listing,,Condo/Co-op,435 China Basin St #322,San Francisco,CA,94158,1380000.0,2.0,2.0,San Francisco,1185.0,122891.0,2012.0,6.0,1165.0,863.0,Active,,,http://www.redfin.com/CA/San-Francisco/435-China-Basin-St-94158/unit-322/home/40629253,San Francisco MLS,421605957,N,Y,37.7718864,-122.3885728
168,MLS Listing,,Single Family Residential,1890 41st Ave,San Francisco,CA,94122,950000.0,3.0,1.0,San Francisco,1214.0,1746.0,1947.0,6.0,783.0,,Active,,,http://www.redfin.com/CA/San-Francisco/1890-41st-Ave-94122/home/647374,San Francisco MLS,421607635,N,Y,37.7515759,-122.4997345
169,MLS Listing,,Condo/Co-op,488 Folsom St #4106,San Francisco,CA,94105,1995000.0,2.0,2.0,San Francisco,1142.0,,2019.0,6.0,1747.0,1633.0,Active,,,http://www.redfin.com/CA/San-Francisco/488-Folsom-St-94105/unit-4106/home/169571688,San Francisco MLS,421607620,N,Y,37.7877451,-122.3945599
170,MLS Listing,,Condo/Co-op,488 Folsom #4801,San Francisco,CA,94105,5400000.0,3.0,3.0,San Francisco,2159.0,,2019.0,6.0,2501.0,1908.0,Active,,,http://www.redfin.com/CA/San-Francisco/488-Folsom-St-94105/unit-4801/home/147285114,San Francisco MLS,421607615,N,Y,37.7877451,-122.3945599
171,MLS Listing,,Condo/Co-op,77 Carmelita St,San Francisco,CA,94117,1595000.0,2.0,2.0,San Francisco,1400.0,2915.0,1900.0,6.0,1139.0,,Active,,,http://www.redfin.com/CA/San-Francisco/77-Carmelita-St-94117/home/40142301,San Francisco MLS,421603965,N,Y,37.7702754,-122.4345227
172,MLS Listing,,Condo/Co-op,855 La Playa St #265,San Francisco,CA,94121,929000.0,2.0,2.0,San Francisco,1028.0,26603.0,1983.0,6.0,904.0,807.0,Active,November-7-2021 01:00 PM,November-7-2021 03:00 PM,http://www.redfin.com/CA/San-Francisco/855-La-Playa-St-94121/unit-265/home/1051798,San Francisco MLS,421606334,N,Y,37.7722402,-122.5101792
173,MLS Listing,,Single Family Residential,1351 33rd Ave,San Francisco,CA,94122,1250000.0,2.0,1.0,San Francisco,,2996.0,1938.0,6.0,,,Active,,,http://www.redfin.com/CA/San-Francisco/1351-33rd-Ave-94122/home/1580734,San Francisco MLS,421607168,N,Y,37.7619347,-122.4923846
174,MLS Listing,,Condo/Co-op,3166 26th St #2,San Francisco,CA,94110,995000.0,2.0,2.0,San Francisco,1550.0,2328.0,2001.0,6.0,642.0,300.0,Active,November-6-2021 02:00 PM,November-6-2021 04:00 PM,http://www.redfin.com/CA/San-Francisco/3166-26th-St-94110/unit-2/home/997448,San Francisco MLS,421606980,N,Y,37.7495135,-122.4133224
175,MLS Listing,,Single Family Residential,1767 43rd Ave,San Francisco,CA,94122,1795000.0,3.0,2.5,San Francisco,,2909.0,1945.0,6.0,,,Active,,,http://www.redfin.com/CA/San-Francisco/1767-43rd-Ave-94122/home/1910549,San Francisco MLS,421604857,N,Y,37.7537221,-122.5024538
176,MLS Listing,,Condo/Co-op,3651 Webster St,San Francisco,CA,94123,2695000.0,3.0,2.5,San Francisco,2100.0,2500.0,1934.0,6.0,1283.0,,Active,,,http://www.redfin.com/CA/San-Francisco/3651-Webster-St-94123/home/1268330,San Francisco MLS,421606932,N,Y,37.8044571,-122.4355927
177,MLS Listing,,Condo/Co-op,631 Ofarrell St #1705,San Francisco,CA,94109,449000.0,0.0,1.0,San Francisco,546.0,18438.0,,6.0,822.0,820.0,Active,,,http://www.redfin.com/CA/San-Francisco/631-O-Farrell-St-94109/unit-1705/home/1039518,San Francisco MLS,421607400,N,Y,37.7852037,-122.4151808
178,MLS Listing,,Condo/Co-op,555 Innes Ave #211,SAN FRANCISCO,CA,94124,498000.0,1.0,1.0,SAN FRANCISCO,603.0,,2016.0,7.0,826.0,469.0,Active,,,http://www.redfin.com/CA/San-Francisco/555-Innes-Ave-94124/unit-211/home/99819338,MLSListings,ML81868181,N,Y,37.7281082,-122.3692429
179,MLS Listing,,Vacant Land,970 Ashbury St,San Francisco,CA,94117,1500000.0,0.0,,San Francisco,,3602.0,,7.0,,,Active,,,http://www.redfin.com/CA/San-Francisco/970-Ashbury-St-94117/unit-V/home/110056719,San Francisco MLS,421607315,N,Y,37.764665,-122.445491
180,MLS Listing,,Condo/Co-op,2555 Leavenworth St #305,SAN FRANCISCO,CA,94133,799000.0,1.0,1.0,SAN FRANCISCO,672.0,,1961.0,7.0,1189.0,625.0,Active,November-6-2021 02:00 PM,November-6-2021 04:00 PM,http://www.redfin.com/CA/San-Francisco/2555-Leavenworth-St-94133/unit-305/home/1450496,MLSListings,ML81867778,N,Y,37.804693,-122.418709
181,MLS Listing,,Condo/Co-op,2711 18th St #34,San Francisco,CA,94110,849000.0,1.0,1.0,San Francisco,900.0,9875.0,1992.0,7.0,943.0,571.0,Active,,,http://www.redfin.com/CA/San-Francisco/2711-18th-St-94110/unit-34/home/12396343,San Francisco MLS,421604964,N,Y,37.761635,-122.4095707
182,MLS Listing,,Multi-Family (2-4 Unit),4315 - 4317 Lincoln Way,San Francisco,CA,94122,1850000.0,2.0,,San Francisco,2311.0,2495.0,1933.0,7.0,801.0,,Active,,,http://www.redfin.com/CA/San-Francisco/4315-Lincoln-Way-94122/home/1061515,San Francisco MLS,421607286,N,Y,37.7639827,-122.5043935
183,MLS Listing,,Single Family Residential,986 Somerset St,San Francisco,CA,94134,1095000.0,2.0,1.0,San Francisco,1136.0,1751.0,1958.0,7.0,964.0,,Active,,,http://www.redfin.com/CA/San-Francisco/986-Somerset-St-94134/home/782065,San Francisco MLS,421606958,N,Y,37.7196115,-122.4048129
184,MLS Listing,,Condo/Co-op,616 Moraga St #1,San Francisco,CA,94122,729000.0,1.0,1.0,San Francisco,,5000.0,1958.0,7.0,,303.0,Active,,,http://www.redfin.com/CA/San-Francisco/616-Moraga-St-94122/unit-1/home/173188643,San Francisco MLS,421589372,N,Y,37.7566516,-122.4694351
185,MLS Listing,,Condo/Co-op,707 Capp St,San Francisco,CA,94110,1750000.0,4.0,2.0,San Francisco,2045.0,3262.0,1900.0,7.0,856.0,,Active,,,http://www.redfin.com/CA/San-Francisco/707-Capp-St-94110/home/1352425,San Francisco MLS,421607278,N,Y,37.7551041,-122.4173025
186,MLS Listing,,Multi-Family (2-4 Unit),1180 Clayton St,San Francisco,CA,94117,4800000.0,6.0,9.0,San Francisco,4320.0,2151.0,1928.0,7.0,1111.0,,Active,,,http://www.redfin.com/CA/San-Francisco/1180-Clayton-St-94117/home/1916774,San Francisco MLS,421607285,N,Y,37.7620647,-122.4466575
187,MLS Listing,,Single Family Residential,2534 19th Ave,San Francisco,CA,94116,1095000.0,3.0,2.0,San Francisco,2132.0,2979.0,1933.0,7.0,514.0,,Active,,,http://www.redfin.com/CA/San-Francisco/2534-19th-Ave-94116/home/661338,San Francisco MLS,421607304,N,Y,37.7405122,-122.475184
188,MLS Listing,,Single Family Residential,1383 14th Ave,San Francisco,CA,94122,2199000.0,4.0,4.0,San Francisco,2354.0,2495.0,1923.0,7.0,934.0,,Active,,,http://www.redfin.com/CA/San-Francisco/1383-14th-Ave-94122/home/942987,San Francisco MLS,421607245,N,Y,37.762294,-122.4717789
189,MLS Listing,,Condo/Co-op,1141 Sanchez St,San Francisco,CA,94114,1495000.0,2.0,1.0,San Francisco,,2099.0,1940.0,7.0,,,Active,,,http://www.redfin.com/CA/San-Francisco/1141-Sanchez-St-94114/home/176953929,San Francisco MLS,421607118,N,Y,37.750998,-122.4293933
190,MLS Listing,,Condo/Co-op,875 California St #302,San Francisco,CA,94108,2395000.0,2.0,2.0,San Francisco,1430.0,,2020.0,7.0,1675.0,1481.0,Active,,,http://www.redfin.com/CA/San-Francisco/875-California-St-94108/unit-302/home/176963926,San Francisco MLS,421607112,N,Y,37.7918051,-122.4087206
191,MLS Listing,,Condo/Co-op,875 California St #306,San Francisco,CA,94108,1295000.0,1.0,1.0,San Francisco,647.0,,2020.0,7.0,2002.0,1223.0,Active,,,http://www.redfin.com/CA/San-Francisco/875-California-St-94108/unit-306/home/176963925,San Francisco MLS,421607136,N,Y,37.7918051,-122.4087206
192,MLS Listing,,Condo/Co-op,1177 California St #625,San Francisco,CA,94108,868000.0,1.0,1.0,San Francisco,653.0,,1978.0,8.0,1329.0,1006.0,Active,,,http://www.redfin.com/CA/San-Francisco/1177-California-St-94108/unit-625/home/548347,San Francisco MLS,421607049,N,Y,37.7909986,-122.4137649
193,MLS Listing,,Condo/Co-op,960 Market St #304,San Francisco,CA,94102,520000.0,0.0,1.0,San Francisco,344.0,,,8.0,1512.0,598.0,Active,,,http://www.redfin.com/CA/San-Francisco/960-Market-St-94102/unit-304/home/176059895,San Francisco MLS,421607096,N,Y,37.7831239,-122.4095552
194,MLS Listing,,Condo/Co-op,1139 Sanchez St,San Francisco,CA,94114,1495000.0,2.0,1.0,San Francisco,,2099.0,1940.0,8.0,,,Active,,,http://www.redfin.com/CA/San-Francisco/1139-Sanchez-St-94114/unit-1141/home/1371981,San Francisco MLS,421607105,N,Y,37.7509941,-122.4293256
195,MLS Listing,,Single Family Residential,81 San Felipe Ave,San Francisco,CA,94127,3500000.0,6.0,4.5,San Francisco,5130.0,8329.0,1927.0,8.0,682.0,2.0,Active,,,http://www.redfin.com/CA/San-Francisco/81-San-Felipe-Ave-94127/home/695223,San Francisco MLS,421607087,N,Y,37.7308807,-122.4625139
196,MLS Listing,,Single Family Residential,288 29th Ave,San Francisco,CA,94121,2980000.0,4.0,3.5,San Francisco,2985.0,3984.0,1920.0,8.0,998.0,,Active,,,http://www.redfin.com/CA/San-Francisco/288-29th-Ave-94121/home/1468268,San Francisco MLS,421607057,N,Y,37.7839417,-122.4890685
197,MLS Listing,,Condo/Co-op,39 Dashiell Hammett St #401,San Francisco,CA,94108,1900000.0,3.0,3.0,San Francisco,1880.0,4030.0,1982.0,8.0,1011.0,625.0,Active,November-4-2021 05:00 PM,November-4-2021 06:00 PM,http://www.redfin.com/CA/San-Francisco/39-Dashiell-Hammett-St-94108/unit-401/home/552467,San Francisco MLS,421606629,N,Y,37.7908536,-122.4081233
198,MLS Listing,,Condo/Co-op,2121 Webster St #602,San Francisco,CA,94115,3750000.0,2.0,2.0,San Francisco,1479.0,47275.0,2016.0,8.0,2535.0,1559.0,Active,,,http://www.redfin.com/CA/San-Francisco/2121-Webster-St-94115/unit-602/home/125805652,San Francisco MLS,421607023,N,Y,37.790211,-122.4328632
199,MLS Listing,,Condo/Co-op,3727 21st St,San Francisco,CA,94114,1995000.0,3.0,2.0,San Francisco,1450.0,2889.0,1922.0,8.0,1376.0,,Active,,,http://www.redfin.com/CA/San-Francisco/3727-21st-St-94114/home/1605292,San Francisco MLS,421607002,N,Y,37.756076,-122.430723
200,MLS Listing,,Multi-Family (2-4 Unit),15 - 19 Leese St,San Francisco,CA,94110,1398000.0,4.0,6.0,San Francisco,2215.0,2012.0,1906.0,8.0,631.0,,Active,November-3-2021 03:00 PM,November-3-2021 04:00 PM,http://www.redfin.com/CA/San-Francisco/15-Leese-St-94110/home/1955886,San Francisco MLS,421606925,N,Y,37.7370618,-122.423653
201,MLS Listing,,Multi-Family (2-4 Unit),3154 Steiner St,San Francisco,CA,94123,2950000.0,5.0,1.0,San Francisco,3188.0,1367.0,1939.0,8.0,925.0,,Active,,,http://www.redfin.com/CA/San-Francisco/3154-Steiner-St-94123/home/1561736,San Francisco MLS,421607043,N,Y,37.7986205,-122.4372488
202,MLS Listing,,Multi-Family (2-4 Unit),133 Cook St,San Francisco,CA,94118,2950000.0,10.0,3.0,San Francisco,3972.0,3000.0,1969.0,8.0,743.0,,Active,,,http://www.redfin.com/CA/San-Francisco/133-Cook-St-94118/home/1154271,San Francisco MLS,421607044,N,Y,37.7813921,-122.4522085
203,MLS Listing,,Condo/Co-op,1201 California St #305,San Francisco,CA,94109,1879000.0,3.0,3.0,San Francisco,2127.0,1002.0,1927.0,8.0,883.0,2533.0,Active,,,http://www.redfin.com/CA/San-Francisco/1201-California-St-94109/unit-305/home/176949432,San Francisco MLS,421605620,N,Y,37.790957,-122.4143844
204,MLS Listing,,Condo/Co-op,280 Spear St Unit 18E,San Francisco,CA,94105,2250000.0,2.0,2.0,San Francisco,1354.0,47916.0,,8.0,1662.0,1253.0,Active,,,http://www.redfin.com/CA/San-Francisco/280-Spear-St-94105/unit-18E/home/176948738,San Francisco MLS,421607021,N,Y,37.7901615,-122.3913352
205,MLS Listing,,Condo/Co-op,1750 Taylor St #1802,San Francisco,CA,94133,3500000.0,2.0,2.0,San Francisco,,,,8.0,,2311.0,Active,,,http://www.redfin.com/CA/San-Francisco/1750-Taylor-St-94133/unit-1802/home/12400684,San Francisco MLS,421604577,N,Y,37.7988047,-122.4131897
206,MLS Listing,,Condo/Co-op,423 Lyon St,San Francisco,CA,94117,1749000.0,3.0,2.0,San Francisco,1396.0,2836.0,1900.0,8.0,1253.0,,Active,November-3-2021 04:00 PM,November-3-2021 05:30 PM,http://www.redfin.com/CA/San-Francisco/423-Lyon-St-94117/home/1881476,San Francisco MLS,421604133,N,Y,37.774993,-122.443204
207,MLS Listing,,Condo/Co-op,1075 Market St #403,San Francisco,CA,94103,291549.0,0.0,1.0,San Francisco,445.0,,2018.0,8.0,655.0,626.0,Active,November-10-2021 05:00 PM,November-10-2021 07:00 PM,http://www.redfin.com/CA/San-Francisco/1075-Market-St-94103/unit-403/home/169571398,San Francisco MLS,421606603,N,Y,37.7808152,-122.4117362
208,MLS Listing,,Single Family Residential,9 Jade Pl,San Francisco,CA,94131,3995000.0,5.0,3.5,San Francisco,3603.0,7673.0,1977.0,8.0,1109.0,,Active,November-4-2021 04:30 PM,November-4-2021 06:00 PM,http://www.redfin.com/CA/San-Francisco/9-Jade-Pl-94131/home/842019,San Francisco MLS,421606017,N,Y,37.7422185,-122.4405089
209,MLS Listing,,Multi-Family (5+ Unit),3518 16th St,San Francisco,CA,94114,1850000.0,0.0,,San Francisco,3240.0,1698.0,1900.0,8.0,571.0,,Active,,,http://www.redfin.com/CA/San-Francisco/3518-16th-St-94114/home/983499,San Francisco MLS,421606990,N,Y,37.7645028,-122.4318383
210,MLS Listing,,Condo/Co-op,1100 Northeast Leavenworth St #1,San Francisco,CA,94109,939000.0,2.0,2.0,San Francisco,863.0,2406.0,1910.0,9.0,1088.0,695.0,Active,November-6-2021 02:00 AM,November-6-2021 04:00 PM,http://www.redfin.com/CA/San-Francisco/1100-Leavenworth-St-94109/unit-1/home/176946268,San Francisco MLS,421606954,N,Y,37.7914729,-122.4156931
211,MLS Listing,,Condo/Co-op,1100 Northeast Leavenworth St #5,San Francisco,CA,94109,1195000.0,2.0,2.0,San Francisco,893.0,2406.0,1910.0,9.0,1338.0,708.0,Active,November-6-2021 02:00 AM,November-6-2021 04:00 PM,http://www.redfin.com/CA/San-Francisco/1100-Leavenworth-St-94109/unit-5/home/176945888,San Francisco MLS,421606931,N,Y,37.7914729,-122.4156931
212,MLS Listing,,Condo/Co-op,1400 - 610 Mission St #610,San Francisco,CA,94103,349294.0,1.0,1.0,San Francisco,631.0,,,9.0,554.0,462.0,Active,,,http://www.redfin.com/CA/San-Francisco/1400-Mission-St-94103/unit-610/home/109315193,San Francisco MLS,421599479,N,Y,37.7753691,-122.4164734
213,MLS Listing,,Condo/Co-op,1260 Clay St #101,San Francisco,CA,94108,649000.0,1.0,1.0,San Francisco,,22394.0,1950.0,9.0,,67500.0,Active,,,http://www.redfin.com/CA/San-Francisco/1260-Clay-St-94108/unit-101/home/546923,San Francisco MLS,421606926,N,Y,37.7936238,-122.4139419
214,MLS Listing,,Single Family Residential,12 Baden St,San Francisco,CA,94131,988000.0,2.0,2.0,San Francisco,800.0,1729.0,1907.0,9.0,1235.0,,Active,,,http://www.redfin.com/CA/San-Francisco/12-Baden-St-94131/home/958022,San Francisco MLS,421604413,N,Y,37.7306204,-122.4396131
215,MLS Listing,,Vacant Land,1535 Valencia St,San Francisco,CA,94110,1998000.0,0.0,,San Francisco,,6620.0,,10.0,,,Active,,,http://www.redfin.com/CA/San-Francisco/1535-Valencia-St-94110/home/167007163,San Francisco MLS,421606904,N,Y,37.7486254,-122.4200114
216,MLS Listing,,Condo/Co-op,3653 Webster St,San Francisco,CA,94123,2195000.0,2.0,1.5,San Francisco,1700.0,2500.0,1934.0,10.0,1291.0,500.0,Active,,,http://www.redfin.com/CA/San-Francisco/3653-Webster-St-94123/home/176903977,San Francisco MLS,421592381,N,Y,37.8044888,-122.4354604
217,MLS Listing,,Multi-Family (2-4 Unit),897 - 899 Elizabeth St,San Francisco,CA,94114,1445000.0,4.0,,San Francisco,3345.0,2522.0,1906.0,10.0,432.0,,Active,,,http://www.redfin.com/CA/San-Francisco/897-Elizabeth-St-94114/home/1063126,San Francisco MLS,421606812,N,Y,37.7515023,-122.4405194
218,MLS Listing,,Condo/Co-op,252 9th St #401,San Francisco,CA,94103,798888.0,1.0,1.0,San Francisco,,5000.0,2015.0,11.0,,464.0,Active,,,http://www.redfin.com/CA/San-Francisco/252-9th-St-94103/unit-401/home/101656227,San Francisco MLS,421600309,N,Y,37.7741643,-122.4125752
219,MLS Listing,,Single Family Residential,430 West West Portal Ave,San Francisco,CA,94127,2200000.0,3.0,2.5,San Francisco,2790.0,3009.0,1925.0,11.0,789.0,,Active,November-6-2021 01:00 PM,November-6-2021 04:00 PM,http://www.redfin.com/CA/San-Francisco/430-W-Portal-Ave-94127/home/1878389,San Francisco MLS,421598400,N,Y,37.736463,-122.4710161
220,MLS Listing,,Multi-Family (5+ Unit),409 Greenwich St,San Francisco,CA,94133,4248000.0,3.0,2.0,San Francisco,3798.0,2188.0,1913.0,11.0,1118.0,,Active,,,http://www.redfin.com/CA/San-Francisco/409-Greenwich-St-94133/home/1208145,San Francisco MLS,421605084,N,Y,37.8024665,-122.4065997
221,MLS Listing,,Condo/Co-op,489 Harrison St #307,San Francisco,CA,94105,990000.0,1.0,1.0,South Beach,900.0,,2008.0,11.0,1100.0,1182.0,Active,,,http://www.redfin.com/CA/San-Francisco/489-Harrison-St-94105/unit-307/home/17304906,"bridgeMLS, Bay East AOR, or Contra Costa AOR",40972056,N,Y,37.7860724,-122.3926053
222,MLS Listing,,Condo/Co-op,235 Berry St #713,San Francisco,CA,94158,1229000.0,2.0,2.0,San Francisco,1000.0,42959.0,2007.0,11.0,1229.0,674.0,Active,,,http://www.redfin.com/CA/San-Francisco/235-Berry-St-94158/unit-713/home/12278075,San Francisco MLS,421606355,N,Y,37.7747025,-122.3941174
223,MLS Listing,,Condo/Co-op,351 Buena Vista Ave E Unit 401E,San Francisco,CA,94117,788000.0,1.0,1.0,San Francisco,725.0,13515.0,1987.0,11.0,1087.0,829.0,Active,,,http://www.redfin.com/CA/San-Francisco/351-Buena-Vista-Ave-E-94117/unit-401e/home/176876794,San Francisco MLS,421606612,N,Y,37.7675163,-122.4400575
224,MLS Listing,,Single Family Residential,433 Pacheco St,San Francisco,CA,94116,1898000.0,3.0,2.0,San Francisco,2182.0,4072.0,1956.0,11.0,870.0,62.0,Active,,,http://www.redfin.com/CA/San-Francisco/433-Pacheco-St-94116/home/1645279,San Francisco MLS,421606679,N,Y,37.7501752,-122.4639954
225,MLS Listing,,Condo/Co-op,67 Prospect Ave,San Francisco,CA,94110,779000.0,1.0,1.0,San Francisco,,1751.0,1954.0,11.0,,245.0,Active,,,http://www.redfin.com/CA/San-Francisco/67-Prospect-Ave-94110/home/148062640,San Francisco MLS,421605752,N,Y,37.743817,-122.418232
226,MLS Listing,,Condo/Co-op,1298 Treat Ave,San Francisco,CA,94110,999000.0,3.0,2.0,San Francisco,1250.0,,1900.0,11.0,799.0,360.0,Active,,,http://www.redfin.com/CA/San-Francisco/1298-Treat-Ave-94110/home/12311600,San Francisco MLS,421603092,N,Y,37.7493778,-122.4127122
227,MLS Listing,,Single Family Residential,381 Mullen Ave,San Francisco,CA,94110,1750000.0,4.0,2.0,Bernal Heights N,,1750.0,1981.0,11.0,,,Active,,,http://www.redfin.com/CA/San-Francisco/381-Mullen-Ave-94110/home/756616,"bridgeMLS, Bay East AOR, or Contra Costa AOR",40972026,N,Y,37.7455769,-122.405955
228,MLS Listing,,Condo/Co-op,15 Perego Ter #2,San Francisco,CA,94131,1095000.0,3.0,2.0,San Francisco,1900.0,36709.0,1962.0,11.0,576.0,653.0,Active,November-3-2021 05:30 PM,November-3-2021 07:00 PM,http://www.redfin.com/CA/San-Francisco/15-Perego-Ter-94131/unit-2/home/102817453,San Francisco MLS,421605955,N,Y,37.749976,-122.444319
229,MLS Listing,,Multi-Family (2-4 Unit),95 Corwin St,San Francisco,CA,94114,2099000.0,6.0,4.0,San Francisco,3300.0,2674.0,1953.0,11.0,636.0,,Active,,,http://www.redfin.com/CA/San-Francisco/95-Corwin-St-94114/home/1316352,San Francisco MLS,421606504,N,Y,37.7571166,-122.4402769
230,MLS Listing,,Condo/Co-op,748 North Point St #1,San Francisco,CA,94109,1499000.0,3.0,2.0,San Francisco,1482.0,3151.0,2000.0,11.0,1011.0,692.0,Active,,,http://www.redfin.com/CA/San-Francisco/748-N-Point-St-94109/unit-1/home/919826,San Francisco MLS,421604040,N,Y,37.80613,-122.419408
231,MLS Listing,,Condo/Co-op,1856 15th St,San Francisco,CA,94103,1369000.0,2.0,1.0,San Francisco,1150.0,2942.0,1913.0,11.0,1190.0,250.0,Active,,,http://www.redfin.com/CA/San-Francisco/1856-15th-St-94103/home/52059204,San Francisco MLS,421602139,N,Y,37.766419,-122.4256328
232,MLS Listing,,Single Family Residential,3386 Market St,San Francisco,CA,94114,2098000.0,3.0,2.0,San Francisco,1891.0,3699.0,1916.0,11.0,1109.0,,Active,,,http://www.redfin.com/CA/San-Francisco/3386-Market-St-94114/home/1316322,San Francisco MLS,421606593,N,Y,37.7573566,-122.4432072
233,MLS Listing,,Condo/Co-op,52 Innes Ct #301,San Francisco,CA,94124,895000.0,2.0,2.0,San Francisco,1080.0,,2018.0,11.0,829.0,640.0,Active,,,http://www.redfin.com/CA/San-Francisco/52-Innes-Ct-94124/unit-301/home/169576522,"bridgeMLS, Bay East AOR, or Contra Costa AOR",40971996,N,Y,37.7276224,-122.3674287
234,MLS Listing,,Townhouse,592 Hudson Ave,San Francisco,CA,94124,1210000.0,3.0,2.5,San Francisco,1522.0,,2020.0,11.0,795.0,332.0,Active,,,http://www.redfin.com/CA/San-Francisco/592-Hudson-Ave-94124/home/146950316,"bridgeMLS, Bay East AOR, or Contra Costa AOR",40971990,N,Y,37.7294861,-122.3692205
235,MLS Listing,,Single Family Residential,2122 35th Ave,San Francisco,CA,94116,1095000.0,2.0,1.0,San Francisco,1305.0,2996.0,1939.0,11.0,839.0,,Active,,,http://www.redfin.com/CA/San-Francisco/2122-35th-Ave-94116/home/1867314,San Francisco MLS,421605207,N,Y,37.7474108,-122.4930225
236,MLS Listing,,Single Family Residential,2234 34th Ave,San Francisco,CA,94116,1095000.0,3.0,2.0,San Francisco,1387.0,2996.0,1938.0,11.0,789.0,,Active,,,http://www.redfin.com/CA/San-Francisco/2234-34th-Ave-94116/home/656935,San Francisco MLS,421606309,N,Y,37.745384,-122.4917062
237,MLS Listing,,Single Family Residential,736 Anderson St,San Francisco,CA,94110,1895000.0,5.0,3.0,San Francisco,2633.0,1751.0,1904.0,11.0,720.0,,Active,,,http://www.redfin.com/CA/San-Francisco/736-Anderson-St-94110/home/1849647,San Francisco MLS,421606529,N,Y,37.734047,-122.4158113
238,MLS Listing,,Condo/Co-op,1001 Pine St #411,San Francisco,CA,94109,545000.0,0.0,1.0,San Francisco,,18906.0,1963.0,11.0,,413.0,Active,,,http://www.redfin.com/CA/San-Francisco/1001-Pine-St-94109/unit-411/home/1983743,San Francisco MLS,421606009,N,Y,37.7904838,-122.4127464
239,MLS Listing,,Condo/Co-op,352 Coleridge St,San Francisco,CA,94110,1150000.0,2.0,1.5,San Francisco,1555.0,2468.0,1910.0,11.0,740.0,,Active,,,http://www.redfin.com/CA/San-Francisco/352-Coleridge-St-94110/home/12277321,San Francisco MLS,421606308,N,Y,37.7413033,-122.4215329
240,MLS Listing,,Condo/Co-op,2523 BRYANT St,San Francisco,CA,94702,1495000.0,3.0,2.0,Mission District,1571.0,,2007.0,11.0,952.0,,Active,,,http://www.redfin.com/CA/San-Francisco/2523-Bryant-St-94110/home/23424444,"bridgeMLS, Bay East AOR, or Contra Costa AOR",40971976,N,Y,37.7539032,-122.4090492
241,MLS Listing,,Single Family Residential,1900 Monterey Blvd,San Francisco,CA,94127,3575000.0,4.0,3.5,San Francisco,3099.0,4704.0,1923.0,11.0,1154.0,223.0,Active,,,http://www.redfin.com/CA/San-Francisco/1900-Monterey-Blvd-94127/home/1827848,San Francisco MLS,421605381,N,Y,37.7333587,-122.4690371
242,MLS Listing,,Condo/Co-op,2290 Filbert St,San Francisco,CA,94123,1575000.0,3.0,1.0,San Francisco,1430.0,1885.0,1905.0,11.0,1101.0,250.0,Active,,,http://www.redfin.com/CA/San-Francisco/2290-Filbert-St-94123/home/2010061,San Francisco MLS,421606517,N,Y,37.7979965,-122.4370238
243,MLS Listing,,Multi-Family (2-4 Unit),1600 - 1602 York St,San Francisco,CA,94110,1995000.0,5.0,3.0,San Francisco,2512.0,1755.0,1963.0,11.0,794.0,,Active,,,http://www.redfin.com/CA/San-Francisco/1600-York-St-94110/home/758971,San Francisco MLS,421606415,N,Y,37.7473865,-122.4070228
244,MLS Listing,,Condo/Co-op,133 Ellert St #1,San Francisco,CA,94110,1095000.0,2.0,1.0,San Francisco,1282.0,,1908.0,11.0,854.0,420.0,Active,,,http://www.redfin.com/CA/San-Francisco/133-Ellert-St-94110/unit-1/home/17304739,San Francisco MLS,421606522,N,Y,37.7384662,-122.416921
245,MLS Listing,,Condo/Co-op,201 Harrison St #200,San Francisco,CA,94105,699999.0,1.0,1.0,San Francisco,736.0,38449.0,1991.0,11.0,951.0,720.0,Active,,,http://www.redfin.com/CA/San-Francisco/201-Harrison-St-94105/unit-200/home/1212923,San Francisco MLS,421606491,N,Y,37.7874798,-122.3905769
246,MLS Listing,,Condo/Co-op,300 Beale St #415,San Francisco,CA,94105,699000.0,1.0,1.0,San Francisco,753.0,35461.0,1937.0,11.0,928.0,744.0,Active,November-6-2021 02:00 PM,November-6-2021 04:00 PM,http://www.redfin.com/CA/San-Francisco/300-Beale-St-94105/unit-415/home/12395938,San Francisco MLS,421601407,N,Y,37.7881762,-122.3925217
247,MLS Listing,,Single Family Residential,2342 Washington St,San Francisco,CA,94115,12500000.0,5.0,7.0,San Francisco,6503.0,3219.0,,11.0,1922.0,,Active,,,http://www.redfin.com/CA/San-Francisco/2342-Washington-St-94115/home/66026211,San Francisco MLS,421600107,N,Y,37.7921762,-122.4319276
248,MLS Listing,,Condo/Co-op,158 Beulah St,San Francisco,CA,94117,1899000.0,3.0,2.5,San Francisco,1767.0,3437.0,1900.0,11.0,1075.0,,Active,,,http://www.redfin.com/CA/San-Francisco/158-Beulah-St-94117/home/143944445,San Francisco MLS,421606496,N,Y,37.7675397,-122.4524823
249,MLS Listing,,Condo/Co-op,1973 Eddy St #4,San Francisco,CA,94115,1895000.0,2.0,2.5,San Francisco,1900.0,8050.0,1980.0,11.0,997.0,500.0,Active,,,http://www.redfin.com/CA/San-Francisco/1973-Eddy-St-94115/unit-4/home/593016,San Francisco MLS,421605692,N,Y,37.7802168,-122.4402672
250,MLS Listing,,Single Family Residential,1335 Stanyan St,San Francisco,CA,94114,3795000.0,4.0,3.0,San Francisco,3772.0,3097.0,,11.0,1006.0,,Active,,,http://www.redfin.com/CA/San-Francisco/1335-Stanyan-St-94114/home/1263007,San Francisco MLS,421606238,N,Y,37.7590026,-122.4517066
251,MLS Listing,,Condo/Co-op,21 Fresno St,San Francisco,CA,94133,1050000.0,2.0,1.0,San Francisco,923.0,1093.0,1900.0,11.0,1138.0,300.0,Active,,,http://www.redfin.com/CA/San-Francisco/21-Fresno-St-94133/home/1364745,San Francisco MLS,421605815,N,Y,37.7985441,-122.4060079
252,MLS Listing,,Single Family Residential,525 10th Ave,San Francisco,CA,94118,3850000.0,5.0,4.0,San Francisco,3754.0,3998.0,1914.0,11.0,1026.0,,Active,November-3-2021 05:30 PM,November-3-2021 06:30 PM,http://www.redfin.com/CA/San-Francisco/525-10th-Ave-94118/home/1969399,San Francisco MLS,421603846,N,Y,37.7783974,-122.4686896
253,MLS Listing,,Condo/Co-op,3324 - 3330 19th St Unit 3328A,San Francisco,CA,94110,825000.0,3.0,2.0,San Francisco,896.0,2696.0,,11.0,921.0,500.0,Active,,,http://www.redfin.com/CA/San-Francisco/3324-19th-St-94110/unit-3328A/home/176874417,San Francisco MLS,421605686,N,Y,37.7605405,-122.417664
254,MLS Listing,,Multi-Family (2-4 Unit),82 Landers St,San Francisco,CA,94114,2395000.0,4.0,2.0,San Francisco,2111.0,3125.0,1903.0,11.0,1135.0,,Active,,,http://www.redfin.com/CA/San-Francisco/82-Landers-St-94114/home/1093547,San Francisco MLS,421603933,N,Y,37.7665349,-122.4280219
255,MLS Listing,,Condo/Co-op,1229 Potrero Ave,San Francisco,CA,94110,1299000.0,3.0,2.0,San Francisco,1240.0,4165.0,1908.0,11.0,1048.0,330.0,Active,,,http://www.redfin.com/CA/San-Francisco/1229-Potrero-Ave-94110/home/40526083,San Francisco MLS,421606369,N,Y,37.7525405,-122.4062461
256,MLS Listing,,Condo/Co-op,230 Prospect Ave,San Francisco,CA,94110,1595000.0,2.0,2.0,San Francisco,,,1927.0,11.0,,277.0,Active,November-6-2021 12:00 PM,November-6-2021 02:00 PM,http://www.redfin.com/CA/San-Francisco/230-Prospect-Ave-94110/home/173337863,San Francisco MLS,421603652,N,Y,37.7419943,-122.4199607
257,MLS Listing,,Condo/Co-op,601 Van Ness Ave #351,San Francisco,CA,94102,849000.0,2.0,1.5,San Francisco,917.0,105806.0,1982.0,11.0,926.0,1040.0,Active,,,http://www.redfin.com/CA/San-Francisco/601-Van-Ness-Ave-94102/unit-351/home/1838646,San Francisco MLS,421595586,N,Y,37.7811165,-122.4213309
258,MLS Listing,,Condo/Co-op,306 Bartlett St,San Francisco,CA,94110,1450000.0,2.0,2.0,San Francisco,,4695.0,1902.0,11.0,,573.0,Active,,,http://www.redfin.com/CA/San-Francisco/306-Bartlett-St-94110/home/801826,San Francisco MLS,421605429,N,Y,37.751833,-122.4198278
259,MLS Listing,,Condo/Co-op,10 Miller Pl #602,San Francisco,CA,94108,759000.0,1.0,1.0,San Francisco,600.0,5236.0,1963.0,11.0,1265.0,1127.0,Active,,,http://www.redfin.com/CA/San-Francisco/10-Miller-Pl-94108/unit-602/home/1522315,San Francisco MLS,421601740,N,Y,37.793214,-122.4089198
260,MLS Listing,,Condo/Co-op,624 - 626 Castro St #624,San Francisco,CA,94114,1595000.0,2.0,1.5,San Francisco,1661.0,3624.0,1925.0,11.0,960.0,325.0,Active,,,http://www.redfin.com/CA/San-Francisco/624-Castro-St-94114/unit-624/home/176870651,San Francisco MLS,421604125,N,Y,37.7587723,-122.4352023
261,MLS Listing,,Single Family Residential,1555 43rd Ave,San Francisco,CA,94122,1988888.0,3.0,2.5,San Francisco,2392.0,3000.0,1928.0,11.0,831.0,,Active,November-6-2021 02:00 PM,November-6-2021 04:00 PM,http://www.redfin.com/CA/San-Francisco/1555-43rd-Ave-94122/home/635193,San Francisco MLS,421597420,N,Y,37.7577216,-122.5027844
262,MLS Listing,,Single Family Residential,135 Brentwood Ave,San Francisco,CA,94127,2999000.0,5.0,5.0,San Francisco,3418.0,4608.0,,12.0,877.0,2.0,Active,,,http://www.redfin.com/CA/San-Francisco/135-Brentwood-Ave-94127/home/1351979,San Francisco MLS,421603152,N,Y,37.7336362,-122.457494
263,MLS Listing,,Multi-Family (2-4 Unit),2415 - 2417 Cabrillo St,San Francisco,CA,94121,1695000.0,4.0,,San Francisco,3300.0,2500.0,1927.0,12.0,514.0,,Active,November-4-2021 05:30 PM,November-4-2021 07:00 PM,http://www.redfin.com/CA/San-Francisco/2415-Cabrillo-St-94121/home/1228872,San Francisco MLS,421605126,N,Y,37.774173,-122.4846765
264,MLS Listing,,Condo/Co-op,1742 La Salle Ave,San Francisco,CA,94124,995000.0,4.0,2.0,San Francisco,1527.0,2495.0,1900.0,12.0,652.0,,Active,,,http://www.redfin.com/CA/San-Francisco/1742-La-Salle-Ave-94124/home/748273,San Francisco MLS,421606092,N,Y,37.7382126,-122.391169
265,MLS Listing,,Condo/Co-op,38 Steiner St #302,San Francisco,CA,94117,1399000.0,3.0,2.5,San Francisco,,5127.0,1900.0,12.0,,376.0,Active,,,http://www.redfin.com/CA/San-Francisco/38-Steiner-St-94117/unit-302/home/176851684,San Francisco MLS,421599536,N,Y,37.7702163,-122.4316282
266,MLS Listing,,Condo/Co-op,2621 Lake St #2621,San Francisco,CA,94121,1150000.0,2.0,1.0,San Francisco,1395.0,3746.0,1921.0,12.0,824.0,345.0,Active,,,http://www.redfin.com/CA/San-Francisco/2621-Lake-St-94121/unit-2621/home/176851137,San Francisco MLS,421600144,N,Y,37.7854524,-122.487682
267,MLS Listing,,Condo/Co-op,1906 Lyon St #3,San Francisco,CA,94115,749000.0,1.0,1.0,San Francisco,580.0,2782.0,1900.0,12.0,1291.0,250.0,Active,,,http://www.redfin.com/CA/San-Francisco/1906-Lyon-St-94115/unit-3/home/1798596,San Francisco MLS,421605704,N,Y,37.788887,-122.4454061
268,MLS Listing,,Condo/Co-op,65 Hermann St #6,SAN FRANCISCO,CA,94102,749999.0,1.0,1.0,SAN FRANCISCO,877.0,,1959.0,12.0,855.0,405.0,Active,,,http://www.redfin.com/CA/San-Francisco/65-Hermann-St-94102/unit-6/home/582164,MLSListings,ML81867697,N,Y,37.7705138,-122.4261534
269,MLS Listing,,Condo/Co-op,3215 21st St Unit B,San Francisco,CA,94110,1095000.0,2.0,2.0,San Francisco,1023.0,1974.0,2007.0,12.0,1070.0,533.0,Active,,,http://www.redfin.com/CA/San-Francisco/3215-21st-St-94110/unit-B/home/17306298,San Francisco MLS,421605328,N,Y,37.7568598,-122.4194062
270,MLS Listing,,Single Family Residential,279 Prague St,SAN FRANCISCO,CA,94112,948888.0,2.0,1.0,SAN FRANCISCO,1135.0,2495.0,1948.0,12.0,836.0,,Active,,,http://www.redfin.com/CA/San-Francisco/279-Prague-St-94112/home/1503687,MLSListings,ML81867693,N,Y,37.7176373,-122.4279341
271,MLS Listing,,Condo/Co-op,1 Elizabeth St #1,San Francisco,CA,94110,1295000.0,3.0,2.0,San Francisco,1403.0,2391.0,2001.0,12.0,923.0,351.0,Active,,,http://www.redfin.com/CA/San-Francisco/1-Elizabeth-St-94110/unit-1/home/102818835,San Francisco MLS,421604138,N,Y,37.7527448,-122.4217109
272,MLS Listing,,Condo/Co-op,124 9th Ave,San Francisco,CA,94118,2995000.0,4.0,4.0,San Francisco,2872.0,3027.0,1923.0,12.0,1043.0,250.0,Active,,,http://www.redfin.com/CA/San-Francisco/124-9th-Ave-94118/home/1942911,San Francisco MLS,421605371,N,Y,37.786057,-122.467534
273,MLS Listing,,Condo/Co-op,388 Fulton St #403,San Francisco,CA,94102,495000.0,0.0,1.0,San Francisco,,12509.0,,12.0,,462.0,Active,,,http://www.redfin.com/CA/San-Francisco/388-Fulton-St-94102/unit-403/home/105672375,San Francisco MLS,421605784,N,Y,37.7790326,-122.4231449
274,MLS Listing,,Condo/Co-op,614 Natoma St Unit 616B,San Francisco,CA,94103,1095000.0,3.0,2.0,San Francisco,1202.0,1875.0,1906.0,12.0,911.0,375.0,Active,,,http://www.redfin.com/CA/San-Francisco/614-Natoma-St-94103/unit-616B/home/176847368,San Francisco MLS,421606190,N,Y,37.7781121,-122.4104402
275,MLS Listing,,Multi-Family (2-4 Unit),72 - 74 Elgin Park St,San Francisco,CA,94103,1398000.0,4.0,2.0,San Francisco,2273.0,1646.0,1906.0,12.0,615.0,,Active,November-3-2021 01:00 PM,November-3-2021 02:30 PM,http://www.redfin.com/CA/San-Francisco/72-Elgin-Park-94103/home/1884676,San Francisco MLS,421606194,N,Y,37.7703948,-122.4234018
276,MLS Listing,,Condo/Co-op,207 King St #409,San Francisco,CA,94107,1695000.0,2.0,2.5,San Francisco,1765.0,,2003.0,12.0,960.0,746.0,Active,,,http://www.redfin.com/CA/San-Francisco/207-King-St-94107/unit-409/home/2071124,San Francisco MLS,421591393,N,Y,37.7776147,-122.3919074
277,MLS Listing,,Condo/Co-op,572 42nd Ave #3,San Francisco,CA,94121,1280000.0,3.0,3.5,San Francisco,1727.0,6049.0,2005.0,12.0,741.0,235.0,Active,November-7-2021 02:00 PM,November-7-2021 04:00 PM,http://www.redfin.com/CA/San-Francisco/572-42nd-Ave-94121/unit-3/home/176845148,San Francisco MLS,421605391,N,Y,37.777867,-122.502514
278,MLS Listing,,Condo/Co-op,960 Market St #217,San Francisco,CA,94102,715000.0,0.0,1.0,San Francisco,503.0,,,12.0,1421.0,685.0,Active,,,http://www.redfin.com/CA/San-Francisco/960-Market-St-94102/unit-217/home/176844354,San Francisco MLS,421606182,N,Y,37.7831239,-122.4095552
279,MLS Listing,,Condo/Co-op,1805 Fillmore St #305,San Francisco,CA,94115,1195000.0,2.0,2.0,San Francisco,1129.0,10687.0,1986.0,12.0,1058.0,633.0,Active,,,http://www.redfin.com/CA/San-Francisco/1805-Fillmore-St-94115/unit-305/home/571429,San Francisco MLS,421606054,N,Y,37.7863651,-122.4336079
280,MLS Listing,,Condo/Co-op,788 Minna St #501,San Francisco,CA,94103,775000.0,1.0,1.0,San Francisco,702.0,5427.0,2011.0,12.0,1104.0,656.0,Active,,,http://www.redfin.com/CA/San-Francisco/788-Minna-St-94103/unit-501/home/40033228,San Francisco MLS,421605793,N,Y,37.7760486,-122.4141237
281,MLS Listing,,Condo/Co-op,1080 Chestnut St Unit 15A,San Francisco,CA,94109,7950000.0,2.0,2.5,San Francisco,2626.0,,1962.0,12.0,3027.0,3843.0,Active,,,http://www.redfin.com/CA/San-Francisco/1080-Chestnut-St-94109/unit-15A/home/12399697,San Francisco MLS,421599345,N,Y,37.803057,-122.4210212
282,MLS Listing,,Condo/Co-op,965 Folsom St #204,San Francisco,CA,94107,1295000.0,2.0,2.0,San Francisco,1560.0,8332.0,2000.0,12.0,830.0,713.0,Active,,,http://www.redfin.com/CA/San-Francisco/965-Folsom-St-94107/unit-204/home/12397145,San Francisco MLS,421606084,N,Y,37.7789664,-122.4044726
283,MLS Listing,,Condo/Co-op,340 Benton Ave,San Francisco,CA,94110,1149000.0,3.0,2.5,San Francisco,1535.0,1179.0,2008.0,12.0,749.0,150.0,Active,,,http://www.redfin.com/CA/San-Francisco/340-Benton-Ave-94110/home/18554221,San Francisco MLS,421603832,N,Y,37.7339132,-122.419185
284,MLS Listing,,Single Family Residential,90 Hazelwood Ave,San Francisco,CA,94112,1495000.0,3.0,1.0,San Francisco,1590.0,4917.0,1923.0,12.0,940.0,10.0,Active,,,http://www.redfin.com/CA/San-Francisco/90-Hazelwood-Ave-94112/home/692527,San Francisco MLS,421605546,N,Y,37.7304159,-122.4540442
285,MLS Listing,,Condo/Co-op,140 S Van Ness Ave #1021,SAN FRANCISCO,CA,94103,995000.0,2.0,2.0,SAN FRANCISCO,1160.0,,2002.0,12.0,858.0,642.0,Active,,,http://www.redfin.com/CA/San-Francisco/140-S-Van-Ness-Ave-94103/unit-1021/home/1489998,MLSListings,ML81866205,N,Y,37.7716424,-122.4187147
286,MLS Listing,,Single Family Residential,30 Justin Dr,San Francisco,CA,94112,1699000.0,4.0,3.0,San Francisco,2531.0,5061.0,1925.0,12.0,671.0,,Active,,,http://www.redfin.com/CA/San-Francisco/30-Justin-Dr-94112/home/1828995,San Francisco MLS,421605872,N,Y,37.7343007,-122.4232555
287,MLS Listing,,Multi-Family (5+ Unit),629 33rd Ave,San Francisco,CA,94121,2995000.0,7.0,4.0,San Francisco,6015.0,3000.0,1928.0,12.0,498.0,,Active,November-4-2021 04:00 PM,November-4-2021 05:00 PM,http://www.redfin.com/CA/San-Francisco/629-33rd-Ave-94121/home/618388,San Francisco MLS,421605464,N,Y,37.7772127,-122.4934769
288,MLS Listing,,Multi-Family (5+ Unit),279 20th Ave,San Francisco,CA,94121,2295000.0,0.0,,San Francisco,4220.0,3000.0,1926.0,12.0,544.0,,Active,,,http://www.redfin.com/CA/San-Francisco/279-20th-Ave-94121/home/1804858,San Francisco MLS,421606063,N,Y,37.7827456,-122.4799156
289,MLS Listing,,Single Family Residential,42 Ina Ct,San Francisco,CA,94112,940000.0,2.0,2.0,San Francisco,1223.0,2500.0,1950.0,12.0,769.0,,Active,,,http://www.redfin.com/CA/San-Francisco/42-Ina-Ct-94112/home/772779,San Francisco MLS,421605165,N,Y,37.7236336,-122.4250318
290,MLS Listing,,Condo/Co-op,501 33rd Ave #407,San Francisco,CA,94121,1248000.0,3.0,2.0,San Francisco,1711.0,11622.0,2006.0,12.0,729.0,568.0,Active,,,http://www.redfin.com/CA/San-Francisco/501-33rd-Ave-94121/unit-407/home/91235424,San Francisco MLS,421604592,N,Y,37.7793967,-122.4934288
291,MLS Listing,,Single Family Residential,3055 21st Ave,San Francisco,CA,94132,1695000.0,4.0,2.0,San Francisco,2525.0,3734.0,1933.0,12.0,671.0,,Active,,,http://www.redfin.com/CA/San-Francisco/3055-21st-Ave-94132/home/1998187,San Francisco MLS,421603399,N,Y,37.7317968,-122.4771297
292,MLS Listing,,Condo/Co-op,239 Brannan St Unit 7H,San Francisco,CA,94107,1095000.0,1.0,1.5,San Francisco,981.0,82966.0,2002.0,12.0,1116.0,1221.0,Active,,,http://www.redfin.com/CA/San-Francisco/239-Brannan-St-94107/unit-7H/home/861333,San Francisco MLS,421603190,N,Y,37.782609,-122.3907447
293,MLS Listing,,Single Family Residential,1519 Noe St,San Francisco,CA,94131,1495000.0,2.0,1.0,San Francisco,,2000.0,1912.0,12.0,,,Active,,,http://www.redfin.com/CA/San-Francisco/1519-Noe-St-94131/home/1520349,San Francisco MLS,421605012,N,Y,37.7446994,-122.4310088
294,MLS Listing,,Condo/Co-op,421 Diamond St,San Francisco,CA,94114,1450000.0,2.0,1.5,San Francisco,1280.0,3125.0,2000.0,12.0,1133.0,,Active,,,http://www.redfin.com/CA/San-Francisco/421-Diamond-St-94114/home/1837524,San Francisco MLS,421605203,N,Y,37.755556,-122.436361
295,MLS Listing,,Single Family Residential,1506 34th Ave,San Francisco,CA,94122,1395000.0,3.0,1.5,San Francisco,1893.0,2275.0,1936.0,12.0,737.0,,Active,,,http://www.redfin.com/CA/San-Francisco/1506-34th-Ave-94122/home/637766,San Francisco MLS,421588802,N,Y,37.7589341,-122.4926233
296,MLS Listing,,Single Family Residential,273 Edinburgh St,San Francisco,CA,94112,998000.0,3.0,1.0,San Francisco,1800.0,2500.0,1907.0,12.0,554.0,,Active,,,http://www.redfin.com/CA/San-Francisco/273-Edinburgh-St-94112/home/2009105,San Francisco MLS,421583029,N,Y,37.724662,-122.4291995
297,MLS Listing,,Multi-Family (2-4 Unit),5346 - 5350 Mission St,San Francisco,CA,94112,1295000.0,2.0,,San Francisco,2100.0,1986.0,1925.0,12.0,617.0,,Active,,,http://www.redfin.com/CA/San-Francisco/5346-Mission-St-94112/home/176818340,San Francisco MLS,421605575,N,Y,37.7142076,-122.4434164
298,MLS Listing,,Single Family Residential,40 Homewood Ct,San Francisco,CA,94112,1795000.0,4.0,3.0,San Francisco,,5397.0,1955.0,12.0,,,Active,,,http://www.redfin.com/CA/San-Francisco/40-Homewood-Ct-94112/home/1928141,San Francisco MLS,421605309,N,Y,37.7282656,-122.4605458
299,MLS Listing,,Single Family Residential,2533 Moraga St,San Francisco,CA,94122,1195000.0,3.0,1.0,San Francisco,1360.0,2500.0,1940.0,13.0,879.0,,Active,,,http://www.redfin.com/CA/San-Francisco/2533-Moraga-St-94122/home/1943449,San Francisco MLS,421605925,N,Y,37.7553124,-122.4900855
300,MLS Listing,,Single Family Residential,619 Capitol Ave,San Francisco,CA,94112,788000.0,3.0,2.0,San Francisco,1315.0,2063.0,1900.0,13.0,599.0,,Active,,,http://www.redfin.com/CA/San-Francisco/619-Capitol-Ave-94112/home/2025366,San Francisco MLS,421602820,N,Y,37.7160867,-122.4592189
301,MLS Listing,,Single Family Residential,347 Holyoke St,San Francisco,CA,94134,1399000.0,3.0,2.0,San Francisco,2025.0,2996.0,1926.0,13.0,691.0,,Active,,,http://www.redfin.com/CA/San-Francisco/347-Holyoke-St-94134/home/1430882,San Francisco MLS,421603397,N,Y,37.7269706,-122.4085658
302,MLS Listing,,Condo/Co-op,5108 Diamond Heights Blvd Unit A,San Francisco,CA,94131,950000.0,2.0,2.0,San Francisco,1082.0,,1964.0,13.0,878.0,874.0,Active,,,http://www.redfin.com/CA/San-Francisco/5108-Diamond-Heights-Blvd-94131/unit-A/home/840534,San Francisco MLS,421605778,N,Y,37.7467612,-122.4417364
303,MLS Listing,,Condo/Co-op,1139 Divisadero St #112,San Francisco,CA,94115,1325000.0,2.0,2.0,San Francisco,1460.0,30997.0,1983.0,13.0,908.0,543.0,Active,,,http://www.redfin.com/CA/San-Francisco/1139-Divisadero-St-94115/unit-112/home/1341135,San Francisco MLS,421605857,N,Y,37.7800188,-122.4390183
304,MLS Listing,,Single Family Residential,2216 Castro St,San Francisco,CA,94131,1699000.0,3.0,3.0,San Francisco,1428.0,2625.0,2007.0,13.0,1190.0,217.0,Active,,,http://www.redfin.com/CA/San-Francisco/2216-Castro-St-94131/home/17305758,San Francisco MLS,421605488,N,Y,37.7437554,-122.4335636
305,MLS Listing,,Multi-Family (2-4 Unit),2301 - 2317 Jackson St,San Francisco,CA,94115,1950000.0,7.0,4.0,San Francisco,2440.0,2186.0,1900.0,13.0,799.0,,Active,,,http://www.redfin.com/CA/San-Francisco/2301-Jackson-St-94115/home/1434391,San Francisco MLS,421602293,N,Y,37.7925191,-122.4331566
306,MLS Listing,,Condo/Co-op,555 Fulton St #421,San Francisco,CA,94102,770000.0,1.0,1.0,San Francisco,645.0,,,13.0,1194.0,665.0,Active,,,http://www.redfin.com/CA/San-Francisco/555-Fulton-St-94102/unit-421/home/173331349,San Francisco MLS,421605775,N,Y,37.7781581,-122.4261091
307,MLS Listing,,Condo/Co-op,555 Fulton St #422,San Francisco,CA,94102,775000.0,1.0,1.0,San Francisco,651.0,,,13.0,1190.0,665.0,Active,,,http://www.redfin.com/CA/San-Francisco/555-Fulton-St-94102/unit-422/home/173331350,San Francisco MLS,421605777,N,Y,37.7781581,-122.4261091
308,MLS Listing,,Condo/Co-op,555 Fulton St #230,San Francisco,CA,94102,730000.0,1.0,1.0,San Francisco,714.0,,,13.0,1022.0,681.0,Active,,,http://www.redfin.com/CA/San-Francisco/555-Fulton-St-94102/unit-230/home/108314919,San Francisco MLS,421605762,N,Y,37.7781581,-122.4261091
309,MLS Listing,,Single Family Residential,45 Sunview Dr,San Francisco,CA,94131,1195000.0,2.0,1.0,San Francisco,1171.0,3267.0,1957.0,13.0,1020.0,,Active,November-6-2021 02:00 PM,November-6-2021 04:00 PM,http://www.redfin.com/CA/San-Francisco/45-Sunview-Dr-94131/home/1975871,San Francisco MLS,421599900,N,Y,37.7473811,-122.4465579
310,MLS Listing,,Condo/Co-op,420 Stanyan St #7,SAN FRANCISCO,CA,94117,1450000.0,3.0,2.0,SAN FRANCISCO,1441.0,,2003.0,13.0,1006.0,810.0,Active,,,http://www.redfin.com/CA/San-Francisco/420-Stanyan-St-94117/unit-7/home/871389,MLSListings,ML81867511,N,Y,37.7744244,-122.4542653
311,MLS Listing,,Single Family Residential,101 Craut St,San Francisco,CA,94112-1501,1399000.0,3.0,2.0,Bernal Heights N,1416.0,3040.0,1952.0,13.0,988.0,,Active,,,http://www.redfin.com/CA/San-Francisco/101-Craut-St-94112/home/1815195,"bridgeMLS, Bay East AOR, or Contra Costa AOR",40971621,N,Y,37.7306407,-122.4282548
312,MLS Listing,,Condo/Co-op,135 Red Rock Way Unit 107L,San Francisco,CA,94131,598000.0,0.0,1.0,San Francisco,592.0,6959.0,1972.0,13.0,1010.0,516.0,Active,November-6-2021 02:00 PM,November-6-2021 04:00 PM,http://www.redfin.com/CA/San-Francisco/135-Red-Rock-Way-94131/unit-107L/home/1008075,San Francisco MLS,421605723,N,Y,37.7461571,-122.4420357
313,MLS Listing,,Multi-Family (5+ Unit),1171 - 1173 Valencia St,San Francisco,CA,94110,3750000.0,0.0,,San Francisco,,3123.0,1885.0,13.0,,,Active,,,http://www.redfin.com/CA/San-Francisco/1171-Valencia-St-94110/home/1861795,San Francisco MLS,421605727,N,Y,37.7542161,-122.4205017
314,MLS Listing,,Single Family Residential,2378 21st Ave,SAN FRANCISCO,CA,94116,1499000.0,4.0,3.0,SAN FRANCISCO,2565.0,3000.0,1926.0,13.0,584.0,,Active,,,http://www.redfin.com/CA/San-Francisco/2378-21st-Ave-94116/home/1965021,MLSListings,ML81867478,N,Y,37.7433975,-122.4776604
315,MLS Listing,,Condo/Co-op,301 Mission St Unit 18F,San Francisco,CA,94105,2495000.0,2.0,3.0,San Francisco,1845.0,50667.0,2009.0,13.0,1352.0,1821.0,Active,,,http://www.redfin.com/CA/San-Francisco/301-Mission-St-94105/unit-18F/home/40142434,San Francisco MLS,421605137,N,Y,37.7903824,-122.3961531
316,MLS Listing,,Condo/Co-op,236 Ritch St,San Francisco,CA,94107,2249000.0,2.0,2.0,San Francisco,2136.0,7714.0,1998.0,13.0,1053.0,538.0,Active,November-6-2021 12:00 PM,November-6-2021 02:00 PM,http://www.redfin.com/CA/San-Francisco/236-Ritch-St-94107/home/12397165,San Francisco MLS,421605564,N,Y,37.7802631,-122.3960508
317,MLS Listing,,Single Family Residential,22 Lobos St,San Francisco,CA,94112,1098000.0,3.0,2.5,San Francisco,1470.0,3123.0,1965.0,13.0,747.0,,Active,November-4-2021 05:00 PM,November-4-2021 06:30 PM,http://www.redfin.com/CA/San-Francisco/22-Lobos-St-94112/home/833653,San Francisco MLS,421601379,N,Y,37.7151238,-122.4535134
318,MLS Listing,,Condo/Co-op,1160 Mission St #1701,SAN FRANCISCO,CA,94103,1199000.0,2.0,2.0,SAN FRANCISCO,1201.0,,2008.0,14.0,998.0,1007.0,Active,,,http://www.redfin.com/CA/San-Francisco/1160-Mission-St-94103/unit-1701/home/17305064,MLSListings,ML81867389,N,Y,37.7786972,-122.4126145
319,MLS Listing,,Condo/Co-op,1177 California St #212,San Francisco,CA,94108,995000.0,1.0,1.0,San Francisco,1056.0,31662.0,1978.0,14.0,942.0,1336.0,Active,,,http://www.redfin.com/CA/San-Francisco/1177-California-St-94108/unit-212/home/549710,San Francisco MLS,421605500,N,Y,37.7909986,-122.4137649
320,MLS Listing,,Condo/Co-op,240 Lombard St #225,San Francisco,CA,94111,625000.0,1.0,1.0,San Francisco,582.0,,1993.0,14.0,1074.0,891.0,Active,,,http://www.redfin.com/CA/San-Francisco/240-Lombard-St-94111/unit-225/home/542263,San Francisco MLS,421605527,N,Y,37.8040758,-122.4052486
321,MLS Listing,,Multi-Family (5+ Unit),924 - 930 South Van Ness Ave,San Francisco,CA,94110,2500000.0,0.0,,San Francisco,7856.0,,1910.0,14.0,318.0,,Active,,,http://www.redfin.com/CA/San-Francisco/924-S-Van-Ness-Ave-94110/home/935665,San Francisco MLS,421601100,N,Y,37.7582661,-122.4171848
322,MLS Listing,,Multi-Family (2-4 Unit),1423 - 1427A Jackson St,San Francisco,CA,94109,2680000.0,7.0,4.0,San Francisco,4385.0,2188.0,1907.0,14.0,611.0,,Active,,,http://www.redfin.com/CA/San-Francisco/1423-Jackson-St-94109/unit-1427/home/1357064,San Francisco MLS,421605262,N,Y,37.7943193,-122.4185347
323,MLS Listing,,Condo/Co-op,1200 Rhode Island St #4,San Francisco,CA,94107,599000.0,2.0,1.0,San Francisco,726.0,80224.0,1989.0,14.0,825.0,589.0,Active,,,http://www.redfin.com/CA/San-Francisco/1200-Rhode-Island-St-94107/unit-4/home/737417,San Francisco MLS,421605421,N,Y,37.7544171,-122.4017889
324,MLS Listing,,Multi-Family (2-4 Unit),1918 - 1922 Clement St,San Francisco,CA,94121,2300000.0,5.0,3.5,San Francisco,3934.0,2500.0,1908.0,14.0,585.0,,Active,November-7-2021 02:00 PM,November-7-2021 04:00 PM,http://www.redfin.com/CA/San-Francisco/1918-Clement-St-94121/home/148075959,San Francisco MLS,421605453,N,Y,37.7824574,-122.4800424
325,MLS Listing,,Single Family Residential,471 Victoria St,San Francisco,CA,94132,1195000.0,3.0,2.0,San Francisco,1125.0,2495.0,1941.0,14.0,1062.0,,Active,,,http://www.redfin.com/CA/San-Francisco/471-Victoria-St-94132/home/1544757,San Francisco MLS,421604404,N,Y,37.7192047,-122.4655433
326,MLS Listing,,Condo/Co-op,776 Tehama St #14,San Francisco,CA,94103,1089000.0,2.0,2.0,San Francisco,1063.0,5886.0,2006.0,14.0,1024.0,1029.0,Active,,,http://www.redfin.com/CA/San-Francisco/776-Tehama-St-94103/unit-14/home/12354533,San Francisco MLS,421603734,N,Y,37.7749615,-122.4123732
327,MLS Listing,,Multi-Family (2-4 Unit),105 Sickles Ave,San Francisco,CA,94112,1550000.0,4.0,4.0,San Francisco,,1999.0,,14.0,,,Active,,,http://www.redfin.com/CA/San-Francisco/105-Sickles-Ave-94112/home/1512265,San Francisco MLS,421605316,N,Y,37.7091742,-122.4536019
328,MLS Listing,,Condo/Co-op,246 2nd St #1407,San Francisco,CA,94105,1199000.0,2.0,2.0,San Francisco,1047.0,12933.0,2000.0,14.0,1145.0,679.0,Active,,,http://www.redfin.com/CA/San-Francisco/246-2nd-St-94105/unit-1407/home/920158,San Francisco MLS,421604262,N,Y,37.7858817,-122.3974144
329,MLS Listing,,Single Family Residential,4219 26th St,San Francisco,CA,94131,2395000.0,3.0,3.0,San Francisco,,2850.0,1907.0,14.0,,,Active,,,http://www.redfin.com/CA/San-Francisco/4219-26th-St-94131/home/805179,San Francisco MLS,421601467,N,Y,37.7478208,-122.4344985
330,MLS Listing,,Single Family Residential,1948 Quesada Ave,San Francisco,CA,94124,2150000.0,6.0,4.5,San Francisco,3221.0,2495.0,2019.0,14.0,667.0,,Active,November-4-2021 05:30 PM,November-4-2021 07:00 PM,http://www.redfin.com/CA/San-Francisco/1948-Quesada-Ave-94124/home/748624,San Francisco MLS,421600422,N,Y,37.7362298,-122.3960978
331,MLS Listing,,Condo/Co-op,1900 Laguna St,San Francisco,CA,94115,1495000.0,2.0,1.0,San Francisco,1451.0,2128.0,1900.0,14.0,1030.0,,Active,November-6-2021 02:00 PM,November-6-2021 04:00 PM,http://www.redfin.com/CA/San-Francisco/1900-Laguna-St-94109/home/1561927,San Francisco MLS,421604867,N,Y,37.7888284,-122.4286093
332,MLS Listing,,Condo/Co-op,8300 OCEANVIEW Ter #103,SAN FRANCISCO,CA,94132,599000.0,1.0,1.0,SAN FRANCISCO,669.0,,2002.0,15.0,895.0,610.0,Active,,,http://www.redfin.com/CA/San-Francisco/8300-Oceanview-Ter-94132/unit-103/home/1746169,MLSListings,ML81867258,N,Y,37.7100162,-122.4683516
333,MLS Listing,,Multi-Family (2-4 Unit),61 Capp St,San Francisco,CA,94103,1650000.0,0.0,4.0,San Francisco,4525.0,1875.0,1932.0,15.0,365.0,,Active,,,http://www.redfin.com/CA/San-Francisco/61-Capp-St-94103/home/1960667,San Francisco MLS,421601701,N,Y,37.7658571,-122.4184771
334,MLS Listing,,Condo/Co-op,1740 Franklin St #8,San Francisco,CA,94109,1699000.0,3.0,1.5,San Francisco,1688.0,4514.0,1913.0,15.0,1007.0,875.0,Active,,,http://www.redfin.com/CA/San-Francisco/1740-Franklin-St-94109/unit-8/home/568601,San Francisco MLS,421605237,N,Y,37.79075,-122.4238306
335,MLS Listing,,Single Family Residential,2725 Broadway St,San Francisco,CA,94115,9500000.0,4.0,4.5,San Francisco,5213.0,4346.0,1983.0,15.0,1822.0,,Active,,,http://www.redfin.com/CA/San-Francisco/2725-Broadway-94115/home/1618205,San Francisco MLS,421597451,N,Y,37.793103,-122.442157
336,MLS Listing,,Condo/Co-op,3131 Pierce St #204,San Francisco,CA,94123,1449000.0,2.0,2.0,San Francisco,1028.0,,,15.0,1410.0,1053.0,Active,,,http://www.redfin.com/CA/San-Francisco/3131-Pierce-St-94123/unit-204/home/175334470,San Francisco MLS,421605183,N,Y,37.7989774,-122.4394952
