,SALE TYPE,SOLD DATE,PROPERTY TYPE,ADDRESS,CITY,STATE OR PROVINCE,ZIP OR POSTAL CODE,PRICE,BEDS,BATHS,LOCATION,SQUARE FEET,LOT SIZE,YEAR BUILT,DAYS ON MARKET,$/SQUARE FEET,HOA/MONTH,STATUS,NEXT OPEN HOUSE START TIME,NEXT OPEN HOUSE END TIME,URL (SEE http://www.redfin.com/buy-a-home/comparative-market-analysis FOR INFO ON PRICING),SOURCE,MLS#,FAVORITE,INTERESTED,LATITUDE,LONGITUDE
0,MLS Listing,,Single Family Residential,3130 Parker Rd,Richmond,CA,94806,849900.0,4.0,3.0,Richmond,1940.0,12000.0,1961.0,1.0,438.0,,Active,,,http://www.redfin.com/CA/Richmond/3130-Parker-Rd-94806/home/1905971,BAREIS,321103348,N,Y,37.9705243,-122.3214472
1,MLS Listing,,Single Family Residential,3006 Florida Ave,Richmond,CA,94804,639995.0,5.0,3.0,Richmond,1800.0,3876.0,1950.0,1.0,356.0,,Active,November-7-2021 11:00 AM,November-7-2021 01:00 PM,http://www.redfin.com/CA/Richmond/3006-Florida-Ave-94804/home/1156323,BAREIS,321101049,N,Y,37.9293023,-122.3411083
2,MLS Listing,,Townhouse,165 Heron Dr,Pittsburg,CA,94565,549888.0,3.0,2.5,Marina Park,1608.0,2810.0,1990.0,4.0,342.0,254.0,Active,,,http://www.redfin.com/CA/Pittsburg/165-Heron-Dr-94565/home/639169,"bridgeMLS, Bay East AOR, or Contra Costa AOR",40972752,N,Y,38.034038,-121.887188
3,MLS Listing,,Single Family Residential,1979 S Forest Hill Pl,Danville,CA,94526,1225000.0,4.0,2.0,Danville Ranch,1745.0,6630.0,1983.0,4.0,702.0,174.0,Active,,,http://www.redfin.com/CA/Danville/1979-S-Forest-Hill-Pl-94526/home/977782,"bridgeMLS, Bay East AOR, or Contra Costa AOR",40972650,N,Y,37.7873628,-121.9822573
4,MLS Listing,,Single Family Residential,316 Pullman Ave,Bay Point,CA,94565,489000.0,3.0,2.0,Bay Point,895.0,8000.0,1947.0,4.0,546.0,,Active,,,http://www.redfin.com/CA/Bay-Point/316-Pullman-Ave-94565/home/1118809,"bridgeMLS, Bay East AOR, or Contra Costa AOR",40972104,N,Y,38.0299368,-121.9376183
5,MLS Listing,,Condo/Co-op,1655 Northshore Dr,Richmond,CA,94804,689000.0,2.0,2.5,Richmond,1297.0,2500.0,2006.0,8.0,531.0,286.0,Active,,,http://www.redfin.com/CA/Richmond/1655-Northshore-Dr-94804/home/12124231,BAREIS,321101051,N,Y,37.9170435,-122.3534896
6,MLS Listing,,Townhouse,1975 Fair Ridge Ct,Walnut Creek,CA,94597,1175000.0,3.0,2.5,Walnut Creek,2727.0,1921.0,1978.0,8.0,,626.0,Active,,,http://www.redfin.com/CA/Walnut-Creek/1975-Fair-Ridge-Ct-94597/home/1868670,MetroList,221136803,N,Y,37.914774,-122.098511
7,MLS Listing,,Single Family Residential,3049 Laurence Ct,Concord,CA,94520,739000.0,4.0,2.0,Concord,1413.0,5520.0,1954.0,8.0,523.0,,Active,,,http://www.redfin.com/CA/Concord/3049-Laurence-Ct-94520/home/1135490,"bridgeMLS, Bay East AOR, or Contra Costa AOR",40972183,N,Y,37.9930298,-122.0334234
8,MLS Listing,,Condo/Co-op,2200 Laguna Cir Unit C,Concord,CA,94520,325000.0,2.0,1.0,Taxco,884.0,,1970.0,11.0,368.0,425.0,Active,,,http://www.redfin.com/CA/Concord/2200-Laguna-Cir-94520/unit-C/home/589891,"bridgeMLS, Bay East AOR, or Contra Costa AOR",40971944,N,Y,37.968174,-122.039647
9,MLS Listing,,Single Family Residential,1721 Beau Rivage,San Pablo,CA,94806,799000.0,3.0,3.0,San Pablo Prop,2300.0,4200.0,1958.0,12.0,347.0,,Active,,,http://www.redfin.com/CA/San-Pablo/1721-Beau-Rivage-94806/home/1115931,"bridgeMLS, Bay East AOR, or Contra Costa AOR",40971826,N,Y,37.9575423,-122.3247686
10,MLS Listing,,Single Family Residential,5187 Sandmound Blvd,Oakley,CA,94561,648000.0,3.0,2.0,Oakley,1398.0,18000.0,1964.0,18.0,464.0,,Active,,,http://www.redfin.com/CA/Oakley/5187-Sandmound-Blvd-94561/home/550769,"bridgeMLS, Bay East AOR, or Contra Costa AOR",40971143,N,Y,38.0002907,-121.6269283
11,MLS Listing,,Condo/Co-op,651 Moraga Rd #19,Moraga,CA,94556,529000.0,2.0,1.5,Moraga,1144.0,,1962.0,18.0,462.0,530.0,Active,,,http://www.redfin.com/CA/Moraga/651-Moraga-Rd-94556/unit-19/home/902316,"bridgeMLS, Bay East AOR, or Contra Costa AOR",40971107,N,Y,37.8538926,-122.1248241
12,MLS Listing,,Single Family Residential,1342 Richmond St,El Cerrito,CA,94530,849000.0,3.0,2.0,El Cerrito,1048.0,3700.0,1944.0,20.0,810.0,,Active,,,http://www.redfin.com/CA/El-Cerrito/1342-Richmond-St-94530/home/1350390,"bridgeMLS, Bay East AOR, or Contra Costa AOR",40970700,N,Y,37.918935,-122.3083821
13,MLS Listing,,Single Family Residential,30 Autumn Trail Ln,Walnut Creek,CA,94595,1459900.0,4.0,2.5,Walnut Creek,2031.0,7349.0,2007.0,20.0,719.0,,Active,,,http://www.redfin.com/CA/Walnut-Creek/30-Autumn-Trail-Ln-94595/home/17166646,"bridgeMLS, Bay East AOR, or Contra Costa AOR",40970694,N,Y,37.891772,-122.0657452
14,MLS Listing,,Single Family Residential,368 Fletcher Ln,Brentwood,CA,94513,1048000.0,5.0,4.0,Brentwood,3084.0,6600.0,2019.0,25.0,340.0,,Active,,,http://www.redfin.com/CA/Brentwood/368-Fletcher-Ln-94513/home/112887616,"bridgeMLS, Bay East AOR, or Contra Costa AOR",40970239,N,Y,37.9265615,-121.7036345
15,MLS Listing,,Townhouse,707 Tampico,Walnut Creek,CA,94598,974900.0,3.0,2.0,Walnut Creek,1670.0,1560.0,1974.0,27.0,584.0,475.0,Active,,,http://www.redfin.com/CA/Walnut-Creek/707-Tampico-94598/home/1855503,"bridgeMLS, Bay East AOR, or Contra Costa AOR",40969796,N,Y,37.908701,-122.041163
16,MLS Listing,,Single Family Residential,2344 Carquinez Ave,El Cerrito,CA,94530,1380000.0,3.0,2.0,El Cerrito View,1590.0,5035.0,1955.0,28.0,868.0,,Active,,,http://www.redfin.com/CA/El-Cerrito/2344-Carquinez-Ave-94530/home/1417847,"bridgeMLS, Bay East AOR, or Contra Costa AOR",40969697,N,Y,37.9339951,-122.3123682
17,MLS Listing,,Condo/Co-op,1743 Carmel Dr #24,Walnut Creek,CA,94596,515000.0,2.0,1.5,Carmel Towers,840.0,,1966.0,34.0,613.0,455.0,Active,,,http://www.redfin.com/CA/Walnut-Creek/1743-Carmel-Dr-94596/unit-24/home/868429,"bridgeMLS, Bay East AOR, or Contra Costa AOR",40968142,N,Y,37.9025049,-122.0583094
18,MLS Listing,,Single Family Residential,2612 Crescent Way,Discovery Bay,CA,94505,839900.0,4.0,3.0,Lakeshore,3293.0,4700.0,2003.0,35.0,255.0,205.0,Active,,,http://www.redfin.com/CA/Discovery-Bay/2612-Crescent-Way-94505/home/2101635,"bridgeMLS, Bay East AOR, or Contra Costa AOR",40968911,N,Y,37.9121434,-121.6211121
19,MLS Listing,,Condo/Co-op,143 Marina Lakes Dr,Richmond,CA,94804,348000.0,1.0,1.0,Marina Bay,533.0,2144.0,1992.0,40.0,653.0,502.0,Active,,,http://www.redfin.com/CA/Richmond/143-Marina-Lakes-Dr-94804/home/2109707,"bridgeMLS, Bay East AOR, or Contra Costa AOR",40968245,N,Y,37.9118911,-122.3412745
20,MLS Listing,,Single Family Residential,111 Panorama Way,Brentwood,CA,94513,814900.0,4.0,3.0,Brentwood,2384.0,5097.0,2001.0,41.0,342.0,,Active,,,http://www.redfin.com/CA/Brentwood/111-Panorama-Way-94513/home/1206857,"bridgeMLS, Bay East AOR, or Contra Costa AOR",40968062,N,Y,37.9239782,-121.6789933
21,MLS Listing,,Single Family Residential,12 Beede Way,Antioch,CA,94509,769000.0,4.0,3.0,Beede Park,3732.0,11000.0,1956.0,46.0,206.0,,Active,,,http://www.redfin.com/CA/Antioch/12-Beede-Way-94509/home/596752,"bridgeMLS, Bay East AOR, or Contra Costa AOR",40966793,N,Y,38.0108102,-121.805235
22,MLS Listing,,Single Family Residential,504 Brinwood Way,Oakley,CA,94561,749000.0,5.0,3.0,Oakley,2724.0,4800.0,2017.0,46.0,275.0,,Active,November-6-2021 01:00 PM,November-6-2021 03:00 PM,http://www.redfin.com/CA/Oakley/504-Brinwood-Way-94561/home/142978632,"bridgeMLS, Bay East AOR, or Contra Costa AOR",40967145,N,Y,37.992462,-121.685811
23,MLS Listing,,Townhouse,846 Tampico,Walnut Creek,CA,94598,989000.0,3.0,2.5,La Casa Heights,1784.0,1800.0,1974.0,54.0,554.0,553.0,Active,,,http://www.redfin.com/CA/Walnut-Creek/846-Tampico-94598/home/1594718,"bridgeMLS, Bay East AOR, or Contra Costa AOR",40966408,N,Y,37.9100449,-122.043861
24,MLS Listing,,Single Family Residential,2104 Beechwood Ct,Antioch,CA,94509,718000.0,4.0,2.5,Lone Tree Ests,2512.0,4966.0,2001.0,56.0,286.0,62.0,Active,,,http://www.redfin.com/CA/Antioch/2104-Beechwood-Ct-94509/home/1779751,"bridgeMLS, Bay East AOR, or Contra Costa AOR",40966090,N,Y,37.9712088,-121.7945775
25,MLS Listing,,Single Family Residential,2471 Covelite Way,Antioch,CA,94531-9329,948000.0,6.0,4.5,Deer Valley,3937.0,19166.0,2002.0,61.0,241.0,,Active,,,http://www.redfin.com/CA/Antioch/2471-Covelite-Way-94531/home/1311941,"bridgeMLS, Bay East AOR, or Contra Costa AOR",40965393,N,Y,37.978093,-121.7812264
26,MLS Listing,,Single Family Residential,1154 Temple Dr,Pacheco,CA,94553,760000.0,3.0,2.0,Pacheco,1224.0,6000.0,1954.0,62.0,621.0,,Active,,,http://www.redfin.com/CA/Pacheco/1154-Temple-Dr-94553/home/1883970,"bridgeMLS, Bay East AOR, or Contra Costa AOR",40964993,N,Y,37.9899899,-122.0761324
27,MLS Listing,,Condo/Co-op,1083 Chadwick Cir,Bay Point,CA,94565,360000.0,2.0,2.0,Bay Point,888.0,1170.0,1985.0,97.0,405.0,310.0,Active,,,http://www.redfin.com/CA/Bay-Point/1083-Chadwick-Cir-94565/home/167205815,"bridgeMLS, Bay East AOR, or Contra Costa AOR",40960358,N,Y,38.0220017,-121.9444939
28,Redfin Data,,Single Family Residential,2208 Wayne Dr,Brentwood,CA,94513,1250000.0,5.0,4.0,Brentwood,4223.0,9102.0,2008.0,1.0,296.0,,Pre On-Market,,,http://www.redfin.com/CA/Brentwood/2208-Wayne-Dr-94513/home/23400456,Coming Soon,78341,N,Y,37.9575697,-121.7130887
29,Redfin Data,,Townhouse,1707 Siskiyou Dr,Walnut Creek,CA,94598,959900.0,3.0,2.5,Walnut Creek,1555.0,2720.0,1972.0,1.0,617.0,,Pre On-Market,,,http://www.redfin.com/CA/Walnut-Creek/1707-Siskiyou-Dr-94598/home/786354,Coming Soon,78256,N,Y,37.913933,-122.045336
30,Redfin Data,,Single Family Residential,2116 Willow Ave,Antioch,CA,94509,515000.0,3.0,2.0,Antioch,1293.0,4800.0,1987.0,137.0,398.0,,Pre On-Market,,,http://www.redfin.com/CA/Antioch/2116-Willow-Ave-94509/home/571351,Coming Soon,72812,N,Y,38.0016932,-121.7694316
31,MLS Listing,,Single Family Residential,412 Waterford Ct,Oakley,CA,94561,599000.0,3.0,2.5,Oakley,1487.0,5950.0,1993.0,1.0,403.0,50.0,Active,,,http://www.redfin.com/CA/Oakley/412-Waterford-Ct-94561/home/1785580,"bridgeMLS, Bay East AOR, or Contra Costa AOR",40973056,N,Y,37.9930523,-121.7024225
32,MLS Listing,,Townhouse,1819 Holland Dr,Walnut Creek,CA,94597,690000.0,2.0,1.5,Skywest,1263.0,1000.0,1971.0,1.0,546.0,457.0,Active,November-6-2021 01:00 PM,November-6-2021 04:00 PM,http://www.redfin.com/CA/Walnut-Creek/1819-Holland-Dr-94597/home/1457410,"bridgeMLS, Bay East AOR, or Contra Costa AOR",40972944,N,Y,37.9200019,-122.093486
33,MLS Listing,,Single Family Residential,406 Skyharbour Ln,Bay Point,CA,94565,599000.0,4.0,3.0,Bay Point,1765.0,7800.0,1988.0,1.0,339.0,,Active,,,http://www.redfin.com/CA/Bay-Point/406-Skyharbour-Ln-94565/home/675662,"bridgeMLS, Bay East AOR, or Contra Costa AOR",40973054,N,Y,38.0276171,-121.9678847
34,MLS Listing,,Single Family Residential,484 Old Farm Rd,Danville,CA,94526-4134,1795000.0,4.0,2.0,Danville,1922.0,15000.0,1977.0,1.0,934.0,,Active,,,http://www.redfin.com/CA/Danville/484-Old-Farm-Rd-94526/home/1904363,"bridgeMLS, Bay East AOR, or Contra Costa AOR",40972426,N,Y,37.8150839,-121.9866109
35,MLS Listing,,Single Family Residential,2856 Hillside Ave,Concord,CA,94520,699000.0,3.0,2.0,Hillcrest Terrac,1478.0,5555.0,1951.0,1.0,473.0,,Active,,,http://www.redfin.com/CA/Concord/2856-Hillside-Ave-94520/home/681434,"bridgeMLS, Bay East AOR, or Contra Costa AOR",40973041,N,Y,37.9930355,-122.0444352
36,MLS Listing,,Single Family Residential,438 Vallejo Ave,Rodeo,CA,94572,659999.0,3.0,2.0,Rodeo,1337.0,5863.0,1942.0,1.0,494.0,,Active,,,http://www.redfin.com/CA/Rodeo/438-Vallejo-Ave-94572/home/610835,MetroList,221140106,N,Y,38.0327802,-122.2613344
37,MLS Listing,,Townhouse,943 Lido Cir,Discovery Bay,CA,94505,555000.0,3.0,2.5,Lido Circle,1676.0,3460.0,1981.0,1.0,331.0,132.0,Active,,,http://www.redfin.com/CA/Discovery-Bay/943-Lido-Cir-94505/home/1548239,"bridgeMLS, Bay East AOR, or Contra Costa AOR",40972932,N,Y,37.9127358,-121.6026922
38,MLS Listing,,Condo/Co-op,2005 San Jose Dr #148,Antioch,CA,94509,259000.0,2.0,2.0,Antioch,830.0,,1986.0,1.0,312.0,425.0,Active,,,http://www.redfin.com/CA/Antioch/2005-San-Jose-Dr-94509/unit-148/home/12127274,"bridgeMLS, Bay East AOR, or Contra Costa AOR",40973035,N,Y,38.0015175,-121.8314627
39,MLS Listing,,Single Family Residential,20 Jessen Ct,Kensington,CA,94707,1300000.0,6.0,4.0,Blakemont,3428.0,8910.0,1958.0,1.0,379.0,,Active,,,http://www.redfin.com/CA/Kensington/20-Jessen-Ct-94707/home/1953680,"bridgeMLS, Bay East AOR, or Contra Costa AOR",40973026,N,Y,37.9144172,-122.2858133
40,MLS Listing,,Condo/Co-op,1919 Ygnacio Valley Rd #44,Walnut Creek,CA,94598,553500.0,3.0,2.0,Ygnacio Garden,1112.0,,1965.0,1.0,498.0,375.0,Active,,,http://www.redfin.com/CA/Walnut-Creek/1919-Ygnacio-Valley-Rd-94598/unit-44/home/1893794,"bridgeMLS, Bay East AOR, or Contra Costa AOR",40973015,N,Y,37.9184355,-122.0348444
41,MLS Listing,,Single Family Residential,542 Livingston Ct,Discovery Bay,CA,94505,779900.0,3.0,3.0,The Lakes,3127.0,5431.0,2006.0,1.0,249.0,175.0,Active,,,http://www.redfin.com/CA/Discovery-Bay/542-Livingston-Ct-94505/home/12119680,"bridgeMLS, Bay East AOR, or Contra Costa AOR",40973014,N,Y,37.9276958,-121.6204435
42,MLS Listing,,Single Family Residential,1800 Beringer Way,Oakley,CA,94561,520000.0,3.0,2.0,Oakley,1238.0,6000.0,1988.0,1.0,420.0,,Active,,,http://www.redfin.com/CA/Oakley/1800-Beringer-Way-94561/home/1448922,"bridgeMLS, Bay East AOR, or Contra Costa AOR",40972652,N,Y,38.0053072,-121.7300769
43,MLS Listing,,Single Family Residential,1005 Wild Oak Ct,Concord,CA,94521,799000.0,4.0,2.5,Live Oak,1892.0,4005.0,1989.0,1.0,422.0,123.0,Active,,,http://www.redfin.com/CA/Concord/1005-Wild-Oak-Ct-94521/home/1539956,"bridgeMLS, Bay East AOR, or Contra Costa AOR",40973013,N,Y,37.9507744,-121.9764374
44,MLS Listing,,Condo/Co-op,2728 Oak Rd #141,Walnut Creek,CA,94597,560000.0,3.0,2.0,Oak Road Station,1259.0,,1972.0,1.0,445.0,495.0,Active,,,http://www.redfin.com/CA/Walnut-Creek/2728-Oak-Rd-94597/unit-141/home/1322077,"bridgeMLS, Bay East AOR, or Contra Costa AOR",40973008,N,Y,37.9221446,-122.0559462
45,MLS Listing,,Townhouse,3027 Peppermill Cir,Pittsburg,CA,94565,419000.0,2.0,2.5,Pittsburg,1092.0,1120.0,1988.0,1.0,384.0,235.0,Active,,,http://www.redfin.com/CA/Pittsburg/3027-Peppermill-Cir-94565/home/1769361,San Francisco MLS,421608873,N,Y,38.0009618,-121.871004
46,MLS Listing,,Single Family Residential,378 Topaz St,Brentwood,CA,94513,714888.0,4.0,2.5,Garin Ranch,1801.0,3536.0,2004.0,1.0,397.0,105.0,Active,November-6-2021 01:00 PM,November-6-2021 04:00 PM,http://www.redfin.com/CA/Brentwood/378-Topaz-St-94513/home/2106399,"bridgeMLS, Bay East AOR, or Contra Costa AOR",40972843,N,Y,37.9310726,-121.6883477
47,MLS Listing,,Single Family Residential,3132 Manzanita Ct,Richmond,CA,94806,697700.0,4.0,2.5,Hilltop/College,1645.0,2750.0,1999.0,1.0,424.0,150.0,Active,November-6-2021 12:00 PM,November-6-2021 03:00 PM,http://www.redfin.com/CA/Richmond/3132-Manzanita-Ct-94806/home/1815098,"bridgeMLS, Bay East AOR, or Contra Costa AOR",40972996,N,Y,37.9841096,-122.3281342
48,MLS Listing,,Condo/Co-op,2525 Golden Rain #8,Walnut Creek,CA,94595,639900.0,2.0,2.0,First Walnut Crk,1150.0,,1965.0,1.0,556.0,894.0,Active,,,http://www.redfin.com/CA/Walnut-Creek/2525-Golden-Rain-Rd-94595/unit-8/home/1313830,"bridgeMLS, Bay East AOR, or Contra Costa AOR",40972995,N,Y,37.8799846,-122.0809306
49,MLS Listing,,Mobile/Manufactured Home,55 Pacifica Ave #94,Bay Point,CA,94565,225000.0,3.0,2.0,Bay Point,1200.0,,,1.0,188.0,,Active,,,http://www.redfin.com/CA/Bay-Point/55-Pacifica-Ave-94565/unit-94/home/145234418,"bridgeMLS, Bay East AOR, or Contra Costa AOR",40972991,N,Y,38.0330951,-121.9617752
50,MLS Listing,,Single Family Residential,520 Brinwood Way,Oakley,CA,94561,735000.0,3.0,3.0,Oakley,2222.0,5077.0,2017.0,1.0,331.0,,Active,November-6-2021 01:00 PM,November-6-2021 04:00 PM,http://www.redfin.com/CA/Oakley/520-Brinwood-Way-94561/home/142978627,BAREIS,321104217,N,Y,37.9919111,-121.6858848
51,MLS Listing,,Single Family Residential,1465 Sandpiper Spit,Richmond,CA,94801,1950000.0,3.0,2.0,Brickyard Cove #2,2680.0,234178560.0,2006.0,1.0,728.0,117.0,Active,,,http://www.redfin.com/CA/Richmond/1465-Sandpiper-Spit-94801/home/2100974,BAREIS,321102734,N,Y,37.9080869,-122.3802867
52,MLS Listing,,Single Family Residential,2710 Wexford Dr,Concord,CA,94519,700000.0,4.0,2.0,Concord,1260.0,7000.0,1962.0,1.0,556.0,,Active,November-6-2021 10:00 AM,November-6-2021 12:00 PM,http://www.redfin.com/CA/Concord/2710-Wexford-Dr-94519/home/1038622,"bridgeMLS, Bay East AOR, or Contra Costa AOR",40972988,N,Y,37.9935783,-122.0230322
53,MLS Listing,,Single Family Residential,732 Solitude Dr,Oakley,CA,94561,799900.0,4.0,3.0,Oakley,2161.0,9945.0,2006.0,1.0,370.0,,Active,November-7-2021 01:00 PM,November-7-2021 04:00 PM,http://www.redfin.com/CA/Oakley/732-Solitude-Dr-94561/home/12120101,"bridgeMLS, Bay East AOR, or Contra Costa AOR",40972976,N,Y,37.9803602,-121.6990572
54,MLS Listing,,Single Family Residential,1812 2ND Ave,Walnut Creek,CA,94597,989000.0,3.0,2.5,Larkey Park,2445.0,9500.0,1973.0,1.0,404.0,,Active,,,http://www.redfin.com/CA/Walnut-Creek/1812-2nd-Ave-94597/home/1785714,"bridgeMLS, Bay East AOR, or Contra Costa AOR",40972911,N,Y,37.9222716,-122.0726923
55,MLS Listing,,Single Family Residential,218 Twilight Ct,Brentwood,CA,94513,629999.0,3.0,2.0,Brentwood,1421.0,4500.0,2001.0,1.0,443.0,,Active,November-6-2021 01:00 PM,November-6-2021 04:00 PM,http://www.redfin.com/CA/Brentwood/218-Twilight-Ct-94513/home/1326729,MetroList,221137096,N,Y,37.9546272,-121.6919557
56,MLS Listing,,Single Family Residential,1909 OAKRIDGE Ct,Concord,CA,94521,1099000.0,4.0,2.5,Concord,2505.0,8400.0,1994.0,1.0,439.0,,Active,,,http://www.redfin.com/CA/Concord/1909-Oakridge-Ct-94521/home/1892993,"bridgeMLS, Bay East AOR, or Contra Costa AOR",40972867,N,Y,37.9668333,-121.9596201
57,MLS Listing,,Single Family Residential,3728 Mosswood Dr,Oakley,CA,94561,849000.0,6.0,4.0,Oakley,2968.0,6353.0,2018.0,1.0,286.0,,Active,November-6-2021 01:00 PM,November-6-2021 04:00 PM,http://www.redfin.com/CA/Oakley/3728-Mosswood-Dr-94561/home/167195941,"bridgeMLS, Bay East AOR, or Contra Costa AOR",40972972,N,Y,37.9820805,-121.7006398
58,MLS Listing,,Single Family Residential,612 Coconut Ct,Brentwood,CA,94513,1100000.0,5.0,3.0,California Orchard,3753.0,9000.0,2001.0,1.0,293.0,,Active,,,http://www.redfin.com/CA/Brentwood/612-Coconut-Ct-94513/home/1129372,"bridgeMLS, Bay East AOR, or Contra Costa AOR",40972969,N,Y,37.9203238,-121.7068539
59,MLS Listing,,Condo/Co-op,567 Churchill Downs Ct,Walnut Creek,CA,94597-7603,795000.0,3.0,2.5,Main Chance Est.,1348.0,,1990.0,1.0,590.0,513.0,Active,November-7-2021 11:00 AM,November-7-2021 02:30 PM,http://www.redfin.com/CA/Walnut-Creek/567-Churchill-Downs-Ct-94597/home/828441,"bridgeMLS, Bay East AOR, or Contra Costa AOR",40972968,N,Y,37.913953,-122.063132
60,MLS Listing,,Single Family Residential,1846 Badger Pass Way,Antioch,CA,94531,650000.0,3.0,2.0,Antioch,1705.0,9417.0,1998.0,1.0,381.0,,Active,November-6-2021 01:00 PM,November-6-2021 04:00 PM,http://www.redfin.com/CA/Antioch/1846-Badger-Pass-Way-94531/home/693011,"bridgeMLS, Bay East AOR, or Contra Costa AOR",40972963,N,Y,37.9650442,-121.793999
61,MLS Listing,,Single Family Residential,935 Castro St,Martinez,CA,94553,639000.0,2.0,2.0,Downtown Martine,1236.0,5000.0,1878.0,1.0,517.0,,Active,,,http://www.redfin.com/CA/Martinez/935-Castro-St-94553/home/1776610,"bridgeMLS, Bay East AOR, or Contra Costa AOR",40972964,N,Y,38.0153678,-122.1358167
62,MLS Listing,,Vacant Land,1970 Arrowhead Dr,Oakland,CA,94611,129000.0,,,Oakland,,7917.0,,1.0,,,Active,,,http://www.redfin.com/CA/Oakland/1970-Arrowhead-Dr-94611/home/22719021,"bridgeMLS, Bay East AOR, or Contra Costa AOR",40972957,N,Y,37.8375407,-122.1921383
63,MLS Listing,,Single Family Residential,2517 Inez Way,Antioch,CA,94531,685000.0,4.0,3.0,Antioch,2828.0,6180.0,1995.0,1.0,242.0,,Active,,,http://www.redfin.com/CA/Antioch/2517-Inez-Way-94531/home/1865367,"bridgeMLS, Bay East AOR, or Contra Costa AOR",40972251,N,Y,37.9592412,-121.779869
64,MLS Listing,,Townhouse,138 Midland Way,Danville,CA,94526,949500.0,2.0,2.0,Westfield Woods,1408.0,2280.0,1973.0,1.0,674.0,492.0,Active,,,http://www.redfin.com/CA/Danville/138-Midland-Way-94526/home/900446,"bridgeMLS, Bay East AOR, or Contra Costa AOR",40972951,N,Y,37.8056569,-121.9920526
65,MLS Listing,,Single Family Residential,,San Pablo,CA,94806,429000.0,4.0,2.0,Montalvin Manor,1131.0,5390.0,1954.0,1.0,379.0,,Active,,,http://www.redfin.com/CA/San-Pablo/Undisclosed-address-94806/home/687709,"bridgeMLS, Bay East AOR, or Contra Costa AOR",40972950,N,Y,37.9956826,-122.3281784
66,MLS Listing,,Single Family Residential,1715 West St,Concord,CA,94521,740000.0,3.0,2.0,Concord,1081.0,6400.0,1959.0,1.0,685.0,,Active,November-6-2021 01:00 PM,November-6-2021 03:00 PM,http://www.redfin.com/CA/Concord/1715-West-St-94521/home/1408714,"bridgeMLS, Bay East AOR, or Contra Costa AOR",40972949,N,Y,37.9754164,-121.9938073
67,MLS Listing,,Single Family Residential,7890 Camino Tassajara,Pleasanton,CA,94588,2599000.0,3.0,2.5,Tassajara Valley,2828.0,219978.0,1983.0,1.0,919.0,,Active,November-6-2021 10:00 AM,November-6-2021 12:00 PM,http://www.redfin.com/CA/Pleasanton/7890-Camino-Tassajara-94588/home/1232964,"bridgeMLS, Bay East AOR, or Contra Costa AOR",40972772,N,Y,37.7534651,-121.8721157
68,MLS Listing,,Single Family Residential,832 Mariposa Ave,Rodeo,CA,94572,449888.0,1.0,1.0,Old Rodeo,512.0,2500.0,1939.0,1.0,879.0,,Active,,,http://www.redfin.com/CA/Rodeo/832-Mariposa-St-94572/home/1040715,"bridgeMLS, Bay East AOR, or Contra Costa AOR",40972948,N,Y,38.0371635,-122.2637825
69,MLS Listing,,Single Family Residential,927 Outlook Ct,Brentwood,CA,94513,699900.0,3.0,2.5,Diablo Vista,1625.0,4007.0,2000.0,1.0,431.0,,Active,,,http://www.redfin.com/CA/Brentwood/927-Outlook-Ct-94513/home/1963636,"bridgeMLS, Bay East AOR, or Contra Costa AOR",40972941,N,Y,37.9389155,-121.7263366
70,MLS Listing,,Single Family Residential,22 Rustic Ct,Oakley,CA,94561,799000.0,4.0,3.0,Oakley,2336.0,6500.0,2015.0,1.0,342.0,,Active,November-7-2021 12:00 PM,November-7-2021 03:00 PM,http://www.redfin.com/CA/Oakley/22-Rustic-Ct-94561/home/110019542,"bridgeMLS, Bay East AOR, or Contra Costa AOR",40972940,N,Y,37.9781256,-121.7027565
71,MLS Listing,,Condo/Co-op,1345 Singingwood Ct #1,Walnut Creek,CA,94595,428000.0,2.0,2.0,Rossmoor,1162.0,,1967.0,1.0,368.0,909.0,Active,,,http://www.redfin.com/CA/Walnut-Creek/1345-Singingwood-Ct-94595/unit-1/home/1056300,"bridgeMLS, Bay East AOR, or Contra Costa AOR",40972937,N,Y,37.8586194,-122.0709833
72,MLS Listing,,Single Family Residential,4870 Milano Way,Martinez,CA,94553,1049000.0,5.0,3.0,Shannon Hills,2153.0,8000.0,1989.0,1.0,487.0,49.0,Active,,,http://www.redfin.com/CA/Martinez/4870-Milano-Way-94553/home/838179,"bridgeMLS, Bay East AOR, or Contra Costa AOR",40972935,N,Y,37.9966848,-122.0876946
73,MLS Listing,,Single Family Residential,3948 Highgate Way,Pittsburg,CA,94565,525000.0,3.0,1.0,Oakbrook,992.0,6300.0,1977.0,1.0,529.0,,Active,,,http://www.redfin.com/CA/Pittsburg/3948-Highgate-Way-94565/home/1757265,"bridgeMLS, Bay East AOR, or Contra Costa AOR",40972929,N,Y,38.0025177,-121.8780078
74,MLS Listing,,Single Family Residential,2724 Florida Ave,Richmond,CA,94804,695000.0,3.0,2.5,Richmond,1608.0,2500.0,1986.0,1.0,432.0,,Active,,,http://www.redfin.com/CA/Richmond/2724-Florida-Ave-94804/home/1155164,"bridgeMLS, Bay East AOR, or Contra Costa AOR",40972322,N,Y,37.9292888,-122.3429679
75,MLS Listing,,Single Family Residential,1396 Fascination Cir,Richmond,CA,94803,599000.0,3.0,2.0,El Sobrante Hill,1794.0,12825.0,1980.0,1.0,334.0,,Active,,,http://www.redfin.com/CA/Richmond/1396-Fascination-Cir-94803/home/982568,"bridgeMLS, Bay East AOR, or Contra Costa AOR",40971583,N,Y,37.9615643,-122.2720127
76,MLS Listing,,Single Family Residential,3314 Inverness Dr,Walnut Creek,CA,94598,1625000.0,5.0,3.0,Diablo Shadows,2679.0,13600.0,1969.0,1.0,607.0,,Active,November-6-2021 01:00 PM,November-6-2021 04:00 PM,http://www.redfin.com/CA/Walnut-Creek/3314-Inverness-Dr-94598/home/1975560,"bridgeMLS, Bay East AOR, or Contra Costa AOR",40972921,N,Y,37.9224717,-122.0069106
77,MLS Listing,,Condo/Co-op,1840 Tice Creek Dr #2301,Walnut Creek,CA,94595,849000.0,2.0,2.0,Waterford,1237.0,,1992.0,1.0,686.0,2453.0,Active,,,http://www.redfin.com/CA/Walnut-Creek/1840-Tice-Creek-Dr-94595/unit-2301/home/167234313,"bridgeMLS, Bay East AOR, or Contra Costa AOR",40972919,N,Y,37.8731259,-122.0757994
78,MLS Listing,,Single Family Residential,5221 Esmond Ave,Richmond,CA,94805,499900.0,2.0,1.0,East Richmond Blvd.,1080.0,4792.0,1954.0,1.0,463.0,,Active,,,http://www.redfin.com/CA/Richmond/5221-Esmond-Ave-94805/home/1685513,MetroList,221139647,N,Y,37.9467155,-122.326555
79,MLS Listing,,Single Family Residential,37 Vallecito Ln,Orinda,CA,94563,1750000.0,6.0,4.0,El Toyonal,2895.0,36003.0,1940.0,1.0,604.0,41.0,Active,,,http://www.redfin.com/CA/Orinda/37-Vallecito-Ln-94563/home/1529906,"bridgeMLS, Bay East AOR, or Contra Costa AOR",40972908,N,Y,37.8873721,-122.2025177
80,MLS Listing,,Single Family Residential,4071 Cowell Rd,CONCORD,CA,94518,1799000.0,5.0,4.5,CONCORD,4406.0,60113.0,1951.0,1.0,408.0,,Active,,,http://www.redfin.com/CA/Concord/4071-Cowell-Rd-94518/home/1384233,MLSListings,ML81868833,N,Y,37.9589385,-122.0041346
81,MLS Listing,,Single Family Residential,65 Pleasant Valley Dr,Walnut Creek,CA,94597,849000.0,3.0,2.0,Walnut Creek,1650.0,13000.0,1940.0,1.0,515.0,,Active,,,http://www.redfin.com/CA/Walnut-Creek/65-Pleasant-Valley-Dr-94597/home/919508,"bridgeMLS, Bay East AOR, or Contra Costa AOR",40970272,N,Y,37.932393,-122.0632149
82,MLS Listing,,Condo/Co-op,1395 Kenwal Rd Unit C,Concord,CA,94521,399000.0,2.0,1.5,Diablo Commons,1016.0,780.0,1971.0,1.0,393.0,445.0,Active,,,http://www.redfin.com/CA/Concord/1395-Kenwal-Rd-94521/unit-C/home/1526308,"bridgeMLS, Bay East AOR, or Contra Costa AOR",40972903,N,Y,37.949868,-121.962307
83,MLS Listing,,Multi-Family (2-4 Unit),656 20th St,Richmond,CA,94801,800000.0,5.0,2.0,Richmond,2416.0,5001.0,1960.0,1.0,331.0,,Active,,,http://www.redfin.com/CA/Richmond/656-20th-St-94801/home/1630589,BAREIS,321103418,N,Y,37.9419912,-122.3500077
84,MLS Listing,,Multi-Family (2-4 Unit),701 40Th St,Richmond,CA,94805,995500.0,4.0,4.0,Grand View Terra,2430.0,5000.0,1948.0,1.0,410.0,,Active,,,http://www.redfin.com/CA/Richmond/701-40th-St-94805/home/1520477,"bridgeMLS, Bay East AOR, or Contra Costa AOR",40972901,N,Y,37.940989,-122.330049
85,MLS Listing,,Mobile/Manufactured Home,3674 Porter Cir,Bethel Island,CA,94511,229000.0,3.0,2.0,Bethel Island,1880.0,,,1.0,122.0,,Active,,,http://www.redfin.com/CA/Bethel-Island/3674-Porter-Cir-94511/home/672814,"bridgeMLS, Bay East AOR, or Contra Costa AOR",40972892,N,Y,38.0375155,-121.6293361
86,MLS Listing,,Single Family Residential,1968 Reliez Valley Rd,Lafayette,CA,94549,1800000.0,4.0,3.5,Lafayette,2727.0,33524.0,1975.0,1.0,660.0,,Active,November-7-2021 01:00 PM,November-7-2021 03:00 PM,http://www.redfin.com/CA/Lafayette/1968-Reliez-Valley-Rd-94549/home/1482971,BAREIS,321102720,N,Y,37.9420686,-122.1020514
87,MLS Listing,,Single Family Residential,6919 Wisteria St,San Ramon,CA,94583,899000.0,2.0,2.0,San Ramon,1165.0,5700.0,1963.0,1.0,772.0,27.0,Active,,,http://www.redfin.com/CA/San-Ramon/6919-Wisteria-St-94583/home/1792043,MetroList,221139553,N,Y,37.7313088,-121.9244445
88,MLS Listing,,Condo/Co-op,1209 Avenida Sevilla Unit 1B,Walnut Creek,CA,94595,1400000.0,2.0,2.0,Rossmoor,2069.0,,1978.0,1.0,677.0,1275.0,Active,,,http://www.redfin.com/CA/Walnut-Creek/1209-Avenida-Sevilla-94595/unit-1B/home/167236003,"bridgeMLS, Bay East AOR, or Contra Costa AOR",40972460,N,Y,37.852579,-122.0631927
89,MLS Listing,,Single Family Residential,834 Pathfinder Ct,Oakley,CA,94561,799988.0,5.0,4.5,Summerlake,3427.0,8014.0,2013.0,1.0,233.0,109.0,Active,,,http://www.redfin.com/CA/Oakley/834-Pathfinder-Ct-94561/home/53361107,"bridgeMLS, Bay East AOR, or Contra Costa AOR",40972881,N,Y,37.9896955,-121.6293572
90,MLS Listing,,Single Family Residential,2451 Diane Dr,El Sobrante,CA,94803,649955.0,3.0,2.0,El Sobrante,1596.0,12197.0,1954.0,1.0,407.0,,Active,November-6-2021 01:00 PM,November-6-2021 04:00 PM,http://www.redfin.com/CA/El-Sobrante/2451-Diane-Dr-94803/home/944821,BAREIS,321103744,N,Y,37.9659023,-122.2941194
91,MLS Listing,,Condo/Co-op,10300 San Pablo Ave #305,El Cerrito,CA,94530,850000.0,2.0,2.0,El Cerrito,1066.0,,2021.0,1.0,797.0,460.0,Active,,,http://www.redfin.com/CA/El-Cerrito/10300-San-Pablo-Ave-94530/unit-305/home/177025280,"bridgeMLS, Bay East AOR, or Contra Costa AOR",40972879,N,Y,37.9064714,-122.3049495
92,MLS Listing,,Single Family Residential,1832 Parkside,Walnut Creek,CA,94597,1200000.0,3.0,2.0,Macdonough,1526.0,12800.0,1941.0,1.0,786.0,,Active,November-6-2021 01:00 PM,November-6-2021 04:00 PM,http://www.redfin.com/CA/Walnut-Creek/1832-Parkside-Dr-94597/home/1556730,"bridgeMLS, Bay East AOR, or Contra Costa AOR",40972216,N,Y,37.9088836,-122.0703619
93,MLS Listing,,Single Family Residential,3210 Camby Rd,Antioch,CA,94509,625000.0,4.0,2.0,Antioch,1782.0,7625.0,1970.0,1.0,351.0,,Active,,,http://www.redfin.com/CA/Antioch/3210-Camby-Rd-94509/home/610711,"bridgeMLS, Bay East AOR, or Contra Costa AOR",40972876,N,Y,37.9873734,-121.8130884
94,MLS Listing,,Single Family Residential,,Antioch,CA,94509,495000.0,4.0,2.0,Antioch,1271.0,,1977.0,1.0,389.0,,Active,,,http://www.redfin.com/CA/Antioch/Undisclosed-address-94509/home/1936504,BAREIS,321103896,N,Y,37.9855261,-121.8356888
95,MLS Listing,,Single Family Residential,42 Comistas Ct,Walnut Creek,CA,94598,3300000.0,7.0,4.5,North Gate,4805.0,60113.0,1976.0,1.0,687.0,,Active,,,http://www.redfin.com/CA/Walnut-Creek/42-Comistas-Ct-94598/home/779587,"bridgeMLS, Bay East AOR, or Contra Costa AOR",40968615,N,Y,37.9048484,-122.0095533
96,MLS Listing,,Single Family Residential,1622 Montin Ct,Walnut Creek,CA,94597,849999.0,3.0,2.0,Larkey Park,1336.0,7665.0,1975.0,1.0,636.0,,Active,November-6-2021 01:00 PM,November-6-2021 04:00 PM,http://www.redfin.com/CA/Walnut-Creek/1622-Montin-Ct-94597/home/1904291,"bridgeMLS, Bay East AOR, or Contra Costa AOR",40972863,N,Y,37.9205649,-122.0683199
97,MLS Listing,,Single Family Residential,134 Castro St,Point Richmond,CA,94801,675000.0,2.0,1.0,Point Richmond,804.0,4000.0,1941.0,1.0,840.0,,Active,November-7-2021 01:00 PM,November-7-2021 04:00 PM,http://www.redfin.com/CA/Richmond/134-Castro-St-94801/home/1953563,BAREIS,321099717,N,Y,37.9283082,-122.3881206
98,MLS Listing,,Single Family Residential,5075 Wilmont Ct,Antioch,CA,94531,975000.0,6.0,4.5,Black Diamond Cn,3887.0,11035.0,2000.0,1.0,251.0,,Active,November-6-2021 12:00 PM,November-6-2021 03:00 PM,http://www.redfin.com/CA/Antioch/5075-Wilmont-Ct-94531/home/1604056,"bridgeMLS, Bay East AOR, or Contra Costa AOR",40972860,N,Y,37.9611359,-121.8076155
99,MLS Listing,,Single Family Residential,4764 Palomino Ct,Antioch,CA,94531,705000.0,5.0,3.0,Antioch,2512.0,6750.0,1995.0,1.0,281.0,,Active,,,http://www.redfin.com/CA/Antioch/4764-Palomino-Ct-94531/home/579322,"bridgeMLS, Bay East AOR, or Contra Costa AOR",40972858,N,Y,37.9702218,-121.7542968
100,MLS Listing,,Single Family Residential,1887 Mount Conness Way,Antioch,CA,94531,938888.0,5.0,3.0,Antioch,2900.0,6603.0,1998.0,1.0,324.0,,Active,,,http://www.redfin.com/CA/Antioch/1887-Mt-Conness-Way-94531/home/1715993,"bridgeMLS, Bay East AOR, or Contra Costa AOR",40971373,N,Y,37.9630387,-121.7930422
101,MLS Listing,,Single Family Residential,365 Summit Dr,Pinole,CA,94564,758888.0,3.0,2.0,Buena Vista,1742.0,7875.0,1959.0,1.0,436.0,,Active,November-7-2021 01:00 PM,November-7-2021 04:00 PM,http://www.redfin.com/CA/Pinole/365-Summit-Dr-94564/home/1069125,"bridgeMLS, Bay East AOR, or Contra Costa AOR",40972851,N,Y,38.0080959,-122.2952268
102,MLS Listing,,Single Family Residential,2470 Caballo Ranchero Dr,Diablo,CA,94528,3450000.0,4.0,4.5,Diablo C.C.,5081.0,57984.0,2002.0,1.0,679.0,,Active,,,http://www.redfin.com/CA/Diablo/2470-Caballo-Ranchero-Dr-94528/home/700327,"bridgeMLS, Bay East AOR, or Contra Costa AOR",40972849,N,Y,37.8421872,-121.9571318
103,MLS Listing,,Single Family Residential,3166 Portico Dr,Bay Point,CA,94565,879999.0,5.0,3.0,San Marco,2734.0,5165.0,2012.0,1.0,322.0,,Active,November-6-2021 11:00 AM,November-6-2021 02:00 PM,http://www.redfin.com/CA/Pittsburg/3166-Portico-Dr-94565/home/167204401,"bridgeMLS, Bay East AOR, or Contra Costa AOR",40969724,N,Y,38.0138415,-121.9707949
104,MLS Listing,,Townhouse,1479 Saint James Pkwy,Concord,CA,94521,587500.0,3.0,2.5,Park Plaza,1574.0,1440.0,1971.0,1.0,373.0,135.0,Active,,,http://www.redfin.com/CA/Concord/1479-St-James-Pkwy-94521/home/1551986,"bridgeMLS, Bay East AOR, or Contra Costa AOR",40972539,N,Y,37.9571088,-121.9733227
105,MLS Listing,,Single Family Residential,3033 Santa Maria Ct,Concord,CA,94518,980000.0,3.0,2.0,Ygnacio Woods,1499.0,8881.0,1962.0,1.0,654.0,,Active,,,http://www.redfin.com/CA/Concord/3033-Santa-Maria-Ct-94518/home/1894923,"bridgeMLS, Bay East AOR, or Contra Costa AOR",40972653,N,Y,37.9362731,-122.0208562
106,MLS Listing,,Condo/Co-op,340 N Civic #305,Walnut Creek,CA,94596-0591,329000.0,1.0,1.0,Downtown W.Creek,701.0,,1972.0,1.0,469.0,580.0,Active,,,http://www.redfin.com/CA/Walnut-Creek/340-N-Civic-Dr-94596/unit-305/home/937980,"bridgeMLS, Bay East AOR, or Contra Costa AOR",40972846,N,Y,37.912002,-122.059698
107,MLS Listing,,Single Family Residential,12212 Toluca Dr,San Ramon,CA,94583,1500000.0,5.0,2.5,San Ramon,2391.0,10001.0,1978.0,1.0,627.0,,Active,November-6-2021 10:00 AM,November-6-2021 01:00 PM,http://www.redfin.com/CA/San-Ramon/12212-Toluca-Dr-94583/home/1654250,MetroList,221137253,N,Y,37.7534741,-121.9415782
108,MLS Listing,,Single Family Residential,238 Iris Rd,Hercules,CA,94547,899000.0,4.0,2.5,Hercules,1927.0,9601.0,1978.0,1.0,467.0,,Active,,,http://www.redfin.com/CA/Hercules/238-Iris-Rd-94547/home/1942346,BAREIS,321103621,N,Y,38.0092242,-122.2520287
109,MLS Listing,,Condo/Co-op,13700 San Pablo Ave #1206,San Pablo,CA,94806,488000.0,3.0,3.0,San Pablo,1664.0,,1988.0,2.0,293.0,572.0,Active,November-7-2021 02:00 PM,November-7-2021 04:00 PM,http://www.redfin.com/CA/San-Pablo/13700-San-Pablo-Ave-94806/unit-1206/home/1112012,BAREIS,321103468,N,Y,37.9581158,-122.3386951
110,MLS Listing,,Townhouse,5231 Pebble Glen Dr,Concord,CA,94521,789000.0,3.0,2.5,Live Oaks,1636.0,2816.0,1990.0,2.0,482.0,215.0,Active,,,http://www.redfin.com/CA/Concord/5231-Pebble-Glen-Dr-94521/home/765114,"bridgeMLS, Bay East AOR, or Contra Costa AOR",40972825,N,Y,37.948497,-121.976067
111,MLS Listing,,Single Family Residential,2561 Modena Dr,Pittsburg,CA,94565,975000.0,5.0,3.0,San Marco,3218.0,3620.0,2017.0,2.0,303.0,,Active,,,http://www.redfin.com/CA/Pittsburg/2561-Modena-Dr-94565/home/167204925,"bridgeMLS, Bay East AOR, or Contra Costa AOR",40972823,N,Y,38.0174884,-121.9751964
112,MLS Listing,,Single Family Residential,5109 Judsonville Dr,Antioch,CA,94531,1059888.0,6.0,3.0,Sterling Summit,4239.0,13000.0,2002.0,2.0,250.0,,Active,,,http://www.redfin.com/CA/Antioch/5109-Judsonville-Dr-94531/home/1194953,"bridgeMLS, Bay East AOR, or Contra Costa AOR",40972824,N,Y,37.9598391,-121.8101295
113,MLS Listing,,Single Family Residential,2533 Modena Dr,Pittsburg,CA,94565,899000.0,5.0,3.0,San Marco,2770.0,3730.0,2017.0,2.0,325.0,,Active,,,http://www.redfin.com/CA/Pittsburg/2533-Modena-Dr-94565/home/167205048,"bridgeMLS, Bay East AOR, or Contra Costa AOR",40972821,N,Y,38.0164971,-121.974757
114,MLS Listing,,Single Family Residential,3123 Castle Rock Loop,Discovery Bay,CA,94505,899888.0,5.0,4.0,Lakeshore,3394.0,6534.0,2004.0,2.0,265.0,205.0,Active,November-6-2021 01:00 PM,November-6-2021 04:00 PM,http://www.redfin.com/CA/Discovery-Bay/3123-Castle-Rock-Loop-94505/home/2103523,"bridgeMLS, Bay East AOR, or Contra Costa AOR",40972817,N,Y,37.9160952,-121.6150059
115,MLS Listing,,Single Family Residential,400 Claremont Dr,Brentwood,CA,94513,725000.0,3.0,2.0,Creekside,1873.0,6700.0,1997.0,2.0,387.0,,Active,,,http://www.redfin.com/CA/Brentwood/400-Claremont-Dr-94513/home/1477308,"bridgeMLS, Bay East AOR, or Contra Costa AOR",40972013,N,Y,37.9206243,-121.7184994
116,MLS Listing,,Single Family Residential,1200 Glenwillow Dr,Brentwood,CA,94513,675000.0,3.0,2.0,Brentwood,1289.0,5000.0,1994.0,2.0,524.0,,Active,,,http://www.redfin.com/CA/Brentwood/1200-Glenwillow-Dr-94513/home/1377726,"bridgeMLS, Bay East AOR, or Contra Costa AOR",40972808,N,Y,37.9341284,-121.7182768
117,MLS Listing,,Single Family Residential,2610 San Benito Dr,Walnut Creek,CA,94598,1500000.0,4.0,2.0,North Gate,1810.0,8175.0,1957.0,3.0,829.0,,Active,,,http://www.redfin.com/CA/Walnut-Creek/2610-San-Benito-Dr-94598/home/1540108,"bridgeMLS, Bay East AOR, or Contra Costa AOR",40972809,N,Y,37.9154777,-122.0349554
118,MLS Listing,,Single Family Residential,389 South Ave,ALAMO,CA,94507,5349000.0,8.0,8.5,ALAMO,12900.0,130680.0,2017.0,3.0,415.0,,Active,,,http://www.redfin.com/CA/Alamo/389-South-Ave-94507/home/1812920,MLSListings,ML81868715,N,Y,37.8391054,-122.0377972
119,MLS Listing,,Condo/Co-op,1940 Skycrest Dr #2,Walnut Creek,CA,94595,619000.0,2.0,2.0,Rossmoor,1406.0,,1970.0,3.0,440.0,878.0,Active,,,http://www.redfin.com/CA/Walnut-Creek/1940-Skycrest-Dr-94595/unit-2/home/167233044,"bridgeMLS, Bay East AOR, or Contra Costa AOR",40968620,N,Y,37.875076,-122.087737
120,MLS Listing,,Single Family Residential,206 Grissom St,Hercules,CA,94547,880000.0,4.0,3.0,Hercules,2519.0,7000.0,1989.0,3.0,349.0,85.0,Active,November-7-2021 01:00 PM,November-7-2021 04:00 PM,http://www.redfin.com/CA/Hercules/206-Grissom-St-94547/home/1050743,"bridgeMLS, Bay East AOR, or Contra Costa AOR",40972803,N,Y,37.9996958,-122.240617
121,MLS Listing,,Single Family Residential,327 Elm St,Brentwood,CA,94513,675000.0,2.0,1.0,Birchwood,1600.0,3200.0,1926.0,3.0,422.0,,Active,,,http://www.redfin.com/CA/Brentwood/327-Elm-St-94513/home/1954004,"bridgeMLS, Bay East AOR, or Contra Costa AOR",40972798,N,Y,37.9291867,-121.6927463
122,MLS Listing,,Mobile/Manufactured Home,141 Maureen Cir #141,Bay Point,CA,94565,189900.0,3.0,2.0,Bay Point,1404.0,,,3.0,135.0,,Active,,,http://www.redfin.com/CA/Bay-Point/141-Maureen-Cir-94565/unit-141/home/177011786,"bridgeMLS, Bay East AOR, or Contra Costa AOR",40971512,N,Y,38.0211705,-121.9312467
123,MLS Listing,,Single Family Residential,1061 Bending Willow Way,Pittsburg,CA,94565,625000.0,4.0,3.0,Pittsburg,2422.0,3839.0,2006.0,3.0,258.0,128.0,Active,,,http://www.redfin.com/CA/Pittsburg/1061-Bending-Willow-Way-94565/home/12122924,"bridgeMLS, Bay East AOR, or Contra Costa AOR",40972794,N,Y,38.0249596,-121.9036404
124,MLS Listing,,Vacant Land,129 Arkinlander Ln,Martinez,CA,94553,199888.0,,,Martinez,,10019.0,,3.0,,,Active,,,http://www.redfin.com/CA/MARTINEZ/129-ARKINLANDER-LN-94553/home/12349033,"bridgeMLS, Bay East AOR, or Contra Costa AOR",40972793,N,Y,38.002879,-122.07507
125,MLS Listing,,Single Family Residential,420 S 22Nd St,Richmond,CA,94804,443000.0,2.0,1.0,Coronado,819.0,5000.0,1942.0,3.0,541.0,,Active,,,http://www.redfin.com/CA/Richmond/420-S-22nd-St-94804/home/1873037,"bridgeMLS, Bay East AOR, or Contra Costa AOR",40972788,N,Y,37.9262054,-122.3483806
126,MLS Listing,,Condo/Co-op,101 Treasure Ct,San Ramon,CA,94583,698000.0,2.0,2.0,Calif Sunridge,1027.0,,1995.0,3.0,680.0,425.0,Active,,,http://www.redfin.com/CA/San-Ramon/101-Treasure-Ct-94583/home/938392,"bridgeMLS, Bay East AOR, or Contra Costa AOR",40971423,N,Y,37.777892,-121.987083
127,MLS Listing,,Condo/Co-op,3747 Terra Granada Dr Unit 2B,Walnut Creek,CA,94595,1199000.0,3.0,2.0,Rossmoor,1802.0,,1979.0,3.0,665.0,1059.0,Active,,,http://www.redfin.com/CA/Walnut-Creek/3747-Terra-Granada-Dr-94595/unit-2B/home/167236090,"bridgeMLS, Bay East AOR, or Contra Costa AOR",40972479,N,Y,37.8518169,-122.064058
128,MLS Listing,,Condo/Co-op,2925 Golden Rain Rd #12,Walnut Creek,CA,94595,660000.0,2.0,2.0,Rossmoor,1158.0,,1966.0,3.0,570.0,894.0,Active,,,http://www.redfin.com/CA/Walnut-Creek/2925-Golden-Rain-Rd-94595/unit-12/home/1200576,"bridgeMLS, Bay East AOR, or Contra Costa AOR",40972785,N,Y,37.880312,-122.085555
129,MLS Listing,,Condo/Co-op,1655 N California Blvd #422,Walnut Creek,CA,94596,897000.0,2.0,2.0,Mercer,1198.0,,2006.0,3.0,749.0,638.0,Active,,,http://www.redfin.com/CA/Walnut-Creek/1655-N-California-Blvd-94596/unit-422/home/17166619,"bridgeMLS, Bay East AOR, or Contra Costa AOR",40972583,N,Y,37.9020702,-122.0650155
130,MLS Listing,,Single Family Residential,1419 Summit Rd,Berkeley,CA,94708,1395000.0,3.0,2.0,Berkeley Hills,1746.0,7050.0,1948.0,3.0,799.0,,Active,November-7-2021 02:00 PM,November-7-2021 04:30 PM,http://www.redfin.com/CA/Berkeley/1419-Summit-Rd-94708/home/1549214,"bridgeMLS, Bay East AOR, or Contra Costa AOR",40972406,N,Y,37.8836058,-122.2468045
131,MLS Listing,,Single Family Residential,5364 Laurel Dr,Concord,CA,94521,999999.0,4.0,2.0,Concord,1632.0,10498.0,1976.0,3.0,613.0,,Active,,,http://www.redfin.com/CA/Concord/5364-Laurel-Dr-94521/home/1421992,"bridgeMLS, Bay East AOR, or Contra Costa AOR",40972779,N,Y,37.959109,-121.9511106
132,MLS Listing,,Single Family Residential,5900 BURLINGAME Ave,Richmond,CA,94804,795000.0,2.0,1.0,Richmond Annex,1454.0,4500.0,1940.0,3.0,547.0,,Active,November-6-2021 02:00 PM,November-6-2021 04:00 PM,http://www.redfin.com/CA/Richmond/5900-Burlingame-Ave-94804/home/1518227,"bridgeMLS, Bay East AOR, or Contra Costa AOR",40972767,N,Y,37.91073,-122.3121025
133,MLS Listing,,Single Family Residential,1384 Summit Rd,BERKELEY,CA,94708,898000.0,3.0,2.0,BERKELEY,1032.0,5328.0,1956.0,3.0,870.0,,Active,November-6-2021 01:30 PM,November-6-2021 04:30 PM,http://www.redfin.com/CA/Berkeley/1384-Summit-Rd-94708/home/1843942,MLSListings,ML81868653,N,Y,37.8848974,-122.2472869
134,MLS Listing,,Single Family Residential,1066 Westmont Ct,Pittsburg,CA,94565,599950.0,3.0,2.0,Pittsburg,1350.0,13500.0,1985.0,3.0,444.0,,Active,,,http://www.redfin.com/CA/Pittsburg/1066-Westmont-Ct-94565/home/678313,"bridgeMLS, Bay East AOR, or Contra Costa AOR",40972763,N,Y,38.0101215,-121.9325339
135,MLS Listing,,Single Family Residential,2225 Holbrook Dr,Concord,CA,94519,799946.0,3.0,2.0,Holbrook Heights,1171.0,6390.0,1953.0,3.0,683.0,28.0,Active,,,http://www.redfin.com/CA/Concord/2225-Holbrook-Dr-94519/home/1364914,"bridgeMLS, Bay East AOR, or Contra Costa AOR",40972764,N,Y,37.9911862,-122.0280947
136,MLS Listing,,Single Family Residential,3012 Gratton Way,Concord,CA,94520,624500.0,3.0,2.0,Glenbrook Hghts,1161.0,5700.0,1954.0,4.0,538.0,,Active,,,http://www.redfin.com/CA/Concord/3012-Gratton-Way-94520/home/1453003,"bridgeMLS, Bay East AOR, or Contra Costa AOR",40972756,N,Y,37.99264,-122.035688
137,MLS Listing,,Single Family Residential,2000 Scally Ct,Concord,CA,94518,879000.0,3.0,2.0,Concord,1775.0,6890.0,1995.0,4.0,495.0,,Active,,,http://www.redfin.com/CA/Concord/2000-Scally-Ct-94518/home/748434,"bridgeMLS, Bay East AOR, or Contra Costa AOR",40972743,N,Y,37.9455168,-122.0309589
138,MLS Listing,,Single Family Residential,222 Hall Dr,Orinda,CA,94563,1400000.0,3.0,2.0,Del Rey,2154.0,28260.0,1952.0,4.0,650.0,,Active,November-7-2021 01:00 PM,November-7-2021 04:00 PM,http://www.redfin.com/CA/Orinda/222-Hall-Dr-94563/home/1033312,"bridgeMLS, Bay East AOR, or Contra Costa AOR",40972226,N,Y,37.859127,-122.1547136
139,MLS Listing,,Condo/Co-op,2666 Saklan Indian Dr #3,Walnut Creek,CA,94595,808000.0,2.0,2.0,Rossmoor,1599.0,,1974.0,4.0,505.0,970.0,Active,,,http://www.redfin.com/CA/Walnut-Creek/2666-Saklan-Indian-Dr-94595/unit-3/home/167233614,"bridgeMLS, Bay East AOR, or Contra Costa AOR",40972741,N,Y,37.867668,-122.065525
140,MLS Listing,,Single Family Residential,152 Chianti Pl,Pleasant Hill,CA,94523,1075000.0,4.0,2.0,Pleasant Hill,2039.0,10560.0,1965.0,4.0,527.0,,Active,November-6-2021 12:00 PM,November-6-2021 03:00 PM,http://www.redfin.com/CA/Pleasant-Hill/152-Chianti-Pl-94523/home/807975,"bridgeMLS, Bay East AOR, or Contra Costa AOR",40972737,N,Y,37.9617854,-122.0857418
141,MLS Listing,,Condo/Co-op,2424 Pine Knoll Dr #4,Walnut Creek,CA,94595,639500.0,2.0,2.0,Walnut Creek,1158.0,,1965.0,4.0,552.0,894.0,Active,,,http://www.redfin.com/CA/Walnut-Creek/2424-Pine-Knoll-Dr-94595/unit-4/home/1199172,"bridgeMLS, Bay East AOR, or Contra Costa AOR",40972316,N,Y,37.873472,-122.082329
142,MLS Listing,,Townhouse,1777 Countrywood Ct,Walnut Creek,CA,94598,675000.0,2.0,2.0,Countrywood,1088.0,2340.0,1973.0,4.0,620.0,390.0,Active,,,http://www.redfin.com/CA/Walnut-Creek/1777-Countrywood-Ct-94598/home/1277609,"bridgeMLS, Bay East AOR, or Contra Costa AOR",40972729,N,Y,37.9298921,-122.0455594
143,MLS Listing,,Single Family Residential,2277 Oak Hills Dr,Pittsburg,CA,94565,690000.0,3.0,2.5,Pittsburg,1601.0,4391.0,1992.0,4.0,431.0,,Active,,,http://www.redfin.com/CA/Pittsburg/2277-Oak-Hills-Dr-94565/home/167206475,MetroList,221135697,N,Y,38.013179,-121.9477777
144,MLS Listing,,Townhouse,2632 Jones Rd Unit A,Walnut Creek,CA,94597,619000.0,2.0,2.5,Carriage Place,1216.0,,1986.0,4.0,509.0,355.0,Active,,,http://www.redfin.com/CA/Walnut-Creek/2632-Jones-Rd-94597/unit-A/home/1843762,"bridgeMLS, Bay East AOR, or Contra Costa AOR",40972728,N,Y,37.920538,-122.060141
145,MLS Listing,,Single Family Residential,8 Avis Ct,Orinda,CA,94563,1699000.0,4.0,2.5,Orinda,2399.0,30492.0,1968.0,4.0,708.0,,Active,,,http://www.redfin.com/CA/Orinda/8-Avis-Ct-94563/home/1598734,"bridgeMLS, Bay East AOR, or Contra Costa AOR",40972725,N,Y,37.8635391,-122.1545362
146,MLS Listing,,Townhouse,129 Midland Way,Danville,CA,94526,599500.0,2.0,1.5,Danville Green,1114.0,1032.0,1972.0,4.0,538.0,430.0,Active,,,http://www.redfin.com/CA/Danville/129-Midland-Way-94526/home/1931317,"bridgeMLS, Bay East AOR, or Contra Costa AOR",40972722,N,Y,37.805067,-121.991027
147,MLS Listing,,Single Family Residential,547 Sundale Ln,Brentwood,CA,94513,1198000.0,4.0,3.0,Apple Hill Ests,2857.0,7320.0,1997.0,4.0,419.0,255.0,Active,,,http://www.redfin.com/CA/Brentwood/547-Sundale-Ln-94513/home/1892974,"bridgeMLS, Bay East AOR, or Contra Costa AOR",40972718,N,Y,37.9336135,-121.7319471
148,MLS Listing,,Single Family Residential,4069 Forestview Ave,Concord,CA,94521,799888.0,4.0,3.0,Concord,1482.0,7000.0,1956.0,4.0,540.0,,Active,,,http://www.redfin.com/CA/Concord/4069-Forestview-Ave-94521/home/749949,"bridgeMLS, Bay East AOR, or Contra Costa AOR",40972710,N,Y,37.9776766,-121.9953176
149,MLS Listing,,Single Family Residential,11 La Fond Ln,Orinda,CA,94563,1995000.0,4.0,3.0,Del Rey,2928.0,30928.0,1948.0,4.0,681.0,,Active,,,http://www.redfin.com/CA/Orinda/11-La-Fond-Ln-94563/home/1039094,"bridgeMLS, Bay East AOR, or Contra Costa AOR",40972709,N,Y,37.8553649,-122.1592377
150,MLS Listing,,Multi-Family (2-4 Unit),521 3Rd St,Brentwood,CA,94513,1200000.0,6.0,3.0,Brentwood,1127.0,7500.0,1940.0,4.0,1065.0,,Active,,,http://www.redfin.com/CA/Brentwood/521-3rd-St-94513/home/1389331,"bridgeMLS, Bay East AOR, or Contra Costa AOR",40972707,N,Y,37.9318832,-121.6913766
151,MLS Listing,,Condo/Co-op,330 N Civic Dr #406,Walnut Creek,CA,94596,305000.0,1.0,1.0,Keys Condos,462.0,,1972.0,4.0,660.0,512.0,Active,November-6-2021 01:00 PM,November-6-2021 04:00 PM,http://www.redfin.com/CA/Walnut-Creek/330-N-Civic-Dr-94596/unit-406/home/1790312,"bridgeMLS, Bay East AOR, or Contra Costa AOR",40972698,N,Y,37.912028,-122.058444
152,MLS Listing,,Single Family Residential,409 Stoneybrook Ct,Danville,CA,94506,1650000.0,4.0,3.0,SHADOW CREEK,3281.0,6900.0,1990.0,4.0,503.0,95.0,Active,,,http://www.redfin.com/CA/Danville/409-Stoneybrook-Ct-94506/home/992588,MetroList,221091778,N,Y,37.8017951,-121.8883016
153,MLS Listing,,Townhouse,5476 Roundtree Pl Unit B,Concord,CA,94521-3956,429000.0,2.0,1.5,Roundtree,973.0,702.0,1971.0,4.0,441.0,407.0,Active,,,http://www.redfin.com/CA/Concord/5476-Roundtree-Pl-94521/unit-B/home/1352297,"bridgeMLS, Bay East AOR, or Contra Costa AOR",40972696,N,Y,37.948666,-121.9602644
154,MLS Listing,,Single Family Residential,771 El Pintado Rd,Danville,CA,94526,5088888.0,7.0,5.5,El Pintado,6474.0,118483.0,2003.0,4.0,786.0,,Active,,,http://www.redfin.com/CA/Danville/771-El-Pintado-Rd-94526/home/1931143,"bridgeMLS, Bay East AOR, or Contra Costa AOR",40972695,N,Y,37.8428665,-122.0029798
155,MLS Listing,,Single Family Residential,2080 Calle Los Callados,Diablo,CA,94528,5950000.0,5.0,7.5,Diablo C.C.,6880.0,32000.0,2005.0,4.0,865.0,,Active,,,http://www.redfin.com/CA/Diablo/2080-Cll-Los-Callados-94528/home/736704,"bridgeMLS, Bay East AOR, or Contra Costa AOR",40972691,N,Y,37.8343215,-121.9529103
156,MLS Listing,,Single Family Residential,1926 Redwood Dr,Martinez,CA,94553-5325,775000.0,3.0,2.0,Martinez,1316.0,7210.0,1970.0,4.0,589.0,,Active,,,http://www.redfin.com/CA/Martinez/1926-Redwood-Dr-94553/home/1595380,"bridgeMLS, Bay East AOR, or Contra Costa AOR",40972689,N,Y,37.9856506,-122.090646
157,MLS Listing,,Single Family Residential,3826 Roundhill Dr,Pittsburg,CA,94565,525000.0,4.0,2.0,Pittsburg,1698.0,7800.0,1972.0,4.0,309.0,,Active,,,http://www.redfin.com/CA/Pittsburg/3826-Roundhill-Dr-94565/home/1831635,"bridgeMLS, Bay East AOR, or Contra Costa AOR",40972686,N,Y,38.000822,-121.8672684
158,MLS Listing,,Single Family Residential,5001 Laverne Way,Concord,CA,94521,625000.0,3.0,2.0,Concord,1288.0,7800.0,1960.0,4.0,485.0,,Active,,,http://www.redfin.com/CA/Concord/5001-Laverne-Way-94521/home/1512201,"bridgeMLS, Bay East AOR, or Contra Costa AOR",40972681,N,Y,37.9593078,-121.9751934
159,MLS Listing,,Condo/Co-op,1940 Skycrest Dr #1,Walnut Creek,CA,94595,788000.0,2.0,2.0,Rossmoor,1406.0,,1970.0,4.0,560.0,878.0,Active,,,http://www.redfin.com/CA/Walnut-Creek/1940-Skycrest-Dr-94595/unit-1/home/167233043,"bridgeMLS, Bay East AOR, or Contra Costa AOR",40972680,N,Y,37.875076,-122.087737
160,MLS Listing,,Single Family Residential,1014 Pine Ln,Lafayette,CA,94549,1800000.0,3.0,3.5,Upper Happy Vly,3102.0,20473.0,1948.0,4.0,580.0,,Active,,,http://www.redfin.com/CA/Lafayette/1014-Pine-Ln-94549/home/1670049,"bridgeMLS, Bay East AOR, or Contra Costa AOR",40972679,N,Y,37.8928772,-122.1420403
161,MLS Listing,,Single Family Residential,411 Western Dr,Richmond,CA,94801,1924000.0,3.0,2.5,Richmond,,7501.0,1934.0,4.0,,,Active,,,http://www.redfin.com/CA/Richmond/411-Western-Dr-94801/home/1184329,BAREIS,321102701,N,Y,37.9255684,-122.3910968
162,MLS Listing,,Mobile/Manufactured Home,14 Galloway Dr,Concord,CA,94518,90000.0,2.0,1.0,Concord,870.0,,,4.0,103.0,,Active,,,http://www.redfin.com/CA/Concord/14-Galloway-Dr-94518/home/177001305,"bridgeMLS, Bay East AOR, or Contra Costa AOR",40972678,N,Y,37.9594834,-122.026374
163,MLS Listing,,Condo/Co-op,17 Shoreline Ct,Richmond,CA,94804,425000.0,1.0,1.0,Richmond,779.0,2125.0,1990.0,4.0,546.0,419.0,Active,,,http://www.redfin.com/CA/Richmond/17-Shoreline-Ct-94804/home/12128571,"bridgeMLS, Bay East AOR, or Contra Costa AOR",40972675,N,Y,37.9117397,-122.3436197
164,MLS Listing,,Vacant Land,283 Castle Hill Ranch Rd,Walnut Creek,CA,94595,1008888.0,,,Walnut Creek,,246550.0,,4.0,,,Active,,,http://www.redfin.com/CA/Walnut-Creek/283-Castle-Hill-Ranch-Rd-94595/home/23308104,"bridgeMLS, Bay East AOR, or Contra Costa AOR",40972668,N,Y,37.867715,-122.0580324
165,MLS Listing,,Townhouse,122 Creekside Ct,El Sobrante,CA,94803,485000.0,3.0,2.5,El Sobrante,1423.0,,1984.0,4.0,341.0,440.0,Active,November-6-2021 02:00 PM,November-6-2021 04:30 PM,http://www.redfin.com/CA/El-Sobrante/122-Creekside-Ct-94803/home/1130299,"bridgeMLS, Bay East AOR, or Contra Costa AOR",40972664,N,Y,37.964084,-122.293423
166,MLS Listing,,Townhouse,111 Sheffield,Hercules,CA,94547,579000.0,3.0,2.5,Foxborough,1493.0,2295.0,1986.0,4.0,388.0,360.0,Active,November-7-2021 02:00 PM,November-7-2021 04:00 PM,http://www.redfin.com/CA/Hercules/111-Sheffield-94547/home/1765033,"bridgeMLS, Bay East AOR, or Contra Costa AOR",40972663,N,Y,38.014633,-122.257916
167,MLS Listing,,Single Family Residential,2651 Carondelet Ct,Concord,CA,94518,1099000.0,3.0,2.5,Concord,1973.0,12000.0,1970.0,4.0,557.0,,Active,,,http://www.redfin.com/CA/Concord/2651-Carondelet-Ct-94518/home/1470182,"bridgeMLS, Bay East AOR, or Contra Costa AOR",40971801,N,Y,37.9359408,-122.0338009
168,MLS Listing,,Single Family Residential,151 Castle Crest Rd,Alamo,CA,94507,1595000.0,3.0,2.0,Westside,2633.0,21762.0,1961.0,4.0,606.0,,Active,,,http://www.redfin.com/CA/Alamo/151-Castle-Crest-Rd-94507/home/1939857,"bridgeMLS, Bay East AOR, or Contra Costa AOR",40972657,N,Y,37.8698233,-122.0532261
169,MLS Listing,,Condo/Co-op,73 Brookwood Rd #43,Orinda,CA,94563,465000.0,1.0,1.0,Orinda,673.0,,1962.0,4.0,691.0,514.0,Active,,,http://www.redfin.com/CA/Orinda/73-Brookwood-Rd-94563/unit-43/home/1879513,"bridgeMLS, Bay East AOR, or Contra Costa AOR",40972656,N,Y,37.8768764,-122.1822545
170,MLS Listing,,Single Family Residential,3214 Gold Ct,Lafayette,CA,94549,2500000.0,5.0,3.0,Burton Valley,3329.0,24750.0,1959.0,4.0,751.0,,Active,,,http://www.redfin.com/CA/Lafayette/3214-Gold-Ct-94549/home/1431422,"bridgeMLS, Bay East AOR, or Contra Costa AOR",40971962,N,Y,37.8710744,-122.0940189
171,MLS Listing,,Single Family Residential,2361 Ranchito Dr,Concord,CA,94520,689000.0,3.0,1.0,Concord,1486.0,11550.0,1962.0,4.0,464.0,,Active,November-6-2021 01:00 PM,November-6-2021 04:00 PM,http://www.redfin.com/CA/Concord/2361-Ranchito-Dr-94520/home/1392056,"bridgeMLS, Bay East AOR, or Contra Costa AOR",40972291,N,Y,38.0022934,-122.0293825
172,MLS Listing,,Single Family Residential,812 San Simeon Dr,Concord,CA,94518-2222,650000.0,2.0,2.0,Concord,1313.0,7000.0,1973.0,4.0,495.0,,Active,,,http://www.redfin.com/CA/Concord/812-San-Simeon-Dr-94518/home/1886540,"bridgeMLS, Bay East AOR, or Contra Costa AOR",40972651,N,Y,37.9438083,-122.0185903
173,MLS Listing,,Single Family Residential,1698 La Bonita Way,Concord,CA,94519,699000.0,3.0,1.5,Concord,1545.0,8450.0,1948.0,4.0,452.0,,Active,,,http://www.redfin.com/CA/Concord/1698-La-Bonita-Way-94519/home/700486,"bridgeMLS, Bay East AOR, or Contra Costa AOR",40972647,N,Y,37.9744732,-122.0063776
174,MLS Listing,,Condo/Co-op,1406 Jetty Dr,Richmond,CA,94804,697990.0,3.0,2.5,Marina Bay,1331.0,2500.0,2010.0,4.0,524.0,307.0,Active,,,http://www.redfin.com/CA/Richmond/1406-Jetty-Dr-94804/home/23129308,"bridgeMLS, Bay East AOR, or Contra Costa AOR",40972644,N,Y,37.918038,-122.347706
175,MLS Listing,,Single Family Residential,752 Katydid Ct,Martinez,CA,94553,745000.0,3.0,2.5,Martinez,1582.0,3485.0,2014.0,4.0,471.0,125.0,Active,,,http://www.redfin.com/CA/Martinez/752-Katydid-Ct-94553/home/95952775,"bridgeMLS, Bay East AOR, or Contra Costa AOR",40972423,N,Y,38.0021425,-122.0795945
176,MLS Listing,,Single Family Residential,5723 Marlin Dr,Discovery Bay,CA,94505,825000.0,3.0,3.0,Delta Waterfront,1524.0,4500.0,1982.0,4.0,541.0,,Active,,,http://www.redfin.com/CA/Discovery-Bay/5723-Marlin-Dr-94505/home/1059645,"bridgeMLS, Bay East AOR, or Contra Costa AOR",40972288,N,Y,37.9051624,-121.5897753
177,MLS Listing,,Single Family Residential,456 BRIDGE Rd,Walnut Creek,CA,94595,1195000.0,2.0,1.0,Saranap,1104.0,11500.0,1956.0,4.0,1082.0,,Active,,,http://www.redfin.com/CA/Walnut-Creek/456-Bridge-Rd-94595/home/1483938,"bridgeMLS, Bay East AOR, or Contra Costa AOR",40972641,N,Y,37.8889795,-122.072426
178,MLS Listing,,Single Family Residential,2212 Jefferson Way,Antioch,CA,94509,1.0,3.0,2.0,Antioch,1120.0,6000.0,1972.0,4.0,0.0,,Active,,,http://www.redfin.com/CA/Antioch/2212-Jefferson-Way-94509/home/1831412,"bridgeMLS, Bay East AOR, or Contra Costa AOR",40972637,N,Y,37.9918488,-121.8390696
179,MLS Listing,,Single Family Residential,4325 Hazelwood Ln,Concord,CA,94521,789000.0,4.0,2.0,Thornwood,1560.0,8000.0,1963.0,4.0,506.0,,Active,,,http://www.redfin.com/CA/Concord/4325-Hazelwood-Ln-94521/home/1344141,"bridgeMLS, Bay East AOR, or Contra Costa AOR",40972639,N,Y,37.9713039,-121.9792363
180,MLS Listing,,Single Family Residential,225 Upton Pyne Dr,Brentwood,CA,94513,650000.0,2.0,2.5,Summerset 2,1905.0,5416.0,1998.0,4.0,341.0,115.0,Active,,,http://www.redfin.com/CA/Brentwood/225-Upton-Pyne-Dr-94513/home/1450420,"bridgeMLS, Bay East AOR, or Contra Costa AOR",40972635,N,Y,37.9214154,-121.7291864
181,MLS Listing,,Single Family Residential,3802 La Colina Rd,El Sobrante,CA,94803,599000.0,2.0,2.0,El Sobrante,1014.0,7500.0,1947.0,4.0,591.0,,Active,November-7-2021 02:00 PM,November-7-2021 04:00 PM,http://www.redfin.com/CA/El-Sobrante/3802-La-Colina-Rd-94803/home/1942820,"bridgeMLS, Bay East AOR, or Contra Costa AOR",40972300,N,Y,37.960235,-122.3086036
182,MLS Listing,,Single Family Residential,2344 Saint George Dr,Concord,CA,94520-1331,659000.0,4.0,2.0,East Sun Terrrac,1515.0,6000.0,1962.0,4.0,435.0,,Active,,,http://www.redfin.com/CA/Concord/2344-St-George-Dr-94520/home/682952,"bridgeMLS, Bay East AOR, or Contra Costa AOR",40971304,N,Y,38.005575,-122.027029
183,MLS Listing,,Single Family Residential,1901 Carzino Ct,Concord,CA,94521-1513,1248000.0,4.0,4.0,Concord,3432.0,29621.0,1977.0,4.0,364.0,,Active,,,http://www.redfin.com/CA/Concord/1901-Carzino-Ct-94521/home/549669,"bridgeMLS, Bay East AOR, or Contra Costa AOR",40972631,N,Y,37.960688,-121.9472444
184,MLS Listing,,Single Family Residential,3751 Northridge Dr,Concord,CA,94518,1050000.0,3.0,3.0,Concord,2265.0,12000.0,1963.0,4.0,464.0,,Active,,,http://www.redfin.com/CA/Concord/3751-Northridge-Dr-94518/home/846383,"bridgeMLS, Bay East AOR, or Contra Costa AOR",40972629,N,Y,37.9572297,-122.0144388
185,MLS Listing,,Single Family Residential,2403 Aberdeen Ln,Discovery Bay,CA,94505,799000.0,5.0,4.0,Discovery  Bay,3022.0,5061.0,2002.0,4.0,264.0,,Active,,,http://www.redfin.com/CA/Discovery-Bay/2403-Aberdeen-Ln-94505/home/708261,"bridgeMLS, Bay East AOR, or Contra Costa AOR",40972630,N,Y,37.90722,-121.6213349
186,MLS Listing,,Townhouse,314 N Wildwood,Hercules,CA,94547,498000.0,3.0,2.5,Hercules,1413.0,,1988.0,4.0,352.0,495.0,Active,,,http://www.redfin.com/CA/Hercules/314-N-Wildwood-94547/home/1253119,"bridgeMLS, Bay East AOR, or Contra Costa AOR",40972628,N,Y,38.009533,-122.278752
187,MLS Listing,,Condo/Co-op,2450 Walters Way #30,Concord,CA,94520,315000.0,2.0,1.0,Concord,900.0,,1981.0,4.0,350.0,475.0,Active,,,http://www.redfin.com/CA/Concord/2450-Walters-Way-94520/unit-30/home/732871,"bridgeMLS, Bay East AOR, or Contra Costa AOR",40971733,N,Y,37.9611849,-122.0369313
188,MLS Listing,,Single Family Residential,93 Camino Del Sol,Martinez,CA,94553,599000.0,3.0,1.0,Martinez,996.0,6500.0,1953.0,4.0,601.0,,Active,,,http://www.redfin.com/CA/Martinez/93-Camino-Del-Sol-94553/home/1068817,"bridgeMLS, Bay East AOR, or Contra Costa AOR",40972250,N,Y,38.0098859,-122.094729
189,MLS Listing,,Single Family Residential,2435 Cambridge Dr,Antioch,CA,94509,749000.0,5.0,3.0,Mira Vista Hills,2533.0,9358.0,2011.0,4.0,296.0,,Active,,,http://www.redfin.com/CA/Antioch/2435-Cambridge-Dr-94509/home/23104166,"bridgeMLS, Bay East AOR, or Contra Costa AOR",40972286,N,Y,37.9787034,-121.8437403
190,MLS Listing,,Single Family Residential,2204 Maidenhair Way,San Ramon,CA,94582,1298000.0,3.0,2.5,Gale Ranch,1770.0,3893.0,2005.0,4.0,733.0,128.0,Active,,,http://www.redfin.com/CA/San-Ramon/2204-Maidenhair-Way-94582/home/2108697,"bridgeMLS, Bay East AOR, or Contra Costa AOR",40972534,N,Y,37.7709686,-121.9097754
191,MLS Listing,,Single Family Residential,776 Charlton Dr,Pleasant Hill,CA,94523,1150000.0,3.0,2.0,Pleasant Hill,1664.0,9690.0,1949.0,4.0,691.0,,Active,,,http://www.redfin.com/CA/Pleasant-Hill/776-Charlton-Dr-94523/home/841520,"bridgeMLS, Bay East AOR, or Contra Costa AOR",40972119,N,Y,37.9398791,-122.0866072
192,MLS Listing,,Single Family Residential,4309 Suzanne Dr,Pittsburg,CA,94565,697500.0,4.0,2.5,Highlands,2052.0,9652.0,1982.0,4.0,340.0,,Active,,,http://www.redfin.com/CA/Pittsburg/4309-Suzanne-Dr-94565/home/1675438,"bridgeMLS, Bay East AOR, or Contra Costa AOR",40972506,N,Y,37.9913459,-121.8789861
193,MLS Listing,,Townhouse,1441 Saint James Pkwy,Concord,CA,94521,449900.0,3.0,2.5,Concord,1576.0,1520.0,1972.0,4.0,285.0,135.0,Active,,,http://www.redfin.com/CA/Concord/1441-St-James-Pkwy-94521/home/1526765,"bridgeMLS, Bay East AOR, or Contra Costa AOR",40972616,N,Y,37.9554734,-121.9742671
194,MLS Listing,,Single Family Residential,3940 Saint Mary's St,Martinez,CA,94553,999000.0,4.0,3.0,Martinez,2365.0,8276.0,1956.0,4.0,422.0,,Active,,,http://www.redfin.com/CA/Martinez/3940-St-Marys-St-94553/home/1368232,"bridgeMLS, Bay East AOR, or Contra Costa AOR",40972518,N,Y,37.9951665,-122.1358611
195,MLS Listing,,Condo/Co-op,404 Dursey Dr,Pinole,CA,94564,440000.0,2.0,2.0,Willowbrook,996.0,,1991.0,4.0,442.0,600.0,Active,,,http://www.redfin.com/CA/Pinole/404-Dursey-Dr-94564/home/1802612,"bridgeMLS, Bay East AOR, or Contra Costa AOR",40972508,N,Y,38.0009227,-122.3157549
196,MLS Listing,,Single Family Residential,833 Topper Ln,Lafayette,CA,94549,2495000.0,4.0,2.0,Lafayette,2648.0,17860.0,1949.0,4.0,942.0,,Active,,,http://www.redfin.com/CA/Lafayette/833-Topper-Ln-94549/home/994606,"bridgeMLS, Bay East AOR, or Contra Costa AOR",40972524,N,Y,37.8855086,-122.1122797
197,MLS Listing,,Single Family Residential,2983 Aldrich St,Antioch,CA,94509,690000.0,3.0,2.0,Almond Ridge,2148.0,6939.0,2016.0,4.0,321.0,121.0,Active,,,http://www.redfin.com/CA/Antioch/2983-Aldrich-St-94509/home/23420268,"bridgeMLS, Bay East AOR, or Contra Costa AOR",40972528,N,Y,38.0026216,-121.7579027
198,MLS Listing,,Single Family Residential,181 Ridgeview Ter,Hercules,CA,94547,848500.0,4.0,3.0,Hercules,1929.0,6460.0,1999.0,4.0,440.0,120.0,Active,,,http://www.redfin.com/CA/Hercules/181-Ridgeview-Ter-94547/home/1157872,San Francisco MLS,421607556,N,Y,38.0133671,-122.2830002
199,MLS Listing,,Condo/Co-op,145 Glenwood,Hercules,CA,94547,399000.0,2.0,2.0,Devonwood,937.0,,1985.0,4.0,426.0,359.0,Active,November-6-2021 01:00 PM,November-6-2021 04:00 PM,http://www.redfin.com/CA/Hercules/145-Glenwood-94547/home/1400167,"bridgeMLS, Bay East AOR, or Contra Costa AOR",40972611,N,Y,38.0070174,-122.2824085
200,MLS Listing,,Townhouse,177 Pelican Loop,Pittsburg,CA,94565,545000.0,3.0,2.5,Marina,1608.0,2500.0,1989.0,5.0,339.0,257.0,Active,,,http://www.redfin.com/CA/Pittsburg/177-Pelican-Loop-94565/home/1769167,"bridgeMLS, Bay East AOR, or Contra Costa AOR",40972601,N,Y,38.03634,-121.88681
201,MLS Listing,,Condo/Co-op,128 Marina Lakes Dr,Richmond,CA,94804,470000.0,1.0,1.0,Marina Bay,915.0,2124.0,1992.0,5.0,514.0,554.0,Active,,,http://www.redfin.com/CA/Richmond/128-Marina-Lakes-Dr-94804/home/2109694,"bridgeMLS, Bay East AOR, or Contra Costa AOR",40972599,N,Y,37.911472,-122.341807
202,MLS Listing,,Single Family Residential,1183 Carey Dr,Concord,CA,94520,635000.0,3.0,2.0,Concord,1243.0,7000.0,1956.0,5.0,511.0,,Active,,,http://www.redfin.com/CA/Concord/1183-Carey-Dr-94520/home/1510416,"bridgeMLS, Bay East AOR, or Contra Costa AOR",40972019,N,Y,37.9530773,-122.0505179
203,MLS Listing,,Single Family Residential,3522 Wild Flower Way,Concord,CA,94518,948500.0,4.0,2.5,Ygnacio Woods,2123.0,6760.0,1974.0,5.0,447.0,,Active,,,http://www.redfin.com/CA/Concord/3522-Wildflower-Way-94518/home/1651228,"bridgeMLS, Bay East AOR, or Contra Costa AOR",40972312,N,Y,37.9426107,-122.0090425
204,MLS Listing,,Single Family Residential,124 Del Centro Ct,Lafayette,CA,94549,1299000.0,4.0,2.0,Bonnie Brae High,1874.0,15750.0,1963.0,5.0,693.0,,Active,,,http://www.redfin.com/CA/Lafayette/124-Del-Centro-Ct-94549/home/1354522,"bridgeMLS, Bay East AOR, or Contra Costa AOR",40972589,N,Y,37.929761,-122.0944184
205,MLS Listing,,Single Family Residential,7290 Keyesport Way,Discovery Bay,CA,94505,824900.0,4.0,3.0,The Lakes,2492.0,7144.0,2017.0,5.0,331.0,175.0,Active,,,http://www.redfin.com/CA/Discovery-Bay/7290-Keyesport-Way-94505/home/23129768,"bridgeMLS, Bay East AOR, or Contra Costa AOR",40972588,N,Y,37.9282134,-121.6155184
206,MLS Listing,,Single Family Residential,118 Reid Ln,Richmond,CA,94801,699000.0,3.0,2.5,West Richmond,1829.0,2600.0,2006.0,5.0,382.0,,Active,,,http://www.redfin.com/CA/Richmond/118-Reid-Ln-94801/home/12124167,"bridgeMLS, Bay East AOR, or Contra Costa AOR",40972587,N,Y,37.9559175,-122.3713013
207,MLS Listing,,Townhouse,4903 Boxer Blvd,Concord,CA,94521,569900.0,3.0,2.5,Park Plaza,1280.0,1880.0,1971.0,5.0,445.0,135.0,Active,,,http://www.redfin.com/CA/Concord/4903-Boxer-Blvd-94521/home/680618,"bridgeMLS, Bay East AOR, or Contra Costa AOR",40972586,N,Y,37.956605,-121.974863
208,MLS Listing,,Single Family Residential,1055 Prewett Ranch Ct,Antioch,CA,94531,729000.0,4.0,2.5,Prewitt Ranch,2467.0,6254.0,2001.0,5.0,296.0,,Active,,,http://www.redfin.com/CA/Antioch/1055-Prewett-Ranch-Ct-94531/home/1713416,"bridgeMLS, Bay East AOR, or Contra Costa AOR",40972585,N,Y,37.9576003,-121.8067256
209,MLS Listing,,Condo/Co-op,329 Pantano Cir,Pacheco,CA,94553-5634,418000.0,2.0,1.5,Pacheco,1118.0,,1981.0,5.0,374.0,465.0,Active,,,http://www.redfin.com/CA/Pacheco/329-Pantano-Cir-94553/home/1454037,"bridgeMLS, Bay East AOR, or Contra Costa AOR",40972256,N,Y,37.9842752,-122.0712341
210,MLS Listing,,Single Family Residential,5408 Oakstone Ct,Concord,CA,94521,1450000.0,4.0,3.5,Crystal Ranch,3206.0,9244.0,2003.0,5.0,452.0,86.0,Active,,,http://www.redfin.com/CA/Concord/5408-Oakstone-Ct-94521/home/728578,"bridgeMLS, Bay East AOR, or Contra Costa AOR",40972581,N,Y,37.9270541,-121.9679069
211,MLS Listing,,Single Family Residential,1350 Stonewood Dr,Brentwood,CA,94513,949900.0,4.0,3.0,Inspirations,2454.0,6275.0,1996.0,5.0,387.0,,Active,,,http://www.redfin.com/CA/Brentwood/1350-Stonewood-Dr-94513/home/841425,"bridgeMLS, Bay East AOR, or Contra Costa AOR",40972577,N,Y,37.9408479,-121.7206369
212,MLS Listing,,Single Family Residential,691 Thornhill Rd,Danville,CA,94526,1799000.0,4.0,2.0,Sycamore,2095.0,12150.0,1977.0,5.0,859.0,105.0,Active,,,http://www.redfin.com/CA/Danville/691-Thornhill-Rd-94526/home/1681567,"bridgeMLS, Bay East AOR, or Contra Costa AOR",40971142,N,Y,37.8193669,-121.9775703
213,MLS Listing,,Single Family Residential,3630 Sailboat Dr,Discovery Bay,CA,94505,600000.0,3.0,2.0,Discovery  Bay,1484.0,4950.0,1997.0,5.0,404.0,,Active,,,http://www.redfin.com/CA/Discovery-Bay/3630-Sailboat-Dr-94505/home/537942,"bridgeMLS, Bay East AOR, or Contra Costa AOR",40972273,N,Y,37.8902893,-121.6281093
214,MLS Listing,,Single Family Residential,4912 John Muir Rd,Martinez,CA,94553,1980000.0,5.0,3.0,Muir Oaks,3365.0,,,5.0,588.0,,Active,,,http://www.redfin.com/CA/Martinez/4912-John-Muir-Rd-94553/home/1346649,San Francisco MLS,421607985,N,Y,37.9858701,-122.1146758
215,MLS Listing,,Single Family Residential,1931 Jubilee Dr,Brentwood,CA,94513,645000.0,2.0,2.5,Summerset 1,1998.0,6768.0,1997.0,5.0,323.0,100.0,Active,,,http://www.redfin.com/CA/Brentwood/1931-Jubilee-Dr-94513/home/1589846,"bridgeMLS, Bay East AOR, or Contra Costa AOR",40972566,N,Y,37.9273357,-121.7317244
216,MLS Listing,,Single Family Residential,36 Hodur Ct,Pleasant Hill,CA,94523,1188000.0,5.0,2.5,Pleasant Hill,2055.0,8820.0,1965.0,5.0,578.0,,Active,,,http://www.redfin.com/CA/Pleasant-Hill/36-Hodur-Ct-94523/home/1626260,"bridgeMLS, Bay East AOR, or Contra Costa AOR",40972562,N,Y,37.9656941,-122.081148
217,MLS Listing,,Single Family Residential,2835 Killarney Dr,San Pablo,CA,94806,674900.0,3.0,2.0,Tara Hills,1185.0,6820.0,1960.0,5.0,570.0,,Active,,,http://www.redfin.com/CA/San-Pablo/2835-Killarney-Dr-94806/home/687591,"bridgeMLS, Bay East AOR, or Contra Costa AOR",40972561,N,Y,37.993011,-122.3100209
218,MLS Listing,,Single Family Residential,231 Cliffcastle Ct,San Ramon,CA,94583,2798000.0,4.0,3.0,Norris Cyn Estates,3403.0,49108.0,2013.0,5.0,822.0,173.0,Active,November-6-2021 01:00 PM,November-6-2021 04:00 PM,http://www.redfin.com/CA/San-Ramon/231-Cliffcastle-Ct-94583/home/23327853,"bridgeMLS, Bay East AOR, or Contra Costa AOR",40972487,N,Y,37.7412745,-121.9892361
219,MLS Listing,,Single Family Residential,3104 San Ramon Rd,Concord,CA,94519,650000.0,3.0,1.0,Concord,1068.0,5400.0,1950.0,5.0,609.0,,Active,,,http://www.redfin.com/CA/Concord/3104-San-Ramon-Rd-94519/home/686859,"bridgeMLS, Bay East AOR, or Contra Costa AOR",40972557,N,Y,37.9844899,-122.0223217
220,MLS Listing,,Single Family Residential,4730 Cache Peak Dr,Antioch,CA,94531,825000.0,6.0,3.0,Antioch,3275.0,8710.0,1991.0,5.0,252.0,,Active,,,http://www.redfin.com/CA/Antioch/4730-Cache-Peak-Dr-94531/home/617943,"bridgeMLS, Bay East AOR, or Contra Costa AOR",40972556,N,Y,37.9730336,-121.8022092
221,MLS Listing,,Single Family Residential,124 Baldwin Dr,Danville,CA,94526,1490000.0,3.0,2.5,Greenbrook,1943.0,9570.0,1966.0,5.0,767.0,88.0,Active,,,http://www.redfin.com/CA/Danville/124-Baldwin-Dr-94526/home/811638,"bridgeMLS, Bay East AOR, or Contra Costa AOR",40972555,N,Y,37.7945375,-121.9819241
222,MLS Listing,,Single Family Residential,405 Oakbreeze Ct,Martinez,CA,94553,739000.0,3.0,2.0,Martinez,1442.0,7272.0,1988.0,5.0,512.0,,Active,,,http://www.redfin.com/CA/Martinez/405-Oak-Breeze-Ct-94553/home/1061406,"bridgeMLS, Bay East AOR, or Contra Costa AOR",40972553,N,Y,38.0024169,-122.1182255
223,MLS Listing,,Single Family Residential,60 Deerhaven Pl,Pleasant Hill,CA,94523,1049000.0,4.0,3.0,Valley High,2098.0,11520.0,1967.0,5.0,500.0,,Active,,,http://www.redfin.com/CA/Pleasant-Hill/60-Deerhaven-Pl-94523/home/1960262,"bridgeMLS, Bay East AOR, or Contra Costa AOR",40972491,N,Y,37.9718361,-122.0981462
224,MLS Listing,,Single Family Residential,11 Ranch Rd,Orinda,CA,94563,2795000.0,3.0,3.5,Country Clb Area,3826.0,51000.0,1953.0,5.0,731.0,,Active,,,http://www.redfin.com/CA/Orinda/11-Ranch-Rd-94563/home/1281674,"bridgeMLS, Bay East AOR, or Contra Costa AOR",40972545,N,Y,37.9087691,-122.178197
225,MLS Listing,,Townhouse,2831 Royal Ann Ln,Concord,CA,94518,685000.0,3.0,2.0,Concord,1339.0,2360.0,1973.0,5.0,512.0,450.0,Active,,,http://www.redfin.com/CA/Concord/2831-Royal-Ann-Ln-94518/home/1867729,"bridgeMLS, Bay East AOR, or Contra Costa AOR",40972546,N,Y,37.9381947,-122.0312255
226,MLS Listing,,Single Family Residential,4125 Los Arabis Dr,Lafayette,CA,94549,4795000.0,4.0,5.0,Upper Happy Vly,4038.0,20909.0,1972.0,5.0,1187.0,,Active,,,http://www.redfin.com/CA/Lafayette/4125-Los-Arabis-Dr-94549/home/1471555,"bridgeMLS, Bay East AOR, or Contra Costa AOR",40972543,N,Y,37.8964809,-122.1591047
227,MLS Listing,,Single Family Residential,110 Adobe Ct,San Pablo,CA,94806,618000.0,3.0,2.5,San Pablo Prop,1745.0,1525.0,2002.0,5.0,354.0,251.0,Active,,,http://www.redfin.com/CA/San-Pablo/110-Adobe-Ct-94806/home/1972854,"bridgeMLS, Bay East AOR, or Contra Costa AOR",40972542,N,Y,37.9639729,-122.3390977
228,MLS Listing,,Condo/Co-op,535 Pierce St #1303,Albany,CA,94706,759000.0,2.0,2.0,Albany,1170.0,,1988.0,5.0,649.0,689.0,Active,,,http://www.redfin.com/CA/Albany/535-Pierce-St-94706/unit-1303/home/714244,MetroList,221138301,N,Y,37.897577,-122.3075184
229,MLS Listing,,Single Family Residential,1180 Chaucer Dr,Brentwood,CA,94513,659000.0,3.0,2.5,Brentwood,1568.0,4690.0,1995.0,5.0,420.0,,Active,,,http://www.redfin.com/CA/Brentwood/1180-Chaucer-Dr-94513/home/1794761,"bridgeMLS, Bay East AOR, or Contra Costa AOR",40972540,N,Y,37.9206565,-121.7175197
230,MLS Listing,,Single Family Residential,55 Cricket Hill Rd,Lafayette,CA,94549,2295000.0,3.0,4.0,Happy Valley,2644.0,58370.0,1963.0,5.0,868.0,,Active,November-6-2021 01:00 PM,November-6-2021 04:00 PM,http://www.redfin.com/CA/Lafayette/55-Cricket-Hill-Rd-94549/home/1257469,"bridgeMLS, Bay East AOR, or Contra Costa AOR",40972435,N,Y,37.9046847,-122.1600361
231,MLS Listing,,Condo/Co-op,1493 Del Rio Cir Unit D,Concord,CA,94518,299000.0,2.0,1.0,Concord,854.0,1062.0,1969.0,5.0,350.0,365.0,Active,,,http://www.redfin.com/CA/Concord/1493-Del-Rio-Cir-94518/unit-D/home/799368,San Francisco MLS,421607727,N,Y,37.94618,-122.044443
232,MLS Listing,,Vacant Land,114 Crivello Ave,Bay Point,CA,94565,135000.0,0.0,,Bay Point,,5440.0,,5.0,,,Active,,,http://www.redfin.com/CA/Bay-Point/114-Crivello-Ave-94565/home/23393111,San Francisco MLS,421607841,N,Y,38.028215,-121.933009
233,MLS Listing,,Mobile/Manufactured Home,333 Avenida Flores #62,Pacheco,CA,94553,245000.0,3.0,2.0,Pacheco,1344.0,,,5.0,182.0,,Active,,,http://www.redfin.com/CA/Pacheco/333-Avenida-Flores-94553/unit-62/home/175534338,"bridgeMLS, Bay East AOR, or Contra Costa AOR",40972480,N,Y,37.9932096,-122.0657617
234,MLS Listing,,Single Family Residential,361 Summerview Ct,San Ramon,CA,94583,1788000.0,4.0,3.0,Newcastle,3020.0,8510.0,1988.0,5.0,592.0,,Active,,,http://www.redfin.com/CA/San-Ramon/361-Summerview-Ct-94583/home/1897653,"bridgeMLS, Bay East AOR, or Contra Costa AOR",40972477,N,Y,37.7566613,-121.9450668
235,MLS Listing,,Single Family Residential,2264 Star Lilly Ct,Brentwood,CA,94513,1248000.0,5.0,4.0,Sterling Preserve,3603.0,10260.0,2006.0,5.0,346.0,,Active,,,http://www.redfin.com/CA/Brentwood/2264-Star-Lilly-Ct-94513/home/17138797,"bridgeMLS, Bay East AOR, or Contra Costa AOR",40972472,N,Y,37.956849,-121.7154935
236,MLS Listing,,Single Family Residential,5414 Cherokee Way,Antioch,CA,94531,629500.0,3.0,2.0,Antioch,2041.0,7210.0,1999.0,5.0,308.0,,Active,,,http://www.redfin.com/CA/Antioch/5414-Cherokee-Way-94531/home/591452,"bridgeMLS, Bay East AOR, or Contra Costa AOR",40972470,N,Y,37.9549446,-121.7725696
237,MLS Listing,,Single Family Residential,6188 Mcbryde Ave,Richmond,CA,94805,699000.0,2.0,1.0,Tewksbury Hgts,730.0,8250.0,1942.0,5.0,958.0,,Active,,,http://www.redfin.com/CA/Richmond/6188-McBryde-Ave-94805/home/23426193,"bridgeMLS, Bay East AOR, or Contra Costa AOR",40972467,N,Y,37.9467324,-122.3127668
238,MLS Listing,,Single Family Residential,1008 California St,Rodeo,CA,94572,750000.0,3.0,2.0,Viewpointe,1163.0,6500.0,1977.0,5.0,645.0,40.0,Active,,,http://www.redfin.com/CA/Rodeo/1008-California-St-94572/home/1043310,"bridgeMLS, Bay East AOR, or Contra Costa AOR",40972258,N,Y,38.0279606,-122.2541558
239,MLS Listing,,Single Family Residential,5301 Summerfield Dr,Antioch,CA,94531,749999.0,5.0,3.0,Antioch,3367.0,7600.0,2001.0,5.0,223.0,,Active,November-6-2021 01:00 PM,November-6-2021 04:00 PM,http://www.redfin.com/CA/Antioch/5301-Summerfield-Dr-94531/home/1345128,"bridgeMLS, Bay East AOR, or Contra Costa AOR",40972464,N,Y,37.9589091,-121.756634
240,MLS Listing,,Townhouse,310 Parklane Plz,Martinez,CA,94553,569000.0,2.0,1.5,Martinez,974.0,81675000.0,1976.0,5.0,584.0,350.0,Active,,,http://www.redfin.com/CA/Martinez/310-Parklane-Plz-94553/home/1823954,BAREIS,321101059,N,Y,37.961047,-122.098734
241,MLS Listing,,Single Family Residential,5674 White Mountain Ct,Martinez,CA,94553,989000.0,5.0,3.0,Martinez,2392.0,8000.0,1979.0,5.0,413.0,,Active,,,http://www.redfin.com/CA/Martinez/5674-White-Mountain-Ct-94553/home/1867022,San Francisco MLS,421607207,N,Y,37.9753438,-122.104714
242,MLS Listing,,Single Family Residential,2842 San Carlos Dr,Walnut Creek,CA,94598,1050000.0,3.0,2.0,Rancho San Migue,1404.0,7700.0,1959.0,6.0,748.0,,Active,,,http://www.redfin.com/CA/Walnut-Creek/2842-San-Carlos-Dr-94598/home/775867,"bridgeMLS, Bay East AOR, or Contra Costa AOR",40972461,N,Y,37.9117754,-122.0297822
243,MLS Listing,,Single Family Residential,4743 Dundee St,Antioch,CA,94531,738000.0,5.0,3.0,Antioch,2764.0,4713.0,2014.0,6.0,267.0,,Active,,,http://www.redfin.com/CA/Antioch/4743-Dundee-St-94531/home/23099688,"bridgeMLS, Bay East AOR, or Contra Costa AOR",40972456,N,Y,37.9776834,-121.758882
244,MLS Listing,,Single Family Residential,636 Lugano Ct,Brentwood,CA,94513,850000.0,4.0,3.0,Campanello,2748.0,7912.0,2001.0,6.0,309.0,,Active,,,http://www.redfin.com/CA/Brentwood/636-Lugano-Ct-94513/home/1356060,"bridgeMLS, Bay East AOR, or Contra Costa AOR",40972452,N,Y,37.9188622,-121.7089916
245,MLS Listing,,Single Family Residential,5 Headland Ct,Danville,CA,94506,2698000.0,4.0,2.5,Cimarron Hills,2979.0,15100.0,1992.0,6.0,906.0,93.0,Active,,,http://www.redfin.com/CA/Danville/5-Headland-Ct-94506/home/1357338,"bridgeMLS, Bay East AOR, or Contra Costa AOR",40972450,N,Y,37.7966225,-121.9302227
246,MLS Listing,,Single Family Residential,3105 Stonegate Dr,Alamo,CA,94507,2275000.0,4.0,3.5,Stonegate,4000.0,15600.0,1991.0,6.0,569.0,196.0,Active,,,http://www.redfin.com/CA/Alamo/3105-Stonegate-Dr-94507/home/1612566,"bridgeMLS, Bay East AOR, or Contra Costa AOR",40972449,N,Y,37.8765669,-122.0022691
247,MLS Listing,,Condo/Co-op,1201 Melville Sq #102,Richmond,CA,94804,529000.0,2.0,2.0,Marina Bay,1011.0,,1983.0,6.0,523.0,681.0,Active,,,http://www.redfin.com/CA/Richmond/1201-Melville-Sq-94804/unit-102/home/1187248,"bridgeMLS, Bay East AOR, or Contra Costa AOR",40972448,N,Y,37.915492,-122.34794
248,MLS Listing,,Single Family Residential,2242 Newport Ct,Discovery Bay,CA,94505,630000.0,3.0,2.0,Balboa Cove,1768.0,7100.0,1993.0,6.0,356.0,,Active,,,http://www.redfin.com/CA/Discovery-Bay/2242-Newport-Ct-94505/home/1240629,"bridgeMLS, Bay East AOR, or Contra Costa AOR",40972447,N,Y,37.8915169,-121.6172344
249,MLS Listing,,Single Family Residential,54 Saint Stephens Dr,Orinda,CA,94563,1675000.0,4.0,3.0,Charles Hill,2725.0,26136.0,1962.0,6.0,615.0,,Active,,,http://www.redfin.com/CA/Orinda/54-St-Stephens-Dr-94563/home/852803,"bridgeMLS, Bay East AOR, or Contra Costa AOR",40972045,N,Y,37.8970614,-122.1720994
250,MLS Listing,,Single Family Residential,232 Cambridge Ave,Kensington,CA,94708,1495000.0,2.0,2.0,Berkeley Heights,1696.0,4200.0,1940.0,6.0,881.0,,Active,November-7-2021 02:00 PM,November-7-2021 04:00 PM,http://www.redfin.com/CA/Kensington/232-Cambridge-Ave-94708/home/1405405,"bridgeMLS, Bay East AOR, or Contra Costa AOR",40972434,N,Y,37.9073453,-122.2761775
251,MLS Listing,,Mobile/Manufactured Home,825 Dobrich Cir,Bay Point,CA,94565,159500.0,3.0,2.0,Bay Point,1440.0,,,6.0,111.0,,Active,,,http://www.redfin.com/CA/Bay-Point/825-Dobrich-Cir-94565/home/1194002,"bridgeMLS, Bay East AOR, or Contra Costa AOR",40972432,N,Y,38.021108,-121.930775
252,MLS Listing,,Single Family Residential,2627 Leopard Way,Antioch,CA,94531,705000.0,4.0,3.0,Antioch,2400.0,7910.0,2000.0,6.0,294.0,,Active,,,http://www.redfin.com/CA/Antioch/2627-Leopard-Way-94531/home/1162657,"bridgeMLS, Bay East AOR, or Contra Costa AOR",40972431,N,Y,37.975678,-121.7767312
253,MLS Listing,,Single Family Residential,4952 Mesa Ridge Dr,Antioch,CA,94531,634500.0,3.0,2.0,Stoney Creek,1476.0,6268.0,1997.0,6.0,430.0,,Active,,,http://www.redfin.com/CA/Antioch/4952-Mesa-Ridge-Dr-94531/home/1420305,MetroList,221136953,N,Y,37.9637066,-121.8036553
254,MLS Listing,,Single Family Residential,5525 Macdonald Ave,El Cerrito,CA,94530-1639,1100000.0,3.0,2.0,El Cerrito,2161.0,5800.0,1953.0,6.0,509.0,,Active,November-6-2021 02:00 PM,November-6-2021 05:00 PM,http://www.redfin.com/CA/El-Cerrito/5525-Macdonald-Ave-94530/home/1054482,"bridgeMLS, Bay East AOR, or Contra Costa AOR",40972411,N,Y,37.9326184,-122.3188565
255,MLS Listing,,Single Family Residential,3159 Deer Meadow Dr,Danville,CA,94506-2131,1995000.0,3.0,2.5,Blackhawk C. C.,2557.0,9750.0,1984.0,6.0,780.0,189.0,Active,,,http://www.redfin.com/CA/Danville/3159-Deer-Meadow-Dr-94506/home/666245,"bridgeMLS, Bay East AOR, or Contra Costa AOR",40972410,N,Y,37.8193242,-121.9164211
256,MLS Listing,,Single Family Residential,687 Dunhill Dr,Danville,CA,94506,1775000.0,4.0,2.0,Danville,2222.0,7725.0,1994.0,6.0,799.0,85.0,Active,,,http://www.redfin.com/CA/Danville/687-Dunhill-Dr-94506/home/925199,"bridgeMLS, Bay East AOR, or Contra Costa AOR",40972403,N,Y,37.7942248,-121.9156432
257,MLS Listing,,Single Family Residential,763 Sienna Ln,Brentwood,CA,94513,829900.0,4.0,3.0,Harvest,2463.0,5488.0,1993.0,6.0,337.0,,Active,,,http://www.redfin.com/CA/Brentwood/763-Sienna-Ln-94513/home/1465618,"bridgeMLS, Bay East AOR, or Contra Costa AOR",40971608,N,Y,37.9301103,-121.7102608
258,MLS Listing,,Single Family Residential,2650 Mossy Oak Dr,Danville,CA,94506,2198000.0,4.0,2.5,Hidden Oaks,2968.0,21250.0,1978.0,6.0,741.0,282.0,Active,,,http://www.redfin.com/CA/Danville/2650-Mossy-Oak-Dr-94506/home/923176,"bridgeMLS, Bay East AOR, or Contra Costa AOR",40971956,N,Y,37.8283011,-121.9349117
259,MLS Listing,,Single Family Residential,1591 Ramona Way,Alamo,CA,94507,2695000.0,4.0,3.0,Westside,3111.0,19602.0,1938.0,6.0,866.0,,Active,,,http://www.redfin.com/CA/Alamo/1591-W-Ramona-Way-94507/home/1625034,"bridgeMLS, Bay East AOR, or Contra Costa AOR",40972186,N,Y,37.8590919,-122.041971
260,MLS Listing,,Single Family Residential,7 Appian Ct,Danville,CA,94526-3701,1899000.0,4.0,2.5,Westside Danvill,2487.0,13125.0,1972.0,6.0,764.0,,Active,,,http://www.redfin.com/CA/Danville/7-Appian-Ct-94526/home/569556,"bridgeMLS, Bay East AOR, or Contra Costa AOR",40972395,N,Y,37.8138588,-122.0012031
261,MLS Listing,,Single Family Residential,1423 Flintwood Ct,Martinez,CA,94553,749000.0,3.0,2.0,Spring Valley,1268.0,6500.0,1969.0,6.0,591.0,,Active,,,http://www.redfin.com/CA/Martinez/1423-Flintwood-Ct-94553/home/1540912,"bridgeMLS, Bay East AOR, or Contra Costa AOR",40972394,N,Y,37.9887988,-122.0961935
262,MLS Listing,,Condo/Co-op,805 Jetty Dr,Richmond,CA,94804,695000.0,2.0,2.5,Marina Bay,1311.0,,2015.0,6.0,530.0,307.0,Active,November-7-2021 02:00 PM,November-7-2021 04:00 PM,http://www.redfin.com/CA/Richmond/805-Jetty-Dr-94804/home/23129262,"bridgeMLS, Bay East AOR, or Contra Costa AOR",40972393,N,Y,37.9178671,-122.3481708
263,MLS Listing,,Single Family Residential,4175 Canyon Crest Rd W,San Ramon,CA,94582,1698000.0,4.0,2.0,Canyon Crest,2444.0,9360.0,1987.0,6.0,695.0,34.0,Active,,,http://www.redfin.com/CA/San-Ramon/4175-Canyon-Crest-Rd-W-94582/home/1614043,"bridgeMLS, Bay East AOR, or Contra Costa AOR",40972392,N,Y,37.7895554,-121.9494886
264,MLS Listing,,Single Family Residential,1072 Claremont Dr,Brentwood,CA,94513,775000.0,3.0,2.5,Brentwood,1802.0,4160.0,1995.0,6.0,430.0,,Active,,,http://www.redfin.com/CA/Brentwood/1072-Claremont-Dr-94513/home/1793904,"bridgeMLS, Bay East AOR, or Contra Costa AOR",40972390,N,Y,37.9217822,-121.7153822
265,MLS Listing,,Single Family Residential,5326 Poinsett Ave,El Cerrito,CA,94530,949000.0,3.0,2.0,Poinsette Park,1338.0,6250.0,1936.0,6.0,709.0,,Active,,,http://www.redfin.com/CA/El-Cerrito/5326-Poinsett-Ave-94530/home/1518119,"bridgeMLS, Bay East AOR, or Contra Costa AOR",40972388,N,Y,37.933169,-122.3200301
266,MLS Listing,,Multi-Family (2-4 Unit),1085 Orchard Rd,Lafayette,CA,94549,1560000.0,6.0,3.0,Lafayette,3336.0,13504.0,1950.0,6.0,468.0,,Active,,,http://www.redfin.com/CA/Lafayette/1085-Orchard-Rd-94549/home/1556437,"bridgeMLS, Bay East AOR, or Contra Costa AOR",40972387,N,Y,37.8966409,-122.1210429
267,MLS Listing,,Single Family Residential,2635 Yuba Ave,El Cerrito,CA,94530,989000.0,4.0,2.5,El Cerrito,1842.0,3536.0,1952.0,6.0,537.0,,Active,November-7-2021 02:00 PM,November-7-2021 04:00 PM,http://www.redfin.com/CA/El-Cerrito/2635-Yuba-St-94530/home/1964102,"bridgeMLS, Bay East AOR, or Contra Costa AOR",40972385,N,Y,37.9377501,-122.3183029
268,MLS Listing,,Single Family Residential,945 Yuba St,Richmond,CA,94805,749000.0,2.0,1.0,Richmond View,944.0,6000.0,1942.0,6.0,793.0,,Active,November-6-2021 02:00 PM,November-6-2021 04:00 PM,http://www.redfin.com/CA/Richmond/945-Yuba-St-94805/home/1988117,"bridgeMLS, Bay East AOR, or Contra Costa AOR",40972384,N,Y,37.9483363,-122.3235286
269,MLS Listing,,Single Family Residential,4651 Spinnaker Way,Discovery Bay,CA,94505,899000.0,3.0,2.0,Delta Waterfront,1638.0,7200.0,1985.0,6.0,549.0,,Active,,,http://www.redfin.com/CA/Discovery-Bay/4651-Spinnaker-Way-94505/home/1864615,"bridgeMLS, Bay East AOR, or Contra Costa AOR",40972376,N,Y,37.8962056,-121.6064031
270,MLS Listing,,Townhouse,204 Sunspring Ct,Pleasant Hill,CA,94523,585000.0,2.0,2.5,Ellinwood,1162.0,,1985.0,6.0,503.0,490.0,Active,,,http://www.redfin.com/CA/Pleasant-Hill/204-Sunspring-Ct-94523/home/1375389,"bridgeMLS, Bay East AOR, or Contra Costa AOR",40972375,N,Y,37.961149,-122.055149
271,MLS Listing,,Single Family Residential,179 Lois Ave,Pittsburg,CA,94565,519950.0,3.0,1.0,Pittsburg,1026.0,5300.0,1950.0,6.0,507.0,,Active,,,http://www.redfin.com/CA/Pittsburg/179-Lois-Ave-94565/home/1853393,"bridgeMLS, Bay East AOR, or Contra Costa AOR",40972373,N,Y,37.9998296,-121.8996837
272,MLS Listing,,Single Family Residential,1300 Linda Vista Dr,El Cerrito,CA,94530,2688000.0,5.0,4.5,El Cerrito Hills,3861.0,10500.0,1961.0,6.0,696.0,,Active,,,http://www.redfin.com/CA/El-Cerrito/1300-Linda-Vista-Dr-94530/home/706095,"bridgeMLS, Bay East AOR, or Contra Costa AOR",40972363,N,Y,37.9261652,-122.2933441
273,MLS Listing,,Single Family Residential,284 Lexington Rd,Kensington,CA,94707,1495000.0,4.0,2.5,Colusa Circle,3072.0,6525.0,1966.0,6.0,487.0,,Active,November-7-2021 01:00 PM,November-7-2021 04:00 PM,http://www.redfin.com/CA/Kensington/284-Lexington-Rd-94707/home/1496358,"bridgeMLS, Bay East AOR, or Contra Costa AOR",40972360,N,Y,37.9023366,-122.2846393
274,MLS Listing,,Single Family Residential,2195 Olympic Blvd,Walnut Creek,CA,94595,1100000.0,2.0,1.0,Saranap,990.0,6000.0,1949.0,6.0,1111.0,,Active,,,http://www.redfin.com/CA/Walnut-Creek/2195-Olympic-Blvd-94595/home/1903272,"bridgeMLS, Bay East AOR, or Contra Costa AOR",40972354,N,Y,37.8858813,-122.0752668
275,MLS Listing,,Condo/Co-op,415 Pine Ridge Dr,San Ramon,CA,94582,495000.0,1.0,1.0,Copper Ridge,778.0,,1988.0,6.0,636.0,460.0,Active,,,http://www.redfin.com/CA/San-Ramon/415-Pine-Ridge-Dr-94582/home/2109350,"bridgeMLS, Bay East AOR, or Contra Costa AOR",40972352,N,Y,37.76725,-121.9455061
276,MLS Listing,,Single Family Residential,3082 Mills Dr,Brentwood,CA,94513,799800.0,4.0,3.0,Ca Spirit,2533.0,6500.0,2001.0,6.0,316.0,,Active,,,http://www.redfin.com/CA/Brentwood/3082-Mills-Dr-94513/home/1635452,"bridgeMLS, Bay East AOR, or Contra Costa AOR",40972341,N,Y,37.9214765,-121.6902853
277,MLS Listing,,Single Family Residential,15 Canyon Oak Pl,Danville,CA,94506,2398000.0,5.0,3.0,Hidden Oaks,3135.0,21600.0,1982.0,6.0,765.0,282.0,Active,,,http://www.redfin.com/CA/Danville/15-Canyon-Oak-Pl-94506/home/924400,"bridgeMLS, Bay East AOR, or Contra Costa AOR",40972275,N,Y,37.8329053,-121.9404893
278,MLS Listing,,Single Family Residential,4924 Bridle Way,Antioch,CA,94531,575000.0,3.0,2.5,Canada Hills,1579.0,5200.0,1993.0,6.0,364.0,,Active,,,http://www.redfin.com/CA/Antioch/4924-Bridle-Way-94531/home/1449110,"bridgeMLS, Bay East AOR, or Contra Costa AOR",40972339,N,Y,37.9744919,-121.7593271
279,MLS Listing,,Townhouse,1237 Marina Cir,Discovery Bay,CA,94505,550000.0,3.0,2.5,Delta Waterfront,1572.0,2548.0,1978.0,6.0,350.0,465.0,Active,,,http://www.redfin.com/CA/Discovery-Bay/1237-Marina-Cir-94505/home/1243043,"bridgeMLS, Bay East AOR, or Contra Costa AOR",40972335,N,Y,37.907234,-121.6035057
280,MLS Listing,,Single Family Residential,101 Leona Ct,Alamo,CA,94507,2195000.0,4.0,3.0,Westside,2504.0,25700.0,1954.0,6.0,877.0,,Active,,,http://www.redfin.com/CA/Alamo/101-Leona-Ct-94507/home/1234893,"bridgeMLS, Bay East AOR, or Contra Costa AOR",40972334,N,Y,37.8360905,-122.0192574
281,MLS Listing,,Single Family Residential,4101 S Royal Links Cir,Antioch,CA,94509,689000.0,3.0,2.0,Antioch,1075.0,11200.0,1983.0,6.0,641.0,,Active,,,http://www.redfin.com/CA/Antioch/4101-S-Royal-Links-Cir-94509/home/1674149,"bridgeMLS, Bay East AOR, or Contra Costa AOR",40972325,N,Y,37.9775379,-121.8071261
282,MLS Listing,,Single Family Residential,2451 Anita Ct,Antioch,CA,94531,649000.0,3.0,2.5,Antioch,2464.0,7426.0,2000.0,6.0,263.0,,Active,,,http://www.redfin.com/CA/Antioch/2451-Anita-Ct-94531/home/1210404,"bridgeMLS, Bay East AOR, or Contra Costa AOR",40970426,N,Y,37.9612212,-121.7814712
283,MLS Listing,,Condo/Co-op,1426 Rockledge Ln #1,Walnut Creek,CA,94595,529000.0,2.0,2.0,First Walnut Crk,1210.0,,1964.0,6.0,437.0,894.0,Active,,,http://www.redfin.com/CA/Walnut-Creek/1426-Rockledge-Ln-94595/unit-1/home/1738065,"bridgeMLS, Bay East AOR, or Contra Costa AOR",40972323,N,Y,37.869837,-122.0782851
284,MLS Listing,,Single Family Residential,100 Homewood Dr,Concord,CA,94518,899000.0,4.0,2.0,Concord,1933.0,10581.0,1954.0,6.0,,,Active,,,http://www.redfin.com/CA/Concord/100-Homewood-Dr-94518/home/1692541,MetroList,221137298,N,Y,37.9562725,-122.0254525
285,MLS Listing,,Single Family Residential,4500 Perth Ct,Antioch,CA,94531,759000.0,5.0,3.0,Antioch,2764.0,6142.0,2013.0,6.0,275.0,,Active,,,http://www.redfin.com/CA/Antioch/4500-Perth-Ct-94531/home/23101346,BAREIS,321102492,N,Y,37.9782906,-121.7613303
286,MLS Listing,,Multi-Family (2-4 Unit),115 6TH St,Richmond,CA,94801-3577,725000.0,4.0,4.0,Richmond,2236.0,4000.0,1922.0,7.0,324.0,,Active,,,http://www.redfin.com/CA/Richmond/115-6th-St-94801/home/837847,"bridgeMLS, Bay East AOR, or Contra Costa AOR",40972317,N,Y,37.9327521,-122.363918
287,MLS Listing,,Single Family Residential,1312 Mokelumne Dr,Antioch,CA,94531,799999.0,5.0,3.0,Antioch,3322.0,7623.0,1997.0,7.0,241.0,,Active,,,http://www.redfin.com/CA/Antioch/1312-Mokelumne-Dr-94531/home/1342204,"bridgeMLS, Bay East AOR, or Contra Costa AOR",40972315,N,Y,37.9566356,-121.8006962
288,MLS Listing,,Single Family Residential,3812 Alhambra Way,Martinez,CA,94553,939000.0,3.0,2.0,Alhambra  Valley,1722.0,10759.0,1994.0,7.0,545.0,,Active,,,http://www.redfin.com/CA/Martinez/3812-Alhambra-Way-94553/home/629290,"bridgeMLS, Bay East AOR, or Contra Costa AOR",40972314,N,Y,37.9970658,-122.13036
289,MLS Listing,,Single Family Residential,5562 Arcadia Cir,Discovery Bay,CA,94505,879000.0,4.0,2.5,The Lakes,3379.0,6450.0,2004.0,7.0,260.0,175.0,Active,,,http://www.redfin.com/CA/Discovery-Bay/5562-Arcadia-Cir-94505/home/2106241,BAREIS,321102443,N,Y,37.9197068,-121.6195521
290,MLS Listing,,Single Family Residential,108 Prospect Ct,Oakley,CA,94561,1399950.0,4.0,3.0,Silverado Crest,3476.0,22365.0,2003.0,7.0,403.0,,Active,,,http://www.redfin.com/CA/Oakley/108-Prospect-Ct-94561/home/2102116,"bridgeMLS, Bay East AOR, or Contra Costa AOR",40972307,N,Y,37.9902942,-121.7455044
291,MLS Listing,,Single Family Residential,501 Florence Dr,Lafayette,CA,94549,2150000.0,4.0,2.0,La Valley Estate,1819.0,10010.0,1951.0,7.0,1182.0,,Active,November-6-2021 01:00 PM,November-6-2021 04:00 PM,http://www.redfin.com/CA/Lafayette/501-Florence-Dr-94549/home/1107596,"bridgeMLS, Bay East AOR, or Contra Costa AOR",40970745,N,Y,37.8648414,-122.1011639
292,MLS Listing,,Single Family Residential,33 Old Town Ln,Danville,CA,94526,1798888.0,5.0,3.0,Old Town,2515.0,4906.0,2000.0,7.0,715.0,180.0,Active,,,http://www.redfin.com/CA/Danville/33-Old-Town-Ln-94526/home/1953688,"bridgeMLS, Bay East AOR, or Contra Costa AOR",40972298,N,Y,37.8263291,-122.0013585
293,MLS Listing,,Condo/Co-op,1733 Dalessi Dr,Pinole,CA,94564,485000.0,2.0,2.5,Pinole Hills,1254.0,,1980.0,7.0,387.0,425.0,Active,,,http://www.redfin.com/CA/Pinole/1733-Dalessi-Dr-94564/home/1870934,"bridgeMLS, Bay East AOR, or Contra Costa AOR",40972297,N,Y,37.9865038,-122.3003347
294,MLS Listing,,Single Family Residential,4490 Willow Rd,Bethel Island,CA,94511,419000.0,1.0,1.0,Bethel Island,800.0,71003.0,1957.0,7.0,524.0,,Active,,,http://www.redfin.com/CA/Bethel-Island/4490-Willow-Rd-94511/home/549565,"bridgeMLS, Bay East AOR, or Contra Costa AOR",40972293,N,Y,38.0271807,-121.6138725
295,MLS Listing,,Condo/Co-op,2043 Olivera Rd Unit A,Concord,CA,94520,349000.0,2.0,1.0,Terraza Del Sol,884.0,1428.0,1971.0,7.0,395.0,323.0,Active,,,http://www.redfin.com/CA/Concord/2043-Olivera-Rd-94520/unit-A/home/1729997,"bridgeMLS, Bay East AOR, or Contra Costa AOR",40972282,N,Y,37.998819,-122.045971
296,MLS Listing,,Condo/Co-op,2400 Pine Knoll Dr #6,Walnut Creek,CA,94595,297000.0,2.0,1.0,Walnut Creek,1054.0,,1965.0,7.0,282.0,894.0,Active,,,http://www.redfin.com/CA/Walnut-Creek/2400-Pine-Knoll-Dr-94595/unit-6/home/1685594,"bridgeMLS, Bay East AOR, or Contra Costa AOR",40972261,N,Y,37.8739,-122.082246
297,MLS Listing,,Single Family Residential,1965 Lake View Pl,Martinez,CA,94553,798000.0,3.0,2.5,Martinez,1488.0,22400.0,1985.0,7.0,536.0,,Active,,,http://www.redfin.com/CA/Martinez/1965-Lake-View-Pl-94553/home/823930,"bridgeMLS, Bay East AOR, or Contra Costa AOR",40971381,N,Y,37.976421,-122.0847542
298,MLS Listing,,Single Family Residential,830 Kane Cir,Walnut Creek,CA,94598,1288000.0,4.0,2.0,Carriage Square,1959.0,12000.0,1965.0,7.0,657.0,,Active,,,http://www.redfin.com/CA/Walnut-Creek/830-Kane-Cir-94598/home/1693423,"bridgeMLS, Bay East AOR, or Contra Costa AOR",40972264,N,Y,37.9319376,-122.0288275
299,MLS Listing,,Single Family Residential,662 2nd St,Richmond,CA,94801,560000.0,4.0,1.0,Richmond,1357.0,2565.0,1918.0,7.0,413.0,,Active,,,http://www.redfin.com/CA/Richmond/662-2nd-St-94801/home/1816480,CRMLS,IV21235855,N,Y,37.9415401,-122.3673174
300,MLS Listing,,Single Family Residential,4647 Rishell Ct,Concord,CA,94521,875000.0,5.0,3.0,Concord,2225.0,6000.0,1972.0,7.0,393.0,,Active,,,http://www.redfin.com/CA/Concord/4647-W-Rishell-Ct-94521/unit-1/home/710101,"bridgeMLS, Bay East AOR, or Contra Costa AOR",40972262,N,Y,37.9636715,-121.9834123
301,MLS Listing,,Single Family Residential,970 Woodsong Ln,Brentwood,CA,94513,775000.0,4.0,2.5,Brentwood,2305.0,6299.0,1992.0,7.0,336.0,,Active,,,http://www.redfin.com/CA/Brentwood/970-Woodsong-Ln-94513/home/675065,MetroList,221137110,N,Y,37.9236944,-121.7137345
302,MLS Listing,,Single Family Residential,202 Hamlin Loop,Walnut Creek,CA,94598,995000.0,4.0,2.5,Walnut Creek,1604.0,1453.0,2005.0,7.0,620.0,140.0,Active,,,http://www.redfin.com/CA/Walnut-Creek/202-Hamlin-Loop-94598/home/2107518,San Francisco MLS,421607180,N,Y,37.9281999,-122.013776
303,MLS Listing,,Single Family Residential,6461 Hazel Ave,Richmond,CA,94805,968800.0,2.0,2.0,Richmond View,1033.0,3500.0,1951.0,8.0,938.0,,Active,,,http://www.redfin.com/CA/Richmond/6461-Hazel-Ave-94805/home/1547470,"bridgeMLS, Bay East AOR, or Contra Costa AOR",40972249,N,Y,37.939679,-122.3120139
304,MLS Listing,,Single Family Residential,4272 Diehl,Pittsburg,CA,94565-6206,675000.0,4.0,2.5,Pittsburg,2567.0,7560.0,1978.0,8.0,263.0,,Active,,,http://www.redfin.com/CA/Pittsburg/4272-Diehl-Way-94565/home/1179966,"bridgeMLS, Bay East AOR, or Contra Costa AOR",40972247,N,Y,37.9943793,-121.8804758
305,MLS Listing,,Single Family Residential,,Pittsburg,CA,94565-5706,475000.0,4.0,2.0,Pittsburg,1698.0,8835.0,1977.0,8.0,280.0,,Active,,,http://www.redfin.com/CA/Pittsburg/Undisclosed-address-94565/home/649210,"bridgeMLS, Bay East AOR, or Contra Costa AOR",40972245,N,Y,38.0040191,-121.9015954
306,MLS Listing,,Multi-Family (2-4 Unit),5028 Nevin Ave,Richmond,CA,94805,799000.0,8.0,3.0,Richmond,1829.0,5300.0,1941.0,8.0,437.0,,Active,,,http://www.redfin.com/CA/Richmond/5028-Nevin-Ave-94805/home/1163515,"bridgeMLS, Bay East AOR, or Contra Costa AOR",40972242,N,Y,37.9335515,-122.3228422
307,MLS Listing,,Single Family Residential,729 Shullsburg Way,Oakley,CA,94561,888000.0,4.0,3.5,Oakley,2637.0,6262.0,2019.0,8.0,337.0,,Active,,,http://www.redfin.com/CA/OAKLEY/729-SHULLSBURG-WAY-94561/home/168805218,"bridgeMLS, Bay East AOR, or Contra Costa AOR",40972238,N,Y,37.9901,-121.7089
308,MLS Listing,,Single Family Residential,2105 Silverado Dr,Antioch,CA,94509,625000.0,4.0,2.0,Mira Vista Hills,1794.0,9520.0,1977.0,8.0,348.0,,Active,,,http://www.redfin.com/CA/Antioch/2105-Silverado-Dr-94509/home/1061979,"bridgeMLS, Bay East AOR, or Contra Costa AOR",40971044,N,Y,37.9803073,-121.8295053
309,MLS Listing,,Single Family Residential,1641 Sunshine Dr,Concord,CA,94520,449950.0,3.0,2.0,Concord,994.0,6000.0,1955.0,8.0,453.0,,Active,,,http://www.redfin.com/CA/Concord/1641-Sunshine-Dr-94520/home/1335398,"bridgeMLS, Bay East AOR, or Contra Costa AOR",40972230,N,Y,37.9582276,-122.04741
310,MLS Listing,,Single Family Residential,163 Agate Way,Hercules,CA,94547-1748,799000.0,4.0,3.0,Hercules,1922.0,11070.0,1989.0,8.0,416.0,,Active,,,http://www.redfin.com/CA/Hercules/163-Agate-Way-94547/home/1382407,"bridgeMLS, Bay East AOR, or Contra Costa AOR",40972228,N,Y,37.9984798,-122.2749812
311,MLS Listing,,Single Family Residential,3020 Ashburton Dr,Antioch,CA,94509,675000.0,3.0,2.0,Antioch,1921.0,16080.0,1977.0,8.0,351.0,,Active,,,http://www.redfin.com/CA/Antioch/3020-Ashburton-Dr-94509/home/1330109,"bridgeMLS, Bay East AOR, or Contra Costa AOR",40972214,N,Y,37.9926104,-121.793821
312,MLS Listing,,Single Family Residential,236 Cobblestone Dr,Antioch,CA,94509,599000.0,3.0,3.0,Ridge Rock,2162.0,6499.0,1968.0,8.0,277.0,,Active,,,http://www.redfin.com/CA/Antioch/236-Cobblestone-Dr-94509/home/614930,"bridgeMLS, Bay East AOR, or Contra Costa AOR",40972212,N,Y,37.9815567,-121.7982265
313,MLS Listing,,Condo/Co-op,825 Oak Grove Rd #78,Concord,CA,94518,315000.0,1.0,1.0,Concord,696.0,,1970.0,8.0,453.0,375.0,Active,,,http://www.redfin.com/CA/Concord/825-Oak-Grove-Rd-94518/unit-78/home/791953,"bridgeMLS, Bay East AOR, or Contra Costa AOR",40972084,N,Y,37.9401902,-122.0268513
314,MLS Listing,,Single Family Residential,1162 Saint Francis Dr,Concord,CA,94518,1299000.0,4.0,2.0,Concord,1900.0,11000.0,1960.0,8.0,684.0,,Active,,,http://www.redfin.com/CA/Concord/1162-St-Francis-Dr-94518/home/751221,"bridgeMLS, Bay East AOR, or Contra Costa AOR",40972205,N,Y,37.961018,-122.0137948
315,MLS Listing,,Townhouse,1841 Lamplight Ct,Walnut Creek,CA,94597,1149000.0,3.0,3.0,Beacon Ridge,2049.0,2380.0,1981.0,8.0,561.0,710.0,Active,,,http://www.redfin.com/CA/Walnut-Creek/1841-Lamplight-Ct-94597/home/1410092,"bridgeMLS, Bay East AOR, or Contra Costa AOR",40972203,N,Y,37.911712,-122.093995
316,MLS Listing,,Single Family Residential,3032 Greenhall Way,Antioch,CA,94509-4722,675000.0,4.0,3.0,Creekside,2133.0,6868.0,1978.0,8.0,316.0,,Active,November-7-2021 02:00 PM,November-7-2021 04:00 PM,http://www.redfin.com/CA/Antioch/3032-Greenhall-Way-94509/home/1148115,"bridgeMLS, Bay East AOR, or Contra Costa AOR",40972200,N,Y,37.9915829,-121.8200292
317,MLS Listing,,Single Family Residential,2731 Cardiff Ct,Richmond,CA,94806,799000.0,4.0,2.0,Hilltop,2068.0,9920.0,1965.0,8.0,386.0,,Active,,,http://www.redfin.com/CA/Richmond/2731-Cardiff-Ct-94806/home/835695,"bridgeMLS, Bay East AOR, or Contra Costa AOR",40972199,N,Y,37.9741138,-122.3355292
318,MLS Listing,,Single Family Residential,1111 Marionola Way,Pinole,CA,94564,668000.0,3.0,1.5,Pinole,1050.0,6900.0,1959.0,8.0,636.0,,Active,,,http://www.redfin.com/CA/Pinole/1111-Marionola-Way-94564/home/1071808,"bridgeMLS, Bay East AOR, or Contra Costa AOR",40970554,N,Y,38.0015671,-122.2967771
319,MLS Listing,,Single Family Residential,1064 Ashbridge Bay Dr,PITTSBURG,CA,94565,859000.0,4.0,2.5,PITTSBURG,2506.0,4947.0,2010.0,8.0,343.0,,Active,,,http://www.redfin.com/CA/Pittsburg/1064-Ashbridge-Bay-Dr-94565/home/167207434,MLSListings,ML81868006,N,Y,38.0175442,-121.9584426
320,MLS Listing,,Single Family Residential,510 Alhambra Ave,Martinez,CA,94553,719000.0,2.0,1.0,Downtown Martine,820.0,2500.0,1992.0,8.0,877.0,,Active,November-6-2021 02:00 PM,November-6-2021 06:00 PM,http://www.redfin.com/CA/Martinez/510-Alhambra-Ave-94553/home/1059734,"bridgeMLS, Bay East AOR, or Contra Costa AOR",40972136,N,Y,38.0171754,-122.139277
321,MLS Listing,,Vacant Land,2381 Pacheco,Martinez,CA,94553,249000.0,,,Martinez,,7323.0,,8.0,,,Active,,,http://www.redfin.com/CA/Martinez/2381-Pacheco-Blvd-94553/home/176959642,"bridgeMLS, Bay East AOR, or Contra Costa AOR",40972181,N,Y,38.013014,-122.1194189
322,MLS Listing,,Condo/Co-op,1560 Adelaide St #9,Concord,CA,94520,388000.0,2.0,1.5,Concord,1039.0,,1964.0,9.0,373.0,490.0,Active,,,http://www.redfin.com/CA/Concord/1560-Adelaide-St-94520/unit-9/home/1579994,"bridgeMLS, Bay East AOR, or Contra Costa AOR",40972171,N,Y,37.9698361,-122.0393957
323,MLS Listing,,Single Family Residential,2964 ALVES RANCH ROAD Rd,PITTSBURG,CA,94565,988888.0,5.0,3.5,PITTSBURG,3257.0,7579.0,2018.0,9.0,304.0,,Active,,,http://www.redfin.com/CA/Pittsburg/2964-Alves-Ranch-Rd-94565/home/167207849,MLSListings,ML81867972,N,Y,38.0089999,-121.9598645
324,MLS Listing,,Condo/Co-op,2287 Renwick Ln,Antioch,CA,94509-2843,300000.0,2.0,2.0,Hillcrest Meadow,1008.0,,1988.0,9.0,298.0,345.0,Active,,,http://www.redfin.com/CA/Antioch/2287-Renwick-Ln-94509/home/1901261,"bridgeMLS, Bay East AOR, or Contra Costa AOR",40972169,N,Y,37.9990666,-121.7893394
325,MLS Listing,,Single Family Residential,3961 La Colina Rd,El Sobrante,CA,94803,699850.0,2.0,1.0,El Sobrante,913.0,7500.0,1941.0,9.0,767.0,,Active,,,http://www.redfin.com/CA/El-Sobrante/3961-La-Colina-Rd-94803/home/1897608,"bridgeMLS, Bay East AOR, or Contra Costa AOR",40972166,N,Y,37.9639027,-122.3090022
326,MLS Listing,,Single Family Residential,728 Teresa St,Martinez,CA,94553,794688.0,5.0,2.0,Martinez,1738.0,8500.0,1956.0,9.0,457.0,,Active,November-7-2021 02:00 PM,November-7-2021 05:00 PM,http://www.redfin.com/CA/Martinez/728-Teresa-St-94553/home/1789166,"bridgeMLS, Bay East AOR, or Contra Costa AOR",40972160,N,Y,38.0026229,-122.1292065
327,MLS Listing,,Single Family Residential,248 Avant Pl,Walnut Creek,CA,94597,1465000.0,4.0,3.0,Walnut Creek,1956.0,1956.0,2021.0,9.0,749.0,306.0,Active,November-6-2021 10:00 AM,November-6-2021 06:00 PM,http://www.redfin.com/CA/Walnut-Creek/248-Avant-Pl-94597/home/176945708,"bridgeMLS, Bay East AOR, or Contra Costa AOR",40972151,N,Y,37.9257149,-122.0657297
