,SALE TYPE,SOLD DATE,PROPERTY TYPE,ADDRESS,CITY,STATE OR PROVINCE,ZIP OR POSTAL CODE,PRICE,BEDS,BATHS,LOCATION,SQUARE FEET,LOT SIZE,YEAR BUILT,DAYS ON MARKET,$/SQUARE FEET,HOA/MONTH,STATUS,NEXT OPEN HOUSE START TIME,NEXT OPEN HOUSE END TIME,URL (SEE http://www.redfin.com/buy-a-home/comparative-market-analysis FOR INFO ON PRICING),SOURCE,MLS#,FAVORITE,INTERESTED,LATITUDE,LONGITUDE
0,MLS Listing,,Single Family Residential,669 Hillside Dr,Fairfield,CA,94533,725000.0,3.0,3.0,Fairfield,2606.0,10019.0,1989.0,4.0,278.0,,Active,November-6-2021 01:30 PM,November-6-2021 03:30 PM,http://www.redfin.com/CA/Fairfield/669-Hillside-Dr-94533/home/2554859,BAREIS,321101564,N,Y,38.2864155,-122.0266959
1,MLS Listing,,Single Family Residential,1998 Freedom Way,Rio Vista,CA,94571,555000.0,4.0,2.5,Rio Vista,1874.0,9949.0,2019.0,11.0,296.0,,Active,,,http://www.redfin.com/CA/Rio-Vista/1998-Freedom-Way-94571/home/22578223,BAREIS,321097899,N,Y,38.1971483,-121.7144266
2,MLS Listing,,Single Family Residential,503 Bristol Ct,Benicia,CA,94510,929000.0,4.0,3.0,Benicia,2569.0,9148.0,1977.0,18.0,362.0,,Active,,,http://www.redfin.com/CA/Benicia/503-Bristol-Ct-94510/home/2361399,BAREIS,321097726,N,Y,38.0789797,-122.1742059
3,MLS Listing,,Single Family Residential,154 Camino Del Sol,Vallejo,CA,94591,780000.0,3.0,2.5,Vallejo,2074.0,3690.0,1992.0,46.0,376.0,355.0,Active,,,http://www.redfin.com/CA/Vallejo/154-Cam-Del-Sol-94591/home/2328511,BAREIS,321087291,N,Y,38.0684873,-122.210542
4,MLS Listing,,Single Family Residential,522 W J St,Benicia,CA,94510,889000.0,3.0,2.5,Benicia,1664.0,4095.0,2004.0,1.0,534.0,,Active,,,http://www.redfin.com/CA/Benicia/522-W-J-St-94510/home/2626160,BAREIS,321104330,N,Y,38.0558892,-122.1658461
5,MLS Listing,,Single Family Residential,2112 Saint Andrews Dr,Rio Vista,CA,94571,575000.0,3.0,2.5,Rio Vista,2337.0,6225.0,2001.0,1.0,246.0,215.0,Active,,,http://www.redfin.com/CA/Rio-Vista/2112-St-Andrews-Dr-94571/home/2610232,BAREIS,321094947,N,Y,38.1825916,-121.7100604
6,MLS Listing,,Single Family Residential,755 Marvin Way,Dixon,CA,95620,459999.0,3.0,1.0,Dixon,1199.0,6970.0,1952.0,1.0,384.0,,Active,,,http://www.redfin.com/CA/Dixon/755-Marvin-Way-95620/home/2434329,MetroList,321104324,N,Y,38.4446633,-121.8309289
7,MLS Listing,,Single Family Residential,385 Paddlewheel Dr,Vallejo,CA,94591,625000.0,4.0,3.0,Glen Cove,1935.0,5700.0,1988.0,1.0,323.0,,Active,,,http://www.redfin.com/CA/Vallejo/385-Paddlewheel-Ln-94591/home/2324693,"bridgeMLS, Bay East AOR, or Contra Costa AOR",40973034,N,Y,38.0726851,-122.2071949
8,MLS Listing,,Condo/Co-op,2001 Eastwood Dr #14,Vacaville,CA,95687-6175,259000.0,2.0,1.0,Vacaville,890.0,913.0,2001.0,1.0,291.0,338.0,Active,,,http://www.redfin.com/CA/Vacaville/2001-Eastwood-Dr-95687/unit-14/home/17295293,"bridgeMLS, Bay East AOR, or Contra Costa AOR",40973029,N,Y,38.3395616,-121.9708171
9,MLS Listing,,Single Family Residential,1132 Capistrano Ct,Fairfield,CA,94534,625000.0,4.0,3.0,Cordelia Villages,1820.0,5136.0,1989.0,1.0,343.0,,Active,November-6-2021 01:00 PM,November-6-2021 04:00 PM,http://www.redfin.com/CA/Fairfield/1132-Capistrano-Ct-94534/home/2590633,BAREIS,321104073,N,Y,38.181846,-122.1385228
10,MLS Listing,,Single Family Residential,408 Marla Dr,American Canyon,CA,94503,399000.0,3.0,2.0,Napa Square,1134.0,6000.0,1968.0,1.0,352.0,,Active,,,http://www.redfin.com/CA/American-Canyon/408-Marla-Dr-94503/home/12217365,"bridgeMLS, Bay East AOR, or Contra Costa AOR",40973000,N,Y,38.1559238,-122.2596062
11,MLS Listing,,Mobile/Manufactured Home,139 Goldenrod St,Vallejo,CA,94589,149900.0,2.0,2.0,Olympia of Vallejo Mobile Home Park,1248.0,,2001.0,1.0,120.0,,Active,,,http://www.redfin.com/CA/Vallejo/139-Goldenrod-St-94589/home/2612412,BAREIS,321101883,N,Y,38.1313898,-122.2612245
12,MLS Listing,,Single Family Residential,1130 Tyler St,Fairfield,CA,94533,435000.0,3.0,2.0,Fairfield,1230.0,5663.0,1952.0,1.0,354.0,,Active,,,http://www.redfin.com/CA/Fairfield/1130-Tyler-St-94533/home/2160723,BAREIS,321096434,N,Y,38.2554576,-122.0502959
13,MLS Listing,,Single Family Residential,546 Lighthouse Dr,Vallejo,CA,94590,540000.0,3.0,2.5,Bridgeport,1387.0,4827.0,1986.0,1.0,389.0,43.0,Active,November-6-2021 12:00 PM,November-6-2021 03:00 PM,http://www.redfin.com/CA/Vallejo/546-Lighthouse-Dr-94590/home/2205161,"bridgeMLS, Bay East AOR, or Contra Costa AOR",40972958,N,Y,38.1225051,-122.2712595
14,MLS Listing,,Single Family Residential,1419 Rockville Rd,Fairfield,CA,94534,1395000.0,6.0,3.5,Green Valley Highlands 1,3500.0,64904.0,1986.0,1.0,399.0,,Active,,,http://www.redfin.com/CA/Fairfield/1419-Rockville-Rd-94534/home/2139518,BAREIS,321104111,N,Y,38.265105,-122.172629
15,MLS Listing,,Single Family Residential,307 Mini St,Vallejo,CA,94589,512000.0,4.0,2.0,Vallejo,1442.0,5662.0,1963.0,1.0,355.0,,Active,November-6-2021 01:00 PM,November-6-2021 04:00 PM,http://www.redfin.com/CA/Vallejo/307-Mini-Dr-94589/home/2269550,"bridgeMLS, Bay East AOR, or Contra Costa AOR",40972943,N,Y,38.144359,-122.248838
16,MLS Listing,,Single Family Residential,1601 Santa Clara St,Vallejo,CA,94590,375000.0,2.0,1.0,Vallejo Heights,942.0,5501.0,1917.0,1.0,398.0,,Active,,,http://www.redfin.com/CA/Vallejo/1601-Santa-Clara-St-94590/home/2204481,BAREIS,321103686,N,Y,38.1133873,-122.2598721
17,MLS Listing,,Condo/Co-op,89 Villa Cir,Fairfield,CA,94533,189000.0,2.0,1.5,Dover Villa,968.0,,1971.0,1.0,195.0,375.0,Active,,,http://www.redfin.com/CA/Fairfield/89-Villa-Cir-94533/home/2380857,BAREIS,321102263,N,Y,38.265437,-122.010154
18,MLS Listing,,Single Family Residential,1107 Hayes St,Fairfield,CA,94533,420000.0,3.0,2.0,Fairfield,1000.0,5227.0,1954.0,1.0,420.0,,Active,,,http://www.redfin.com/CA/Fairfield/1107-Hayes-St-94533/home/2159884,MetroList,321103387,N,Y,38.2548643,-122.054558
19,MLS Listing,,Vacant Land,1346 Misawa Ct,Vallejo,CA,94591-3842,398000.0,,,Vallejo,,19244.0,,1.0,,7.0,Active,,,http://www.redfin.com/CA/Vallejo/1346-Misawa-Ct-94591/home/17546582,"bridgeMLS, Bay East AOR, or Contra Costa AOR",40972904,N,Y,38.148653,-122.181005
20,MLS Listing,,Single Family Residential,30 Cliff Walk Dr,Vallejo,CA,94591,610000.0,3.0,2.5,Harbour Towne,1556.0,3121.0,1990.0,1.0,392.0,192.0,Active,,,http://www.redfin.com/CA/Vallejo/30-Cliff-Walk-Dr-94591/home/2328148,"bridgeMLS, Bay East AOR, or Contra Costa AOR",40972899,N,Y,38.0693567,-122.2141329
21,MLS Listing,,Single Family Residential,264 Ironwood St,Vacaville,CA,95688,500000.0,3.0,2.0,Vacaville,1654.0,5227.0,1958.0,1.0,302.0,,Active,November-4-2021 03:00 PM,November-4-2021 05:00 PM,http://www.redfin.com/CA/Vacaville/264-Ironwood-St-95688/home/2448013,BAREIS,321102897,N,Y,38.3653489,-121.9978357
22,MLS Listing,,Single Family Residential,1174 Notre Dame Cir,Vacaville,CA,95687,640000.0,4.0,3.0,Vacaville,2137.0,6216.0,1991.0,1.0,299.0,,Active,,,http://www.redfin.com/CA/Vacaville/1174-Notre-Dame-Cir-95687/home/2508462,MetroList,321101881,N,Y,38.352936,-121.9462223
23,MLS Listing,,Single Family Residential,2745 Kaanapali Dr,Fairfield,CA,94534,759000.0,3.0,2.0,Fairfield,2062.0,8054.0,1989.0,1.0,368.0,,Active,,,http://www.redfin.com/CA/Fairfield/2745-Kaanapali-Dr-94534/home/2535821,BAREIS,321103929,N,Y,38.2854905,-122.0750005
24,MLS Listing,,Condo/Co-op,2915 N Texas St #119,Fairfield,CA,94533,245000.0,1.0,1.0,Fairfield,662.0,,1986.0,1.0,370.0,445.0,Active,November-3-2021 05:00 AM,November-3-2021 07:00 PM,http://www.redfin.com/CA/Fairfield/2915-N-Texas-St-94533/unit-119/home/17294876,BAREIS,321103906,N,Y,38.281883,-122.0347112
25,MLS Listing,,Condo/Co-op,202 Sunnyside Ct,Fairfield,CA,94533,430000.0,2.0,2.0,Sunrise Commons,1196.0,,1978.0,1.0,360.0,445.0,Active,,,http://www.redfin.com/CA/Fairfield/202-Sunnyside-Ct-94533/home/2386348,BAREIS,321103895,N,Y,38.2827544,-122.0333325
26,MLS Listing,,Single Family Residential,4278 Ruby Ln,Vacaville,CA,95688,850000.0,3.0,1.0,Vacaville,1228.0,108900.0,1974.0,1.0,692.0,,Active,,,http://www.redfin.com/CA/Vacaville/4278-Ruby-Ln-95688/home/2414702,BAREIS,321100179,N,Y,38.437107,-121.987326
27,MLS Listing,,Condo/Co-op,100 Manchester Dr,Fairfield,CA,94533,375000.0,2.0,1.5,Fairfield,1029.0,,1995.0,1.0,364.0,416.0,Active,,,http://www.redfin.com/CA/Fairfield/100-Manchester-Dr-94533/home/2587109,BAREIS,321103830,N,Y,38.277091,-121.968406
28,MLS Listing,,Mobile/Manufactured Home,248 Rock River Dr,Vallejo,CA,94589,350000.0,2.0,2.0,Vallejo,1056.0,3537.0,1985.0,1.0,331.0,130.0,Active,,,http://www.redfin.com/CA/Vallejo/248-Rock-River-Dr-94589/home/2402837,BAREIS,321103751,N,Y,38.154681,-122.2420131
29,MLS Listing,,Single Family Residential,330 Rancho Murieta Dr,Vacaville,CA,95687,545000.0,3.0,2.5,Vacaville,1607.0,3254.0,2001.0,1.0,339.0,105.0,Active,,,http://www.redfin.com/CA/Vacaville/330-Rancho-Murieta-Dr-95687/home/2599243,BAREIS,321100569,N,Y,38.3222045,-121.970084
30,MLS Listing,,Single Family Residential,901 Tobin Dr,Vallejo,CA,94589,440000.0,4.0,2.0,Vallejo,1391.0,6970.0,1977.0,1.0,316.0,,Active,,,http://www.redfin.com/CA/Vallejo/901-Tobin-Dr-94589/home/2260806,BAREIS,321100068,N,Y,38.1468898,-122.2592074
31,MLS Listing,,Single Family Residential,268 Viewmont Ave,Vallejo,CA,94590,599000.0,2.0,2.5,Vallejo,1552.0,6970.0,1940.0,1.0,386.0,,Active,,,http://www.redfin.com/CA/Vallejo/268-Viewmont-Ave-94590/home/2219851,BAREIS,321099951,N,Y,38.1202066,-122.2343456
32,MLS Listing,,Condo/Co-op,565 Lori Dr #31,Benicia,CA,94510,424800.0,2.0,2.0,Bridgeview Heights II,873.0,,1983.0,2.0,487.0,375.0,Active,,,http://www.redfin.com/CA/Benicia/565-Lori-Dr-94510/unit-31/home/17296174,BAREIS,321103795,N,Y,38.0639198,-122.1637563
33,MLS Listing,,Single Family Residential,551 Yarrow Ct,Fairfield,CA,94534,988350.0,5.0,3.0,Fairfield,3079.0,4500.0,2021.0,2.0,321.0,,Active,,,http://www.redfin.com/CA/FAIRFIELD/551-YARROW-CT-94534/home/176116367,BAREIS,321103787,N,Y,38.22,-122.1274
34,MLS Listing,,Single Family Residential,2032 Parsons Dr,Fairfield,CA,94533,655500.0,3.0,2.5,Fairfield,2152.0,3267.0,2021.0,2.0,305.0,121.0,Active,,,http://www.redfin.com/CA/Fairfield/2032-Parsons-Dr-94533/home/168984288,BAREIS,321103772,N,Y,38.2645423,-121.9899924
35,MLS Listing,,Single Family Residential,2068 Parsons Dr,Fairfield,CA,94533,699000.0,4.0,3.5,Fairfield,2528.0,2791.0,2021.0,2.0,277.0,121.0,Active,,,http://www.redfin.com/CA/Fairfield/2068-Parsons-Dr-94533/home/168984303,BAREIS,321103762,N,Y,38.264542,-121.989992
36,MLS Listing,,Single Family Residential,380 Winchester St,Vallejo,CA,94590,479000.0,4.0,2.5,699 - Not Defined,1747.0,7840.0,1967.0,2.0,274.0,,Active,,,http://www.redfin.com/CA/Vallejo/380-Winchester-St-94590/home/2251939,CRMLS,IV21204697,N,Y,38.0846398,-122.244783
37,MLS Listing,,Single Family Residential,615 N Washington St,Dixon,CA,95620,449000.0,3.0,1.5,Dixon,1484.0,6098.0,1955.0,2.0,303.0,,Active,,,http://www.redfin.com/CA/Dixon/615-N-Washington-St-95620/home/2135911,MetroList,321102376,N,Y,38.4511966,-121.8277481
38,MLS Listing,,Multi-Family (2-4 Unit),1406 - 1410 Napa St,Vallejo,CA,94590,620000.0,3.0,3.0,Vallejo,1842.0,4051.0,1910.0,2.0,337.0,,Active,,,http://www.redfin.com/CA/Vallejo/1406-Napa-St-94590/home/2229764,BAREIS,321102906,N,Y,38.1083339,-122.2511867
39,MLS Listing,,Single Family Residential,184 Glacier Cir,Vacaville,CA,95687-3414,438000.0,2.0,2.0,Leisure Town,1043.0,5662.0,1965.0,3.0,420.0,75.0,Active,November-7-2021 10:00 AM,November-7-2021 01:00 PM,http://www.redfin.com/CA/Vacaville/184-Glacier-Cir-95687/home/2487198,"bridgeMLS, Bay East AOR, or Contra Costa AOR",40971692,N,Y,38.3706827,-121.9416893
40,MLS Listing,,Single Family Residential,4750 Rosewood Ct,Fairfield,CA,94534,624900.0,3.0,2.0,Southbrook # 2,1485.0,7749.0,1992.0,3.0,421.0,,Active,,,http://www.redfin.com/CA/Fairfield/4750-Rosewood-Ct-94534/home/2591311,BAREIS,321103693,N,Y,38.1791971,-122.1349295
41,MLS Listing,,Single Family Residential,112 Maywood Dr,Vallejo,CA,94591,465000.0,3.0,2.0,Vallejo,1150.0,5227.0,1955.0,3.0,404.0,,Active,,,http://www.redfin.com/CA/Vallejo/112-Maywood-Dr-94591/home/2300964,BAREIS,321103679,N,Y,38.1035323,-122.2038477
42,MLS Listing,,Multi-Family (2-4 Unit),714 - 716 Alabama St,Vallejo,CA,94590,435000.0,3.0,2.0,Vallejo,1308.0,6251.0,1920.0,3.0,333.0,,Active,,,http://www.redfin.com/CA/Vallejo/714-Alabama-St-94590/home/2229530,BAREIS,321100014,N,Y,38.1091231,-122.252575
43,MLS Listing,,Townhouse,1133 Grove Cir,Benicia,CA,94510,540000.0,3.0,2.5,Benicia,1442.0,,1979.0,3.0,374.0,320.0,Active,,,http://www.redfin.com/CA/Benicia/1133-Grove-Cir-94510/home/2387074,BAREIS,321103673,N,Y,38.068402,-122.173796
44,MLS Listing,,Single Family Residential,766 Oak Hollow Ave,Vacaville,CA,95687,719500.0,4.0,3.0,Ulatis Creek Estates,2366.0,8701.0,1989.0,3.0,304.0,,Active,,,http://www.redfin.com/CA/Vacaville/766-Oak-Hollow-Ave-95687/home/2505012,BAREIS,321103620,N,Y,38.3557377,-121.940956
45,MLS Listing,,Single Family Residential,640 Kirkland Ave,Vallejo,CA,94592,750000.0,4.0,2.5,Vallejo,2803.0,5045.0,2005.0,3.0,268.0,,Active,,,http://www.redfin.com/CA/Vallejo/640-Kirkland-Ave-94592/home/2627181,BAREIS,321098146,N,Y,38.0930522,-122.2745382
46,MLS Listing,,Single Family Residential,124 Clematis St,Vacaville,CA,95687,708000.0,4.0,3.0,Brighton Landing,2418.0,4744.0,2017.0,3.0,293.0,,Active,,,http://www.redfin.com/CA/Vacaville/124-Clematis-St-95687/home/144060113,BAREIS,321099723,N,Y,38.3501246,-121.9260157
47,MLS Listing,,Single Family Residential,1457 Stonewood Ct,Fairfield,CA,94534,625000.0,3.0,2.0,Fairfield,1485.0,5929.0,1992.0,4.0,421.0,,Active,November-6-2021 10:00 AM,November-6-2021 12:00 PM,http://www.redfin.com/CA/Fairfield/1457-Stonewood-Ct-94534/home/2592010,BAREIS,321102212,N,Y,38.17608,-122.1363935
48,MLS Listing,,Single Family Residential,2031 Falcon Dr,Fairfield,CA,94533,569999.0,5.0,3.0,Fairfield,1584.0,5663.0,1966.0,4.0,360.0,,Active,,,http://www.redfin.com/CA/Fairfield/2031-Falcon-Dr-94533/home/2565934,"bridgeMLS, Bay East AOR, or Contra Costa AOR",40972751,N,Y,38.266317,-122.0175254
49,MLS Listing,,Single Family Residential,190 Tahoe Dr,Rio Vista,CA,94571,350000.0,3.0,2.0,Drouin Park,1328.0,5662.0,1966.0,4.0,264.0,,Active,,,http://www.redfin.com/CA/Rio-Vista/190-Tahoe-Dr-94571/home/2200367,"bridgeMLS, Bay East AOR, or Contra Costa AOR",40972747,N,Y,38.1588467,-121.7019771
50,MLS Listing,,Single Family Residential,1705 Keesler Cir,Suisun City,CA,94585,692750.0,4.0,3.5,Suisun City,2376.0,6534.0,2004.0,4.0,292.0,,Active,,,http://www.redfin.com/CA/Suisun-City/1705-Keesler-Cir-94585/home/2617482,BAREIS,321103528,N,Y,38.2582945,-121.986211
51,MLS Listing,,Single Family Residential,1392 Turner Ln,Vallejo,CA,94591,399900.0,2.0,2.0,Vallejo,1026.0,6534.0,1930.0,4.0,390.0,,Active,,,http://www.redfin.com/CA/Vallejo/1392-Turner-Ln-94591/home/2298922,MetroList,321103504,N,Y,38.0917222,-122.2143102
52,MLS Listing,,Single Family Residential,844 Antiquity Dr,Fairfield,CA,94534,964900.0,4.0,3.5,Fairfield,3275.0,8518.0,2005.0,4.0,295.0,,Active,,,http://www.redfin.com/CA/Fairfield/844-Antiquity-Dr-94534/home/2627610,BAREIS,321102254,N,Y,38.2211904,-122.1569979
53,MLS Listing,,Single Family Residential,924 Alameda St,Vallejo,CA,94590,425000.0,2.0,1.0,Vallejo,768.0,1790.0,1915.0,4.0,553.0,,Active,,,http://www.redfin.com/CA/Vallejo/924-Alameda-St-94590/home/2232628,BAREIS,321103381,N,Y,38.105639,-122.247996
54,MLS Listing,,Single Family Residential,116 Jordan St,Vallejo,CA,94591,499000.0,3.0,2.0,Vallejo,1092.0,6970.0,1942.0,4.0,457.0,,Active,,,http://www.redfin.com/CA/Vallejo/116-Jordan-St-94591/home/2317190,San Francisco MLS,321103431,N,Y,38.0762015,-122.229736
55,MLS Listing,,Multi-Family (2-4 Unit),15 Alameda St,Vallejo,CA,94590,550000.0,7.0,2.5,Vallejo,2136.0,7501.0,1900.0,4.0,257.0,,Active,,,http://www.redfin.com/CA/Vallejo/15-Alameda-St-94590/home/2243621,BAREIS,321103054,N,Y,38.0964529,-122.2485322
56,MLS Listing,,Single Family Residential,230 Gavi Ct,Vacaville,CA,95687,520000.0,3.0,2.5,Portofino,1497.0,3480.0,2009.0,4.0,347.0,117.0,Active,,,http://www.redfin.com/CA/Vacaville/230-Gavi-Ct-95687/home/21766453,BAREIS,321102744,N,Y,38.3412169,-121.9965169
57,MLS Listing,,Single Family Residential,185 Dover Way,Vacaville,CA,95687,545000.0,4.0,2.0,Vacaville,1544.0,7405.0,1973.0,4.0,353.0,,Active,November-6-2021 01:00 PM,November-6-2021 04:00 PM,http://www.redfin.com/CA/Vacaville/185-Dover-Way-95687/home/2471727,BAREIS,321098400,N,Y,38.3494043,-121.9540285
58,MLS Listing,,Single Family Residential,435 Rickover St,Vallejo,CA,94592,650000.0,3.0,2.5,Vallejo,2645.0,4008.0,2005.0,4.0,246.0,,Active,,,http://www.redfin.com/CA/Vallejo/435-Rickover-St-94592/home/22591566,BAREIS,321103059,N,Y,38.0948188,-122.2735642
59,MLS Listing,,Single Family Residential,560 Granite Way,Vacaville,CA,95688,679000.0,4.0,2.0,Vacaville,1882.0,9130.0,1998.0,4.0,361.0,,Active,,,http://www.redfin.com/CA/Vacaville/560-Granite-Way-95688/home/2464217,BAREIS,321103209,N,Y,38.3737134,-121.9810355
60,MLS Listing,,Single Family Residential,101 Toni Ct,Vallejo,CA,94591,725000.0,4.0,2.0,Vallejo,2159.0,21344.0,1980.0,4.0,336.0,,Active,,,http://www.redfin.com/CA/Vallejo/101-Toni-Ct-94591/home/2334759,MetroList,321103260,N,Y,38.1153676,-122.2048231
61,MLS Listing,,Single Family Residential,101 Heritage Ln,Vacaville,CA,95687,559000.0,3.0,2.5,Vacaville,1734.0,3040.0,1990.0,4.0,322.0,115.0,Active,,,http://www.redfin.com/CA/Vacaville/101-Heritage-Ln-95687/home/2406569,BAREIS,321102901,N,Y,38.33221,-121.9560431
62,MLS Listing,,Single Family Residential,5070 Rasmussen Way,Fairfield,CA,94533,810000.0,4.0,3.0,Gold Ridge,3364.0,6499.0,2004.0,4.0,241.0,,Active,,,http://www.redfin.com/CA/Fairfield/5070-Rasmussen-Way-94533/home/2623634,MetroList,321101942,N,Y,38.2937426,-121.9802137
63,MLS Listing,,Single Family Residential,1996 Amelia Ln,Fairfield,CA,94533,650000.0,5.0,3.0,Fairfield,2387.0,2838.0,2021.0,4.0,272.0,121.0,Active,,,http://www.redfin.com/CA/FAIRFIELD/1996-AMELIA-LN-94533/home/168984330,BAREIS,321103259,N,Y,38.2882,-122.027
64,MLS Listing,,Single Family Residential,136 Weymouth Ct,Vacaville,CA,95687,595000.0,4.0,2.0,Vacaville,1534.0,7405.0,1976.0,4.0,388.0,,Active,,,http://www.redfin.com/CA/Vacaville/136-Weymouth-Ct-95687/home/2510264,BAREIS,321097303,N,Y,38.3295292,-121.9541323
65,MLS Listing,,Single Family Residential,536 Buckeye St,Vacaville,CA,95688,548888.0,3.0,2.0,Vacaville,1168.0,5227.0,1956.0,4.0,470.0,,Active,,,http://www.redfin.com/CA/Vacaville/536-Buckeye-St-95688/home/2451396,MetroList,321102226,N,Y,38.3608105,-122.0062444
66,MLS Listing,,Single Family Residential,1226 Rebecca Dr,Suisun City,CA,94585,545000.0,4.0,2.5,Suisun City,1934.0,7200.0,1988.0,4.0,282.0,,Active,,,http://www.redfin.com/CA/Suisun-City/1226-Rebecca-Dr-94585/home/2577690,BAREIS,321100077,N,Y,38.2528586,-121.9958062
67,MLS Listing,,Single Family Residential,2340 Mariposa,Dixon,CA,95620,645000.0,5.0,3.0,Dixon,2483.0,7910.0,2004.0,4.0,260.0,,Active,,,http://www.redfin.com/CA/Dixon/2340-Mariposa-Dr-95620/home/2144159,BAREIS,321102508,N,Y,38.4467949,-121.8537481
68,MLS Listing,,Single Family Residential,180 Camden Ct,Vallejo,CA,94591,699000.0,4.0,2.5,Sharian Heights,2174.0,7405.0,1979.0,4.0,322.0,,Active,,,http://www.redfin.com/CA/Vallejo/180-Camden-Ct-94591/home/2303410,BAREIS,321101905,N,Y,38.0979392,-122.2126699
69,MLS Listing,,Single Family Residential,4669 Lonestar Dr,Fairfield,CA,94534,775000.0,5.0,3.5,Cordelia,3257.0,4050.0,2014.0,5.0,238.0,,Active,,,http://www.redfin.com/CA/Fairfield/4669-Lonestar-Dr-94534/home/50278944,"bridgeMLS, Bay East AOR, or Contra Costa AOR",40972597,N,Y,38.1634009,-122.1315034
70,MLS Listing,,Single Family Residential,605 Central Ave,Vallejo,CA,94590,550000.0,4.0,2.0,Vallejo,1928.0,3999.0,1935.0,5.0,285.0,,Active,November-6-2021 12:00 PM,November-6-2021 03:00 PM,http://www.redfin.com/CA/Vallejo/605-Central-Ave-94590/home/2246774,BAREIS,321103164,N,Y,38.0970403,-122.2373052
71,MLS Listing,,Single Family Residential,264 Bermuda Ln,Vallejo,CA,94591,919000.0,5.0,3.0,Glen Cove,2846.0,10221.0,1989.0,5.0,323.0,,Active,,,http://www.redfin.com/CA/Vallejo/264-Bermuda-Ln-94591/home/2327013,"bridgeMLS, Bay East AOR, or Contra Costa AOR",40971942,N,Y,38.0777302,-122.2087244
72,MLS Listing,,Single Family Residential,4704 Aster Ct,Fairfield,CA,94534,785000.0,4.0,3.0,Cordelia,2342.0,5611.0,2016.0,5.0,335.0,,Active,,,http://www.redfin.com/CA/Fairfield/4704-Aster-Ct-94534/home/103686818,"bridgeMLS, Bay East AOR, or Contra Costa AOR",40971215,N,Y,38.1650289,-122.1344415
73,MLS Listing,,Single Family Residential,214 Clearbrook Ct,Suisun City,CA,94585,480000.0,3.0,2.0,Suisun City,1427.0,3276.0,1989.0,5.0,336.0,,Active,,,http://www.redfin.com/CA/Suisun-City/214-Clearbrook-Ct-94585/home/2580182,BAREIS,321102589,N,Y,38.2508776,-122.0234319
74,MLS Listing,,Single Family Residential,1925 Rustic Oak Ln,Rio Vista,CA,94571,550000.0,4.0,2.5,Liberty,1874.0,8982.0,2018.0,5.0,293.0,,Active,,,http://www.redfin.com/CA/Rio-Vista/1925-Rustic-Oak-Ln-94571/home/22568707,MetroList,321102694,N,Y,38.195507,-121.72197
75,MLS Listing,,Single Family Residential,903 Edgewood Cir,Suisun City,CA,94585,575000.0,3.0,2.5,Suisun City,1618.0,3001.0,1988.0,5.0,355.0,,Active,,,http://www.redfin.com/CA/Suisun-City/903-Edgewood-Cir-94585/home/2579128,BAREIS,321102891,N,Y,38.2521517,-122.0233875
76,MLS Listing,,Single Family Residential,1899 Blossom Ct,Fairfield,CA,94533,510000.0,3.0,2.0,Fairfield,1352.0,5092.0,1992.0,5.0,377.0,,Active,,,http://www.redfin.com/CA/Fairfield/1899-Blossom-Ct-94533/home/2186073,BAREIS,321102227,N,Y,38.2638717,-122.0145942
77,MLS Listing,,Single Family Residential,107 Carlsbad,Vacaville,CA,95687,498500.0,2.0,2.0,Vacaville,1880.0,5663.0,1967.0,5.0,265.0,75.0,Active,,,http://www.redfin.com/CA/Vacaville/107-Carlsbad-Cir-95687/home/2486988,BAREIS,321102163,N,Y,38.3710434,-121.9406227
78,MLS Listing,,Single Family Residential,1460 Louisiana St,Vallejo,CA,94590,388000.0,3.0,1.0,Vallejo,1186.0,4792.0,1934.0,5.0,327.0,,Active,,,http://www.redfin.com/CA/Vallejo/1460-Louisiana-St-94590/home/2238821,BAREIS,321102884,N,Y,38.1082699,-122.2390437
79,MLS Listing,,Single Family Residential,123 W Tennys Dr,Benicia,CA,94510,665000.0,3.0,2.0,Benicia,1312.0,5663.0,1975.0,5.0,507.0,,Active,,,http://www.redfin.com/CA/Benicia/123-W-Tennys-Dr-94510/home/2369476,BAREIS,321102829,N,Y,38.0634839,-122.1494796
80,MLS Listing,,Single Family Residential,2186 Garnet Cir,Vallejo,CA,94591,724999.0,5.0,3.0,Vallejo,2412.0,11191.0,1997.0,5.0,301.0,,Active,November-6-2021 02:00 PM,November-6-2021 04:00 PM,http://www.redfin.com/CA/Vallejo/2186-Garnet-Cir-94591/home/2340053,BAREIS,321092817,N,Y,38.129582,-122.2096554
81,MLS Listing,,Single Family Residential,2760 Geranium Ct,Fairfield,CA,94533,550000.0,3.0,2.0,Fairfield,1352.0,10019.0,1969.0,5.0,407.0,,Active,,,http://www.redfin.com/CA/Fairfield/2760-Geranium-Ct-94533/home/2549492,BAREIS,321100620,N,Y,38.2798624,-122.0378194
82,MLS Listing,,Single Family Residential,208 La Canyada Dr,VALLEJO,CA,94591,388000.0,3.0,2.0,VALLEJO,1000.0,3920.0,1941.0,5.0,388.0,,Active,,,http://www.redfin.com/CA/Vallejo/208-La-Canyada-Dr-94591/home/2315089,MLSListings,ML81868336,N,Y,38.0846716,-122.2308222
83,MLS Listing,,Single Family Residential,141 Lassen Cir,Vacaville,CA,95687,429997.0,2.0,2.0,Leisure Town,1152.0,5663.0,1964.0,6.0,373.0,75.0,Active,November-6-2021 12:00 AM,November-6-2021 02:00 PM,http://www.redfin.com/CA/Vacaville/141-Lassen-Cir-95687/home/2487646,BAREIS,321102822,N,Y,38.3690912,-121.9474221
84,MLS Listing,,Mobile/Manufactured Home,419 Shasta St,Vallejo,CA,94590,555000.0,3.0,2.0,Vallejo,1560.0,6098.0,2005.0,6.0,356.0,,Active,,,http://www.redfin.com/CA/Vallejo/419-Shasta-St-94590/home/2239099,BAREIS,321102566,N,Y,38.1085034,-122.2350105
85,MLS Listing,,Single Family Residential,375 W I St,Benicia,CA,94510,1959000.0,4.0,3.5,Benicia,3524.0,7405.0,1978.0,6.0,556.0,,Active,November-7-2021 09:00 AM,November-7-2021 12:00 PM,http://www.redfin.com/CA/Benicia/375-W-I-St-94510/home/2377679,BAREIS,321099812,N,Y,38.0541488,-122.1627859
86,MLS Listing,,Mobile/Manufactured Home,2525 Flosden Rd #31,American Canyon,CA,94503,205000.0,3.0,2.0,Fairgrounds Mobile Home Estates,1560.0,,2004.0,6.0,131.0,,Active,,,http://www.redfin.com/CA/American-Canyon/2525-Flosden-Rd-94503/unit-31/home/12224621,BAREIS,321102528,N,Y,38.1559715,-122.2391323
87,MLS Listing,,Single Family Residential,369 Barcelona St,Vallejo,CA,94591,749000.0,4.0,2.5,Vallejo,1989.0,7405.0,1979.0,6.0,377.0,,Active,,,http://www.redfin.com/CA/Vallejo/369-Barcelona-St-94591/home/2308363,BAREIS,321102756,N,Y,38.0937303,-122.202163
88,MLS Listing,,Condo/Co-op,2942 Sunbird Dr,Fairfield,CA,94533,389888.0,2.0,2.0,Sunrise Commons,1196.0,,1978.0,6.0,326.0,445.0,Active,,,http://www.redfin.com/CA/Fairfield/2942-Sunbird-Dr-94533/home/2386256,BAREIS,321083211,N,Y,38.2832781,-122.033184
89,MLS Listing,,Single Family Residential,700 Hydrangea Dr,Vacaville,CA,95687,899990.0,3.0,2.5,Vacaville,2429.0,7583.0,2018.0,6.0,371.0,,Active,,,http://www.redfin.com/CA/Vacaville/700-Hydrangea-Dr-95687/home/168993802,MetroList,321102655,N,Y,38.346122,-121.924108
90,MLS Listing,,Single Family Residential,613 Gallery Ct,Fairfield,CA,94534,775000.0,5.0,3.0,Fairfield,2070.0,6578.0,1997.0,6.0,374.0,,Active,,,http://www.redfin.com/CA/Fairfield/613-Gallery-Ct-94534/home/2528704,BAREIS,321102714,N,Y,38.2200058,-122.1532942
91,MLS Listing,,Single Family Residential,100 Cordova St,Vallejo,CA,94591,649000.0,3.0,2.0,Vallejo,1830.0,7405.0,1967.0,6.0,355.0,,Active,,,http://www.redfin.com/CA/Vallejo/100-Cordova-St-94591/home/2305985,MetroList,321102668,N,Y,38.0950659,-122.2049561
92,MLS Listing,,Single Family Residential,613 Periwinkle Dr,Vacaville,CA,95687,835990.0,4.0,3.0,Vacaville,2453.0,4800.0,2018.0,6.0,,,Active,,,http://www.redfin.com/CA/Vacaville/613-Periwinkle-Dr-95687/home/168993773,MetroList,321102634,N,Y,38.3463958,-121.9236888
93,MLS Listing,,Vacant Land,179 Wykoff Dr,Vacaville,CA,95688,169000.0,0.0,,Vacaville,,25265.0,,6.0,,,Active,,,http://www.redfin.com/CA/Vacaville/179-Wykoff-Dr-95688/home/22588468,BAREIS,321102602,N,Y,38.357314,-122.017447
94,MLS Listing,,Single Family Residential,806 Whitney Ave,Suisun City,CA,94585,550000.0,4.0,2.0,Suisun City,1766.0,6922.0,1985.0,6.0,311.0,,Active,,,http://www.redfin.com/CA/Suisun-City/806-Whitney-Ave-94585/home/2576813,BAREIS,321102272,N,Y,38.2498791,-121.989987
95,MLS Listing,,Single Family Residential,215 Greenwich Cir,Vacaville,CA,95687,565000.0,4.0,2.0,Vacaville,1546.0,8276.0,1977.0,6.0,365.0,,Active,,,http://www.redfin.com/CA/Vacaville/215-Greenwich-Cir-95687/home/2494439,BAREIS,321101925,N,Y,38.3392857,-121.958487
96,MLS Listing,,Single Family Residential,33 Capilano Dr,Vallejo,CA,94590,695000.0,4.0,2.0,Vallejo,2057.0,4792.0,1930.0,6.0,338.0,,Active,,,http://www.redfin.com/CA/Vallejo/33-Capilano-Dr-94590/home/2222893,BAREIS,321102552,N,Y,38.1147175,-122.2374925
97,MLS Listing,,Multi-Family (5+ Unit),1600 - 1700 Santa Clara St,Vallejo,CA,94590,4600000.0,2.0,2.0,Vallejo,,25265.0,1968.0,6.0,,,Active,,,http://www.redfin.com/CA/Vallejo/1600-Santa-Clara-St-94590/home/2204682,BAREIS,321102529,N,Y,38.1138776,-122.2594149
98,MLS Listing,,Single Family Residential,1147 Sanderling Dr,Fairfield,CA,94533,465000.0,3.0,2.0,Fairfield,1438.0,5663.0,1971.0,6.0,,,Active,,,http://www.redfin.com/CA/Fairfield/1147-Sanderling-Dr-94533/home/2565769,MetroList,321102478,N,Y,38.2692357,-122.0102417
99,MLS Listing,,Condo/Co-op,565 Lori Dr #65,Benicia,CA,94510,419000.0,2.0,2.0,Benicia,939.0,,1983.0,6.0,446.0,375.0,Active,,,http://www.redfin.com/CA/Benicia/565-Lori-Dr-94510/unit-65/home/2401525,BAREIS,321101994,N,Y,38.0639198,-122.1637563
100,MLS Listing,,Single Family Residential,608 Bonita Ct,Vallejo,CA,94591,400000.0,2.0,1.0,Vallejo,876.0,4792.0,1940.0,7.0,457.0,,Active,,,http://www.redfin.com/CA/Vallejo/608-Bonita-Ct-94591/home/2293831,BAREIS,321102369,N,Y,38.0981348,-122.2274312
101,MLS Listing,,Single Family Residential,782 Fred Barnes Dr,Fairfield,CA,94533,579995.0,4.0,2.0,Fairfield,1877.0,7841.0,1978.0,7.0,309.0,,Active,,,http://www.redfin.com/CA/Fairfield/782-Fred-Barnes-Dr-94533/home/2555592,BAREIS,321094511,N,Y,38.2860501,-122.0217444
102,MLS Listing,,Single Family Residential,1163 Hickory Ave,Fairfield,CA,94533,558000.0,3.0,3.0,Fairfield,1905.0,6000.0,1990.0,7.0,293.0,,Active,,,http://www.redfin.com/CA/Fairfield/1163-Hickory-Ave-94533/home/2562815,"bridgeMLS, Bay East AOR, or Contra Costa AOR",40972257,N,Y,38.2864618,-122.0101529
103,MLS Listing,,Single Family Residential,185 Camden Ct,Vallejo,CA,94591,710000.0,4.0,2.5,Vallejo,2174.0,7405.0,1979.0,7.0,327.0,,Active,,,http://www.redfin.com/CA/Vallejo/185-Camden-Ct-94591/home/2303382,BAREIS,321100475,N,Y,38.097952,-122.2131133
104,MLS Listing,,Single Family Residential,2471 Freitas Way,Fairfield,CA,94533,695000.0,5.0,3.0,Fairfield,2642.0,4500.0,2007.0,7.0,263.0,,Active,,,http://www.redfin.com/CA/Fairfield/2471-Freitas-Way-94533/home/22592814,San Francisco MLS,321097678,N,Y,38.298512,-121.9748824
105,MLS Listing,,Single Family Residential,5371 Hazen St,Vacaville,CA,95687,350000.0,2.0,1.0,Vacaville,940.0,10454.0,1950.0,8.0,372.0,,Active,,,http://www.redfin.com/CA/Elmira/5371-Hazen-St-95625/home/2523548,MetroList,321102076,N,Y,38.3498915,-121.9084862
106,MLS Listing,,Single Family Residential,933 Cashel Cir,Vacaville,CA,95688,789000.0,4.0,3.0,Vacaville,2753.0,5998.0,1998.0,8.0,287.0,,Active,November-6-2021 11:30 AM,November-6-2021 02:30 PM,http://www.redfin.com/CA/Vacaville/933-Cashel-Cir-95688/home/2484637,MetroList,321102040,N,Y,38.3927749,-121.9674626
107,MLS Listing,,Condo/Co-op,490 Edgewood Dr #25,Vacaville,CA,95688-3631,335000.0,2.0,1.5,Alamo Creek,1224.0,435.0,1968.0,8.0,274.0,440.0,Active,,,http://www.redfin.com/CA/Vacaville/490-Edgewood-Dr-95688/unit-25/home/2385937,"bridgeMLS, Bay East AOR, or Contra Costa AOR",40972194,N,Y,38.3520754,-122.0044129
108,MLS Listing,,Single Family Residential,727 Illinois,Vallejo,CA,94590,540000.0,3.0,1.5,Vallejo,1521.0,5001.0,1942.0,8.0,355.0,,Active,,,http://www.redfin.com/CA/Vallejo/727-Illinois-St-94590/home/2229023,BAREIS,321101214,N,Y,38.1116965,-122.2475971
109,MLS Listing,,Single Family Residential,229 Dutch Flat Ct,Vallejo,CA,94589,515000.0,3.0,2.0,Vallejo,1188.0,5663.0,1978.0,8.0,434.0,,Active,,,http://www.redfin.com/CA/Vallejo/229-Dutch-Flat-Ct-94589/home/2264167,BAREIS,321092751,N,Y,38.1547974,-122.2707722
110,MLS Listing,,Single Family Residential,621 Grennan St,Vallejo,CA,94591,519000.0,3.0,2.0,Granada Hills,1306.0,6098.0,1962.0,9.0,397.0,,Active,,,http://www.redfin.com/CA/Vallejo/621-Grennan-St-94591/home/2290315,"bridgeMLS, Bay East AOR, or Contra Costa AOR",40972167,N,Y,38.1055385,-122.2276085
111,MLS Listing,,Single Family Residential,7885 N Locke Rd,Vacaville,CA,95688,705000.0,3.0,2.0,699 - Not Defined,1493.0,172062.0,1950.0,9.0,472.0,,Active,,,http://www.redfin.com/CA/Vacaville/7885-N-Locke-Rd-95688/home/2416009,CRMLS,IV21234670,N,Y,38.447995,-121.948929
112,MLS Listing,,Mobile/Manufactured Home,806 San Juan Dr,Vallejo,CA,94590,145000.0,3.0,2.0,Tradewinds RV Park,966.0,2750.0,1971.0,10.0,,,Active,,,http://www.redfin.com/CA/Vallejo/806-San-Juan-Dr-94590/home/176923429,MetroList,321101855,N,Y,38.0875647,-122.2324049
113,MLS Listing,,Single Family Residential,601 Albacete Dr,Vacaville,CA,95688,560000.0,3.0,2.0,Vacaville,1888.0,5663.0,1953.0,10.0,297.0,,Active,,,http://www.redfin.com/CA/Vacaville/601-Albacete-Dr-95688/home/2456948,BAREIS,321101458,N,Y,38.3498246,-121.9978051
114,MLS Listing,,Single Family Residential,336 Ridgecrest Cir,Suisun City,CA,94585,525000.0,3.0,2.5,Suisun City,1556.0,3276.0,1991.0,10.0,337.0,,Active,,,http://www.redfin.com/CA/Suisun-City/336-Ridgecrest-Cir-94585/home/2582019,BAREIS,321099797,N,Y,38.2510673,-122.0213447
115,MLS Listing,,Single Family Residential,1725 Kentucky St,Fairfield,CA,94533,450000.0,3.0,2.0,Fairfield,1577.0,5663.0,1955.0,10.0,285.0,,Active,,,http://www.redfin.com/CA/Fairfield/1725-Kentucky-St-94533/home/2161576,BAREIS,321033489,N,Y,38.2516082,-122.0595303
116,MLS Listing,,Single Family Residential,531 Gregory Ln,Fairfield,CA,94533,899999.0,3.0,2.0,Fairfield,1062.0,21924.0,1926.0,10.0,,,Active,,,http://www.redfin.com/CA/Fairfield/531-Gregory-Ln-94533/home/2164177,MetroList,321101859,N,Y,38.2480219,-122.0563338
117,MLS Listing,,Single Family Residential,101 Amberwood Ct,Vacaville,CA,95688,710000.0,4.0,3.0,Vacaville,2174.0,9169.0,1989.0,10.0,327.0,,Active,,,http://www.redfin.com/CA/Vacaville/101-Amberwood-Ct-95688/home/2463798,BAREIS,321100736,N,Y,38.3774024,-121.9787032
118,MLS Listing,,Single Family Residential,548 Moorland St,Vallejo,CA,94589,520000.0,3.0,2.0,Vallejo,1066.0,7405.0,1941.0,10.0,488.0,,Active,,,http://www.redfin.com/CA/Vallejo/548-Moorland-St-94589/home/2216774,BAREIS,321100799,N,Y,38.1244053,-122.2340797
119,MLS Listing,,Single Family Residential,136 Isle Royale Cir,Vacaville,CA,95687,399000.0,2.0,2.0,Leisure Town,1043.0,5663.0,1964.0,10.0,,63.0,Active,,,http://www.redfin.com/CA/Vacaville/136-Isle-Royale-Cir-95687/home/2487088,MetroList,321100055,N,Y,38.3700545,-121.9464445
120,MLS Listing,,Single Family Residential,1932 Indiana St,Vallejo,CA,94590,589000.0,3.0,2.0,Vallejo,1467.0,6970.0,1940.0,10.0,401.0,,Active,,,http://www.redfin.com/CA/Vallejo/1932-Indiana-St-94590/home/2238029,BAREIS,321101457,N,Y,38.1108532,-122.2336365
121,MLS Listing,,Single Family Residential,1330 Jacobs Pl,Dixon,CA,95620,659000.0,5.0,3.0,Dixon,2445.0,8634.0,1990.0,10.0,270.0,,Active,,,http://www.redfin.com/CA/Dixon/1330-Jacobs-Pl-95620/home/2136021,BAREIS,321100664,N,Y,38.4491671,-121.8398481
122,MLS Listing,,Single Family Residential,101 Bristlewood Ct,Vacaville,CA,95688,810000.0,5.0,4.0,Vaca Valley Vill,3112.0,8050.0,1996.0,11.0,260.0,,Active,,,http://www.redfin.com/CA/Vacaville/101-Bristlewood-Ct-95688/home/2443565,"bridgeMLS, Bay East AOR, or Contra Costa AOR",40972075,N,Y,38.3934899,-121.9788142
123,MLS Listing,,Single Family Residential,418 Corte Cadiz,Vacaville,CA,95688,689999.0,4.0,2.5,Vacaville,2048.0,8276.0,1976.0,11.0,337.0,,Active,,,http://www.redfin.com/CA/Vacaville/418-Corte-Cadiz-95688/home/2445355,BAREIS,321100679,N,Y,38.3754566,-122.0034906
124,MLS Listing,,Condo/Co-op,18 Parrott St,Vallejo,CA,94590,281900.0,3.0,1.0,Vallejo,988.0,,1977.0,11.0,285.0,300.0,Active,,,http://www.redfin.com/CA/Vallejo/18-Parrott-St-94590/home/2391484,BAREIS,321101705,N,Y,38.121041,-122.262488
125,MLS Listing,,Vacant Land,108 Carlsbad Cir,Vacaville,CA,95687,194000.0,,,Vacaville,,6000.0,,11.0,,,Active,,,http://www.redfin.com/CA/Vacaville/108-Carlsbad-Cir-95687/home/22572821,"bridgeMLS, Bay East AOR, or Contra Costa AOR",40972044,N,Y,38.370861,-121.94113
126,MLS Listing,,Single Family Residential,100 Alcove Way,Vacaville,CA,95688,650000.0,4.0,2.0,Vacaville,1751.0,6501.0,2013.0,11.0,371.0,,Active,,,http://www.redfin.com/CA/Vacaville/100-Alcove-Way-95688/home/50278851,BAREIS,321100992,N,Y,38.3982786,-121.9350672
127,MLS Listing,,Vacant Land,1020 Mulberry Ct,Vacaville,CA,95688,279000.0,0.0,,Vacaville,,80150.0,,11.0,,125.0,Active,,,http://www.redfin.com/CA/Vacaville/1020-Mulberry-Ct-95688/home/22590907,BAREIS,321101473,N,Y,38.378877,-121.993128
128,MLS Listing,,Single Family Residential,239 San Marino Ave,Vallejo,CA,94589,425000.0,3.0,1.0,Vallejo,1000.0,5227.0,1955.0,11.0,425.0,,Active,,,http://www.redfin.com/CA/Vallejo/239-San-Marino-Ave-94589/home/2213034,BAREIS,321101536,N,Y,38.1252574,-122.2413483
129,MLS Listing,,Single Family Residential,115 - 3305 Olympic Cir,Vacaville,CA,95687,429900.0,2.0,2.0,Leisure Town,1043.0,5663.0,1964.0,11.0,412.0,75.0,Active,,,http://www.redfin.com/CA/Vacaville/115-Olympic-Cir-95687/home/2489039,BAREIS,321101434,N,Y,38.3652931,-121.948222
130,MLS Listing,,Single Family Residential,2009 Garnet Dr,Vallejo,CA,94591,729000.0,5.0,3.0,Northgate,2412.0,9046.0,1998.0,11.0,302.0,,Active,,,http://www.redfin.com/CA/Vallejo/2009-Garnet-Dr-94591/home/2133049,"bridgeMLS, Bay East AOR, or Contra Costa AOR",40971979,N,Y,38.1254229,-122.210276
131,MLS Listing,,Single Family Residential,306 Somerville Way,Vacaville,CA,95687,580000.0,4.0,2.5,Heritage Place,1735.0,4678.0,1994.0,11.0,334.0,,Active,,,http://www.redfin.com/CA/Vacaville/306-Somerville-Way-95687/home/2517243,MetroList,321095622,N,Y,38.3305817,-121.9467555
132,MLS Listing,,Single Family Residential,8294 Pleasants Valley Rd,Winters,CA,95694,1275000.0,4.0,2.0,Winters,2269.0,958320.0,1989.0,11.0,562.0,,Active,,,http://www.redfin.com/CA/Winters/8294-Pleasants-Valley-Rd-95694/home/2411513,BAREIS,321100604,N,Y,38.470259,-122.029583
133,MLS Listing,,Single Family Residential,2953 Quail Hollow Dr,Fairfield,CA,94533,895000.0,5.0,3.0,Fairfield,3142.0,,1999.0,11.0,285.0,197.0,Active,,,http://www.redfin.com/CA/Fairfield/2953-Quail-Hollow-Dr-94534/home/2537640,BAREIS,321098735,N,Y,38.2915053,-122.0786624
134,MLS Listing,,Single Family Residential,399 Buck Ave,Vacaville,CA,95688,790000.0,5.0,3.0,Vacaville,2700.0,14375.0,1965.0,11.0,293.0,,Active,,,http://www.redfin.com/CA/Vacaville/399-Buck-Ave-95688/home/2465816,MetroList,321099013,N,Y,38.3564951,-122.0013808
135,MLS Listing,,Single Family Residential,1991 Marshall Rd,Vacaville,CA,95687,510000.0,4.0,2.0,Vacaville,1807.0,5998.0,1987.0,11.0,282.0,,Active,,,http://www.redfin.com/CA/Vacaville/1991-Marshall-Rd-95687/home/2138768,BAREIS,321101290,N,Y,38.3447891,-121.9470666
136,MLS Listing,,Single Family Residential,1920 Tennessee St,Vallejo,CA,94590,629000.0,4.0,2.5,Vallejo,1232.0,6970.0,1939.0,11.0,511.0,,Active,,,http://www.redfin.com/CA/Vallejo/1920-Tennessee-St-94590/home/2238102,BAREIS,321100851,N,Y,38.1099315,-122.234019
137,MLS Listing,,Single Family Residential,740 Chateau Cir,Vacaville,CA,95687,590000.0,4.0,2.5,Vacaville,1852.0,3655.0,2000.0,11.0,319.0,,Active,,,http://www.redfin.com/CA/Vacaville/740-Chateau-Cir-95687/home/2509118,BAREIS,321100559,N,Y,38.3374248,-121.936045
138,MLS Listing,,Single Family Residential,163 Primrose Ln,Vallejo,CA,94591,744000.0,5.0,3.0,Somerset Highlands 2,2382.0,7840.0,1978.0,11.0,312.0,,Active,November-6-2021 01:00 PM,November-6-2021 04:00 PM,http://www.redfin.com/CA/Vallejo/163-Primrose-Ln-94591/home/2346670,BAREIS,321096038,N,Y,38.0989026,-122.1882186
139,MLS Listing,,Single Family Residential,3133 Pebble Beach Cir,Fairfield,CA,94534,1195000.0,5.0,3.0,Fairfield,3684.0,6564.0,2006.0,11.0,324.0,64.0,Active,,,http://www.redfin.com/CA/Fairfield/3133-Pebble-Beach-Cir-94534/home/2628268,BAREIS,321100713,N,Y,38.283439,-122.0866516
140,MLS Listing,,Condo/Co-op,1333 N Camino Alto #207,Vallejo,CA,94589,223000.0,1.0,1.0,Vallejo,640.0,435.0,1974.0,12.0,348.0,356.0,Active,,,http://www.redfin.com/CA/Vallejo/1333-N-Camino-Alto-94589/unit-207/home/2392135,"bridgeMLS, Bay East AOR, or Contra Costa AOR",40971843,N,Y,38.1323861,-122.2415034
141,MLS Listing,,Single Family Residential,172 Bel Air Dr,Vacaville,CA,95687,569950.0,4.0,2.0,Vacaville,1546.0,6534.0,1975.0,12.0,369.0,,Active,November-6-2021 01:00 PM,November-6-2021 03:00 PM,http://www.redfin.com/CA/Vacaville/172-Bel-Air-Dr-95687/home/2494539,BAREIS,321099793,N,Y,38.3411123,-121.9551544
142,MLS Listing,,Single Family Residential,312 Carolina St,Vallejo,CA,94590,568000.0,3.0,1.5,Vallejo,1786.0,3250.0,1918.0,12.0,318.0,,Active,,,http://www.redfin.com/CA/Vallejo/312-Carolina-St-94590/home/2227008,BAREIS,321100980,N,Y,38.1043514,-122.2593404
143,MLS Listing,,Single Family Residential,254 Via Del Sol,Vacaville,CA,95687,665000.0,3.0,2.0,Vacaville,1922.0,6595.0,2011.0,12.0,346.0,,Active,,,http://www.redfin.com/CA/Vacaville/254-Via-Del-Sol-95687/home/28899630,BAREIS,321100746,N,Y,38.3280318,-121.9455112
144,MLS Listing,,Single Family Residential,4398 Artisan Path,Rio Vista,CA,94571,572000.0,4.0,2.5,Rio Vista,2149.0,6564.0,2019.0,12.0,266.0,,Active,November-6-2021 12:00 PM,November-6-2021 03:00 PM,http://www.redfin.com/CA/Rio-Vista/4398-Artisan-Path-94571/home/22554862,BAREIS,321099113,N,Y,38.195652,-121.716106
145,MLS Listing,,Single Family Residential,5147 Leonardo Ct,Fairfield,CA,94534,899000.0,4.0,3.5,Vintage Green Vl,2712.0,9133.0,1993.0,12.0,331.0,,Active,,,http://www.redfin.com/CA/Fairfield/5147-Leonardo-Ct-94534/home/2526753,"bridgeMLS, Bay East AOR, or Contra Costa AOR",40971725,N,Y,38.2231899,-122.1460862
146,MLS Listing,,Single Family Residential,478 Sonoma Blvd,Vallejo,CA,94590,460000.0,2.0,1.0,Vallejo,1060.0,5998.0,1938.0,12.0,434.0,,Active,,,http://www.redfin.com/CA/Vallejo/478-Sonoma-Blvd-94590/home/2250795,"bridgeMLS, Bay East AOR, or Contra Costa AOR",40971708,N,Y,38.0848819,-122.2404176
147,MLS Listing,,Single Family Residential,917 Waterwood Dr,Rio Vista,CA,94571,655000.0,3.0,2.5,Trilogy at Rio Vista,2500.0,7610.0,2017.0,13.0,262.0,215.0,Active,,,http://www.redfin.com/CA/Rio-Vista/917-Waterwood-Dr-94571/home/103687070,BAREIS,321100775,N,Y,38.1778134,-121.7161357
148,MLS Listing,,Single Family Residential,50 Romine Way,Vallejo,CA,94591,575000.0,3.0,2.0,Vallejo,1663.0,6399.0,1978.0,13.0,346.0,,Active,,,http://www.redfin.com/CA/Vallejo/50-Romine-Way-94591/home/2298251,BAREIS,321100558,N,Y,38.0947643,-122.2194081
149,MLS Listing,,Single Family Residential,2028 Fieldcrest Ave,Fairfield,CA,94534,675000.0,4.0,2.0,Fairfield,2364.0,10032.0,1989.0,13.0,286.0,,Active,,,http://www.redfin.com/CA/Fairfield/2028-Fieldcrest-Ave-94534/home/2547542,BAREIS,321100557,N,Y,38.2911469,-122.0403725
150,MLS Listing,,Condo/Co-op,431 Stinson St #8,Vallejo,CA,94591,430000.0,2.0,1.0,Quiet Harbor,947.0,,1989.0,13.0,454.0,425.0,Active,,,http://www.redfin.com/CA/Vallejo/431-Stinson-St-94591/unit-8/home/2410229,BAREIS,321099505,N,Y,38.0687712,-122.2165932
151,MLS Listing,,Multi-Family (2-4 Unit),814 York St,Vallejo,CA,94590,770000.0,2.0,2.0,Vallejo,2582.0,5850.0,1905.0,13.0,298.0,,Active,,,http://www.redfin.com/CA/Vallejo/814-York-St-94590/home/2234894,BAREIS,321100222,N,Y,38.100247,-122.2493698
152,MLS Listing,,Single Family Residential,2002 Buckingham Dr,Fairfield,CA,94533,525000.0,3.0,2.0,Fairfield,1082.0,5663.0,1964.0,13.0,485.0,,Active,,,http://www.redfin.com/CA/Fairfield/2002-Buckingham-Dr-94533/home/2185293,BAREIS,321091598,N,Y,38.2671397,-122.0542916
153,MLS Listing,,Single Family Residential,914 Driftwood Dr,Suisun City,CA,94585,550000.0,3.0,2.5,Suisun City,1760.0,3228.0,2004.0,14.0,313.0,,Active,,,http://www.redfin.com/CA/Suisun-City/914-Driftwood-Dr-94585/home/2619089,BAREIS,321100298,N,Y,38.2416366,-122.0333346
154,MLS Listing,,Vacant Land,0 Gibson Canyon Rd,Vacaville,CA,95688,700000.0,0.0,,Vacaville,,168577.0,,14.0,,,Active,,,http://www.redfin.com/CA/Vacaville/6963-Gibson-Canyon-Rd-95688/home/2439915,BAREIS,321093417,N,Y,38.3982453,-122.0006034
155,MLS Listing,,Single Family Residential,699 Linwood St,Vacaville,CA,95688,625000.0,3.0,2.0,Vacaville,1468.0,6098.0,1968.0,14.0,426.0,,Active,,,http://www.redfin.com/CA/Vacaville/699-Linwood-St-95688/home/2454474,BAREIS,321099507,N,Y,38.3585019,-122.009087
156,MLS Listing,,Single Family Residential,1294 Shelby Dr,Fairfield,CA,94534,595000.0,4.0,2.0,Fairfield,1582.0,7841.0,1978.0,14.0,376.0,,Active,,,http://www.redfin.com/CA/Fairfield/1294-Shelby-Dr-94534/home/2533415,BAREIS,321099779,N,Y,38.2550942,-122.0684087
157,MLS Listing,,Single Family Residential,454 Harvest Cir,Vacaville,CA,95687,695000.0,5.0,3.0,Vacaville,2286.0,7680.0,1988.0,15.0,304.0,,Active,,,http://www.redfin.com/CA/Vacaville/454-Harvest-Cir-95687/home/2501545,BAREIS,321100130,N,Y,38.3363567,-121.9382228
158,MLS Listing,,Single Family Residential,8 Missouri St,Vallejo,CA,94590,88888.0,0.0,,Vallejo,1300.0,3311.0,,15.0,68.0,,Active,,,http://www.redfin.com/CA/Vallejo/8-Missouri-St-94590/home/22565295,BAREIS,321099861,N,Y,38.1161291,-122.2567724
159,MLS Listing,,Single Family Residential,30 La Vuelta St,Vallejo,CA,94590,649000.0,3.0,1.5,Vallejo,1374.0,7841.0,1954.0,15.0,472.0,,Active,,,http://www.redfin.com/CA/Vallejo/30-La-Vuelta-St-94590/home/2220584,BAREIS,321072868,N,Y,38.1169231,-122.2391323
160,MLS Listing,,Mobile/Manufactured Home,2525 Flosden #108,American Canyon,CA,94503,174900.0,2.0,2.0,Fairgrounds Mobile Home Estates,1033.0,,2001.0,15.0,169.0,,Active,,,http://www.redfin.com/CA/American-Canyon/2525-Flosden-Rd-94503/unit-108/home/12223632,BAREIS,321099890,N,Y,38.1559715,-122.2391323
161,MLS Listing,,Single Family Residential,142 Hillview Dr,Vacaville,CA,95688,720000.0,3.0,2.0,Vacaville,2174.0,8276.0,1986.0,15.0,331.0,,Active,,,http://www.redfin.com/CA/Vacaville/142-Hillview-Dr-95688/home/2457317,BAREIS,321099911,N,Y,38.3496581,-122.0051118
162,MLS Listing,,Single Family Residential,549 Western Hills Dr,Rio Vista,CA,94571,535000.0,2.0,2.5,Trilogy at Rio Vista,2483.0,6739.0,2004.0,15.0,215.0,215.0,Active,,,http://www.redfin.com/CA/Rio-Vista/549-Western-Hills-Dr-94571/home/2616978,BAREIS,321089509,N,Y,38.1815608,-121.7072993
163,MLS Listing,,Single Family Residential,214 La Canyada Dr,Vallejo,CA,94591,525000.0,4.0,2.0,Dawson Ridge,1701.0,4791.0,1945.0,17.0,309.0,,Active,,,http://www.redfin.com/CA/Vallejo/214-La-Canyada-Dr-94591/home/2315085,"bridgeMLS, Bay East AOR, or Contra Costa AOR",40971286,N,Y,38.0847264,-122.2306225
164,MLS Listing,,Single Family Residential,468 Phoenix Cir,Vallejo,CA,94589,710000.0,3.0,2.0,Vallejo,1657.0,18731.0,1980.0,17.0,428.0,,Active,,,http://www.redfin.com/CA/Vallejo/468-Phoenix-Cir-94589/home/2211531,BAREIS,321099487,N,Y,38.1395145,-122.2461347
165,MLS Listing,,Single Family Residential,750 Camellia Way,Vacaville,CA,95688,500000.0,4.0,1.0,Vacaville,1491.0,5663.0,1955.0,17.0,335.0,,Active,,,http://www.redfin.com/CA/Vacaville/750-Camellia-Way-95688/home/2456713,BAREIS,321098566,N,Y,38.3510724,-121.9979272
166,MLS Listing,,Multi-Family (2-4 Unit),428 - 432 S 2nd St,Rio Vista,CA,94571,525000.0,2.0,2.0,Rio Vista,1600.0,16000.0,1930.0,18.0,,,Active,,,http://www.redfin.com/CA/Rio-Vista/428-S-2nd-St-94571/home/176740138,MetroList,321099449,N,Y,38.15316,-121.6943968
167,MLS Listing,,Single Family Residential,124 Ruby Ln,Vallejo,CA,94590,599900.0,3.0,2.5,Crystal Pointe,1520.0,3781.0,1991.0,18.0,395.0,112.0,Active,,,http://www.redfin.com/CA/Vallejo/124-Ruby-Ln-94590/home/2129477,MetroList,321098398,N,Y,38.0719669,-122.2349645
168,MLS Listing,,Single Family Residential,133 Gary Cir,Vallejo,CA,94591,499000.0,3.0,1.0,Vallejo,1140.0,7405.0,1942.0,18.0,438.0,,Active,,,http://www.redfin.com/CA/Vallejo/133-Gary-Cir-94591/home/2313056,"bridgeMLS, Bay East AOR, or Contra Costa AOR",40971153,N,Y,38.0861386,-122.2314647
169,MLS Listing,,Single Family Residential,832 Oakwood,Vallejo,CA,94591,509000.0,3.0,2.0,Vallejo,1432.0,4792.0,1951.0,18.0,355.0,,Active,,,http://www.redfin.com/CA/Vallejo/832-Oakwood-Ave-94591/home/2293553,BAREIS,321098953,N,Y,38.1007989,-122.2176349
170,MLS Listing,,Single Family Residential,819 Fall River Trl,Vacaville,CA,95687,595000.0,3.0,3.0,Vacaville,1951.0,9431.0,1989.0,18.0,305.0,,Active,,,http://www.redfin.com/CA/Vacaville/819-Fall-River-Trl-95687/home/2515233,BAREIS,321097553,N,Y,38.3209984,-121.9655742
171,MLS Listing,,Single Family Residential,325 Monroe Ct,Benicia,CA,94510,899000.0,4.0,4.0,Benicia,2612.0,8276.0,1996.0,18.0,344.0,,Active,,,http://www.redfin.com/CA/Benicia/325-Monroe-Ct-94510/home/2376335,"bridgeMLS, Bay East AOR, or Contra Costa AOR",40971132,N,Y,38.056184,-122.1473504
172,MLS Listing,,Condo/Co-op,1242 Sonata Dr,Vallejo,CA,94591,550000.0,2.0,2.5,Vallejo,1586.0,,2010.0,18.0,347.0,550.0,Active,,,http://www.redfin.com/CA/Vallejo/1242-Sonata-Dr-94591/home/40163880,BAREIS,321098743,N,Y,38.1332795,-122.2063973
173,MLS Listing,,Single Family Residential,2292 Bennington Dr,Vallejo,CA,94591,1450000.0,5.0,4.5,Vallejo,5330.0,13775.0,2007.0,18.0,272.0,7.0,Active,,,http://www.redfin.com/CA/Vallejo/2292-Bennington-Dr-94591/home/12226737,"bridgeMLS, Bay East AOR, or Contra Costa AOR",40971100,N,Y,38.157904,-122.1753811
174,MLS Listing,,Single Family Residential,1465 Georgia Ct,Dixon,CA,95620,597000.0,4.0,3.0,Dixon,1819.0,8102.0,1994.0,18.0,328.0,,Active,,,http://www.redfin.com/CA/Dixon/1465-Georgia-Ct-95620/home/2432330,BAREIS,321092780,N,Y,38.4515754,-121.8422279
175,MLS Listing,,Single Family Residential,1974 Pride Gln,Rio Vista,CA,94571,545000.0,3.0,2.0,Rio Vista,1635.0,6000.0,2019.0,18.0,333.0,,Active,,,http://www.redfin.com/CA/Rio-Vista/1974-Pride-Gln-94571/home/22578227,"bridgeMLS, Bay East AOR, or Contra Costa AOR",40970618,N,Y,38.196691,-121.715157
176,MLS Listing,,Single Family Residential,1746 River Oaks Cir,Fairfield,CA,94533,775000.0,5.0,3.5,Fairfield,2841.0,6599.0,2000.0,18.0,273.0,38.0,Active,,,http://www.redfin.com/CA/Fairfield/1746-River-Oaks-Cir-94533/home/2554085,BAREIS,321097938,N,Y,38.2992701,-122.0159266
177,MLS Listing,,Single Family Residential,130 Foulkstone Way,Vallejo,CA,94591,829000.0,4.0,3.0,Vallejo,2255.0,5680.0,1988.0,18.0,368.0,,Active,,,http://www.redfin.com/CA/Vallejo/130-Foulkstone-Way-94591/home/2324800,BAREIS,321096478,N,Y,38.0688392,-122.2098771
178,MLS Listing,,Condo/Co-op,217 E 2nd St,Benicia,CA,94510,653000.0,3.0,2.5,Benicia,1628.0,,1982.0,18.0,401.0,700.0,Active,,,http://www.redfin.com/CA/Benicia/217-E-2nd-St-94510/home/17296284,BAREIS,321094040,N,Y,38.0453566,-122.1594705
179,MLS Listing,,Single Family Residential,127 El Verano,Vallejo,CA,94590,948000.0,4.0,3.0,Vista De Vallejo,2788.0,6604.0,1941.0,18.0,340.0,,Active,,,http://www.redfin.com/CA/Vallejo/127-El-Verano-94590/home/2218654,BAREIS,321098050,N,Y,38.1181132,-122.2435421
180,MLS Listing,,Single Family Residential,2514 Santaella Ln,Fairfield,CA,94533,579990.0,4.0,2.5,Fairfield,1714.0,4221.0,2003.0,18.0,,,Active,,,http://www.redfin.com/CA/Fairfield/2514-Santaella-Ln-94533/home/2603818,MetroList,321098903,N,Y,38.2955339,-121.9719945
181,MLS Listing,,Condo/Co-op,103 White Pine Dr,VALLEJO,CA,94591,299880.0,2.0,1.5,VALLEJO,1178.0,,1984.0,19.0,255.0,308.0,Active,,,http://www.redfin.com/CA/Vallejo/103-White-Pine-Dr-94591/home/2393428,MLSListings,ML81866871,N,Y,38.108668,-122.205687
182,MLS Listing,,Single Family Residential,415 Mono Dr,Vacaville,CA,95687,569999.0,4.0,2.0,Vacaville,1882.0,5663.0,1966.0,19.0,303.0,,Active,,,http://www.redfin.com/CA/Vacaville/415-Mono-Dr-95687/home/2470355,MetroList,321098204,N,Y,38.3468948,-121.9699063
183,MLS Listing,,Single Family Residential,406 Cogburn Cir,Vacaville,CA,95687-406,599000.0,4.0,3.0,Vacaville,2217.0,2038.0,2020.0,19.0,270.0,273.0,Active,,,http://www.redfin.com/CA/Vacaville/406-Cogburn-Cir-95687/home/168993578,"bridgeMLS, Bay East AOR, or Contra Costa AOR",40971001,N,Y,38.3253149,-121.9451223
184,MLS Listing,,Single Family Residential,470 Limerick Way,Vacaville,CA,95688,650000.0,5.0,3.5,Vacaville,2351.0,7680.0,1989.0,19.0,276.0,,Active,,,http://www.redfin.com/CA/Vacaville/470-Limerick-Way-95688/home/2483004,BAREIS,321098575,N,Y,38.3877896,-121.9769261
185,MLS Listing,,Single Family Residential,,Suisun City,CA,94585,725000.0,4.0,3.0,Lawler Ranch,3488.0,6158.0,2000.0,19.0,208.0,,Active,November-6-2021 02:00 PM,November-6-2021 04:00 PM,http://www.redfin.com/CA/Suisun-City/Undisclosed-address-94585/home/2580790,"bridgeMLS, Bay East AOR, or Contra Costa AOR",40970996,N,Y,38.240822,-121.9970944
186,MLS Listing,,Single Family Residential,1129 Maple Ave,Vallejo,CA,94591,485000.0,3.0,1.0,Liberty Heights Tr,1089.0,5663.0,1942.0,19.0,445.0,,Active,,,http://www.redfin.com/CA/Vallejo/1129-Maple-Ave-94591/home/2286814,BAREIS,321098682,N,Y,38.1072017,-122.2214471
187,MLS Listing,,Single Family Residential,1499 Rockville Rd,Fairfield,CA,94534,1499000.0,4.0,2.0,Fairfield,4200.0,55321.0,1973.0,19.0,357.0,,Active,,,http://www.redfin.com/CA/Fairfield/1499-Rockville-Rd-94534/home/2524904,BAREIS,321095891,N,Y,38.2601189,-122.1711543
188,MLS Listing,,Single Family Residential,265 Toledo Ct,Vallejo,CA,94591,649900.0,3.0,2.5,Vallejo,1976.0,8856.0,1987.0,19.0,329.0,,Active,,,http://www.redfin.com/CA/Vallejo/265-Toledo-Ct-94591/home/2306494,BAREIS,321094253,N,Y,38.0986523,-122.2076136
189,MLS Listing,,Single Family Residential,1235 West H St,Dixon,CA,95620,550000.0,4.0,2.5,Dixon,1890.0,6098.0,1978.0,19.0,,,Active,,,http://www.redfin.com/CA/Dixon/1235-W-H-St-95620/home/2426451,MetroList,321097136,N,Y,38.4527593,-121.8383134
190,MLS Listing,,Single Family Residential,431 San Mateo St,Fairfield,CA,94533,399900.0,3.0,2.0,Fairfield,1287.0,6098.0,1961.0,19.0,311.0,,Active,,,http://www.redfin.com/CA/Fairfield/431-San-Mateo-St-94533/home/2178554,"bridgeMLS, Bay East AOR, or Contra Costa AOR",40970875,N,Y,38.2602664,-122.0288275
191,MLS Listing,,Single Family Residential,2428 Beaufort Dr,Fairfield,CA,94533,429000.0,3.0,1.0,Fairfield,1136.0,3920.0,1973.0,19.0,378.0,,Active,,,http://www.redfin.com/CA/Fairfield/2428-Beaufort-Dr-94533/home/2558664,BAREIS,321098742,N,Y,38.2746769,-122.019742
192,MLS Listing,,Single Family Residential,312 Roney Ave,Vallejo,CA,94590,400000.0,2.0,1.0,Vallejo,1408.0,10001.0,1929.0,19.0,284.0,,Active,,,http://www.redfin.com/CA/Vallejo/312-Roney-Ave-94590/home/2242137,BAREIS,321098715,N,Y,38.1027293,-122.2349661
193,MLS Listing,,Single Family Residential,4456 Broadway Chase,Rio Vista,CA,94571,540000.0,3.0,2.0,Rio Vista,1635.0,6355.0,2019.0,19.0,330.0,,Active,,,http://www.redfin.com/CA/Rio-Vista/4456-Broadway-Chase-94571/home/22553501,BAREIS,321098354,N,Y,38.197255,-121.716954
194,MLS Listing,,Multi-Family (2-4 Unit),1805 - 1807 Magazine St,Vallejo,CA,94591,899000.0,8.0,4.0,Vallejo,3000.0,10890.0,2004.0,19.0,300.0,,Active,,,http://www.redfin.com/CA/Vallejo/1805-Magazine-St-94591/home/2316300,San Francisco MLS,321098397,N,Y,38.0800751,-122.2186545
195,MLS Listing,,Mobile/Manufactured Home,50 River Rd 7,Rio Vista,CA,94571,55000.0,1.0,1.0,West Wind Mobile Home Park,643.0,,1963.0,20.0,,,Active,,,http://www.redfin.com/CA/Rio-Vista/50-River-Rd-94571/unit-5/home/2612343,MetroList,321098636,N,Y,38.162508,-121.6880359
196,MLS Listing,,Condo/Co-op,2915 N Texas St #263,Fairfield,CA,94533,310500.0,2.0,2.0,Fairfield,860.0,867.0,1986.0,20.0,361.0,445.0,Active,,,http://www.redfin.com/CA/Fairfield/2915-N-Texas-St-94533/unit-263/home/17129293,"bridgeMLS, Bay East AOR, or Contra Costa AOR",40970777,N,Y,38.281883,-122.0347112
197,MLS Listing,,Multi-Family (2-4 Unit),300 Phoenix Cir,Vallejo,CA,94589,700995.0,5.0,3.0,Vallejo,1827.0,6970.0,1980.0,20.0,384.0,,Active,,,http://www.redfin.com/CA/Vallejo/300-Phoenix-Cir-94589/home/2211443,BAREIS,321098481,N,Y,38.1379587,-122.2438301
198,MLS Listing,,Single Family Residential,2119 Westphailan Dr,Fairfield,CA,94534-7461,685999.0,5.0,3.0,Cordelia,2087.0,4235.0,2012.0,20.0,329.0,,Active,,,http://www.redfin.com/CA/Fairfield/2119-Westphalian-Dr-94534/home/40163854,"bridgeMLS, Bay East AOR, or Contra Costa AOR",40970709,N,Y,38.1653842,-122.1270769
199,MLS Listing,,Single Family Residential,143 Rocky Hill Rd,Vacaville,CA,95688,525000.0,3.0,2.0,699 - Not Defined,1101.0,4791.0,1961.0,20.0,477.0,,Active,,,http://www.redfin.com/CA/Vacaville/143-Rocky-Hill-Rd-95688/home/2461439,CRMLS,PTP2107165,N,Y,38.3697342,-121.9798138
200,MLS Listing,,Single Family Residential,50 Sealion Pl,Vallejo,CA,94591,920000.0,4.0,3.0,Vallejo,2859.0,12188.0,1989.0,20.0,322.0,,Active,,,http://www.redfin.com/CA/Vallejo/50-Sea-Lion-Pl-94591/home/2327093,BAREIS,321097830,N,Y,38.071085,-122.2212255
201,MLS Listing,,Single Family Residential,7371 Locke Rd,Vacaville,CA,95688,877000.0,4.0,2.0,Vacaville,1350.0,208652.0,1930.0,20.0,650.0,,Active,,,http://www.redfin.com/CA/Vacaville/7371-Locke-Rd-95688/home/2417683,BAREIS,321094342,N,Y,38.420372,-121.949613
202,MLS Listing,,Condo/Co-op,1105 Symphony Way,Vallejo,CA,94591,439999.0,2.0,2.0,Vallejo,1167.0,,2007.0,20.0,,553.0,Active,,,http://www.redfin.com/CA/Vallejo/1105-Symphony-Way-94591/home/17294666,MetroList,321094793,N,Y,38.132412,-122.2060603
203,MLS Listing,,Single Family Residential,426 Lilac Ct,Benicia,CA,94510,675000.0,3.0,2.0,The Village,1566.0,6098.0,1982.0,21.0,431.0,156.0,Active,,,http://www.redfin.com/CA/Benicia/426-Lilac-Ct-94510/home/2348984,BAREIS,321095208,N,Y,38.079702,-122.1688619
204,MLS Listing,,Condo/Co-op,,Benicia,CA,94510,365000.0,2.0,1.0,Benicia Highlands,1087.0,,1984.0,21.0,336.0,441.0,Active,,,http://www.redfin.com/CA/Benicia/Undisclosed-address-94510/home/2405306,BAREIS,321098076,N,Y,38.0782031,-122.1890832
205,MLS Listing,,Vacant Land,404 Hays Ln,Vallejo,CA,94591,180000.0,,,Vallejo,,8712.0,,21.0,,,Active,,,http://www.redfin.com/CA/Vallejo/404-Hays-Ln-94591/home/22569821,"bridgeMLS, Bay East AOR, or Contra Costa AOR",40970643,N,Y,38.0924301,-122.218394
206,MLS Listing,,Single Family Residential,2742 Clarion Pl,Fairfield,CA,94533,650000.0,4.0,3.0,Madison Park,2070.0,3485.0,2016.0,21.0,314.0,108.0,Active,,,http://www.redfin.com/CA/Fairfield/2742-Clarion-Pl-94533/home/22578204,BAREIS,321093252,N,Y,38.3003559,-121.9678572
207,MLS Listing,,Single Family Residential,1018 Parkside Dr,Vacaville,CA,95688,750000.0,5.0,3.0,Vacaville,3173.0,5754.0,2007.0,21.0,236.0,,Active,,,http://www.redfin.com/CA/Vacaville/1018-Parkside-Dr-95688/home/17295741,BAREIS,321095084,N,Y,38.3953801,-121.936445
208,MLS Listing,,Single Family Residential,1754 San Jose Ct,Fairfield,CA,94533,499000.0,3.0,2.0,Fairfield,1287.0,5663.0,1961.0,22.0,388.0,,Active,,,http://www.redfin.com/CA/Fairfield/1754-San-Jose-Ct-94533/home/2177834,BAREIS,321095420,N,Y,38.2620021,-122.0314696
209,MLS Listing,,Single Family Residential,1518 Flagship Dr,Vallejo,CA,94592,925000.0,5.0,4.5,Vallejo,3751.0,6094.0,2017.0,22.0,247.0,,Active,,,http://www.redfin.com/CA/Vallejo/1518-Flagship-Dr-94592/home/22571585,MetroList,321097835,N,Y,38.087801,-122.268425
210,MLS Listing,,Single Family Residential,713 Northampton Dr,Vacaville,CA,95687,515000.0,3.0,1.0,Vacaville,1000.0,5662.0,1976.0,22.0,515.0,,Active,,,http://www.redfin.com/CA/Vacaville/713-Northampton-Dr-95687/home/2509847,"bridgeMLS, Bay East AOR, or Contra Costa AOR",40970526,N,Y,38.3336419,-121.9546211
211,MLS Listing,,Single Family Residential,700 S Lincoln St,Dixon,CA,95620,754286.0,4.0,3.0,Dixon,2838.0,12000.0,2021.0,22.0,266.0,70.0,Active,,,http://www.redfin.com/CA/Dixon/700-S-Lincoln-St-95620/home/176709155,"bridgeMLS, Bay East AOR, or Contra Costa AOR",40970499,N,Y,38.438174,-121.840111
212,MLS Listing,,Single Family Residential,730 S Lincoln St,Dixon,CA,95620,771228.0,5.0,3.5,Dixon,3247.0,12000.0,2021.0,22.0,238.0,70.0,Active,,,http://www.redfin.com/CA/Dixon/730-S-Lincoln-St-95620/home/176708973,"bridgeMLS, Bay East AOR, or Contra Costa AOR",40970492,N,Y,38.438174,-121.840111
213,MLS Listing,,Condo/Co-op,326 Columbia Cir,Benicia,CA,94510,679000.0,3.0,2.5,Benicia,1540.0,2954.0,1994.0,22.0,441.0,280.0,Active,,,http://www.redfin.com/CA/Benicia/326-Columbia-Cir-94510/home/2356633,"bridgeMLS, Bay East AOR, or Contra Costa AOR",40970472,N,Y,38.0789457,-122.1499897
214,MLS Listing,,Single Family Residential,4284 Putah Creek Rd,Winters,CA,95694,1399000.0,3.0,2.0,Winters,2300.0,617681.0,1989.0,22.0,608.0,,Active,,,http://www.redfin.com/CA/Winters/4284-Putah-Creek-Rd-95694/home/103687663,BAREIS,321097430,N,Y,38.4983825,-121.9839661
215,MLS Listing,,Single Family Residential,2631 Barbour Dr,Fairfield,CA,94534,585000.0,3.0,2.0,Piedmont Village 3,1520.0,6098.0,1976.0,22.0,385.0,,Active,,,http://www.redfin.com/CA/Fairfield/2631-Barbour-Dr-94534/home/2540864,BAREIS,321092851,N,Y,38.2641466,-122.0591307
216,MLS Listing,,Single Family Residential,180 Carlsbad Cir,Vacaville,CA,95687,495000.0,3.0,2.0,Vacaville,1598.0,5663.0,1972.0,22.0,310.0,75.0,Active,,,http://www.redfin.com/CA/Vacaville/180-Carlsbad-Cir-95687/home/2486741,BAREIS,321092945,N,Y,38.3720467,-121.9404893
217,MLS Listing,,Single Family Residential,155 Baxter St,Vallejo,CA,94590,788000.0,6.0,3.0,Vallejo,2908.0,8956.0,2002.0,23.0,271.0,,Active,,,http://www.redfin.com/CA/Vallejo/155-Baxter-St-94590/home/2606077,BAREIS,321097546,N,Y,38.1154342,-122.2658983
218,MLS Listing,,Single Family Residential,350 Aaron Cir,Vacaville,CA,95687,550000.0,3.0,2.5,Vacaville,2042.0,5014.0,1993.0,23.0,269.0,,Active,,,http://www.redfin.com/CA/Vacaville/350-Aaron-Cir-95687/home/2519150,MetroList,321095843,N,Y,38.3322959,-121.9613753
219,MLS Listing,,Single Family Residential,130 Mayo Ct,Vacaville,CA,95688,589000.0,4.0,2.0,Vacaville,1656.0,7640.0,1988.0,23.0,356.0,,Active,,,http://www.redfin.com/CA/Vacaville/130-Mayo-Ct-95688/home/2482383,BAREIS,321097479,N,Y,38.3851487,-121.9759931
220,MLS Listing,,Single Family Residential,278 Cimarron Dr,Vallejo,CA,94589,585000.0,3.0,2.5,Vallejo,1805.0,8621.0,1991.0,24.0,324.0,,Active,,,http://www.redfin.com/CA/Vallejo/278-Cimarron-Dr-94589/home/2283127,BAREIS,321089386,N,Y,38.1460702,-122.2229764
221,MLS Listing,,Multi-Family (2-4 Unit),829 - 833 Buchanan St,Benicia,CA,94510,719000.0,4.0,2.0,Benicia,1632.0,13504.0,1941.0,24.0,441.0,,Active,,,http://www.redfin.com/CA/Benicia/829-Buchanan-St-94510/home/2330332,BAREIS,321094318,N,Y,38.048693,-122.1391439
222,MLS Listing,,Single Family Residential,1706 Miller Pl,Fairfield,CA,94534,640000.0,5.0,2.5,Fairfield,2378.0,7841.0,1987.0,25.0,269.0,,Active,,,http://www.redfin.com/CA/Fairfield/1706-Miller-Pl-94534/home/2541908,BAREIS,321096465,N,Y,38.2635523,-122.0671658
223,MLS Listing,,Single Family Residential,605 W Cherry St,Dixon,CA,95620,746500.0,4.0,3.0,Dixon,2755.0,6033.0,2018.0,25.0,271.0,,Active,,,http://www.redfin.com/CA/Dixon/605-W-Cherry-St-95620/home/144147251,BAREIS,321096313,N,Y,38.437898,-121.8269659
224,MLS Listing,,Mobile/Manufactured Home,399 San Marcus,Vallejo,CA,94590,109900.0,2.0,1.0,Vallejo Mobile states,850.0,,1972.0,25.0,129.0,,Active,,,http://www.redfin.com/CA/Vallejo/399-San-Marcus-Dr-94590/home/17547204,BAREIS,321095819,N,Y,38.0909223,-122.2352319
225,MLS Listing,,Single Family Residential,742 Laurel Way,Rio Vista,CA,94571,479000.0,4.0,2.0,Rio Vista,1380.0,5663.0,1951.0,25.0,347.0,,Active,,,http://www.redfin.com/CA/Rio-Vista/742-Laurel-Way-94571/home/2197157,BAREIS,321096909,N,Y,38.1638502,-121.6913766
226,MLS Listing,,Multi-Family (2-4 Unit),909 - 913 Sutter St,Vallejo,CA,94590,650000.0,3.0,2.0,Vallejo,3100.0,3376.0,,25.0,210.0,,Active,,,http://www.redfin.com/CA/Vallejo/909-Sutter-St-94590/home/2233291,BAREIS,321094213,N,Y,38.1023973,-122.2534911
227,MLS Listing,,Single Family Residential,1622 Landmark Dr,Vallejo,CA,94591,909000.0,4.0,2.5,Vallejo,3104.0,8072.0,2001.0,25.0,293.0,7.0,Active,,,http://www.redfin.com/CA/Vallejo/1622-Landmark-Dr-94591/home/2594964,BAREIS,321096357,N,Y,38.1429098,-122.1734076
228,MLS Listing,,Townhouse,265 Sandy Beach Rd,Vallejo,CA,94590,449000.0,3.0,2.5,Vallejo,1492.0,,1992.0,26.0,301.0,307.0,Active,,,http://www.redfin.com/CA/Vallejo/265-Sandy-Beach-Rd-94590/home/2405447,San Francisco MLS,321096885,N,Y,38.077717,-122.237218
229,MLS Listing,,Single Family Residential,7 Vine St,Vacaville,CA,95688,459900.0,2.0,2.0,Vacaville,1138.0,4356.0,1932.0,26.0,,,Active,,,http://www.redfin.com/CA/Vacaville/7-Vine-St-95688/home/2464656,MetroList,321096679,N,Y,38.3594358,-121.985678
230,MLS Listing,,Single Family Residential,1126 Vintage Ct,Vacaville,CA,95688,725000.0,4.0,3.0,Vacaville,2474.0,10807.0,2005.0,26.0,293.0,,Active,,,http://www.redfin.com/CA/Vacaville/1126-Vintage-Ct-95688/home/2621896,BAREIS,321096721,N,Y,38.3615183,-121.9829681
231,MLS Listing,,Townhouse,299 Shasta Dr #18,Vacaville,CA,95687,360000.0,3.0,2.5,Vacaville,1376.0,,1982.0,26.0,262.0,485.0,Active,,,http://www.redfin.com/CA/Vacaville/299-Shasta-Dr-95687/unit-18/home/2388840,BAREIS,321096505,N,Y,38.3498058,-121.9724913
232,MLS Listing,,Single Family Residential,801 Meadowlark Dr,Fairfield,CA,94533,475000.0,4.0,3.0,Dover Terrace,1580.0,5663.0,1966.0,26.0,301.0,,Active,,,http://www.redfin.com/CA/Fairfield/801-Meadowlark-Dr-94533/home/2563972,BAREIS,321096148,N,Y,38.2674155,-122.0209228
233,MLS Listing,,Single Family Residential,525 Thomas Cir,Suisun City,CA,94585,475000.0,3.0,2.0,Suisun City,1143.0,7440.0,1986.0,26.0,416.0,,Active,,,http://www.redfin.com/CA/Suisun-City/525-Thomas-Cir-94585/home/2190321,BAREIS,321095216,N,Y,38.2590264,-122.0112632
234,MLS Listing,,Condo/Co-op,1457 N Camino Alto #207,Vallejo,CA,94589,239000.0,2.0,2.0,Vallejo,1028.0,,1973.0,26.0,232.0,307.0,Active,,,http://www.redfin.com/CA/Vallejo/1457-N-Camino-Alto-94589/unit-207/home/2387584,BAREIS,321085658,N,Y,38.1328368,-122.23897
235,MLS Listing,,Single Family Residential,3268 Seminole Cir,Fairfield,CA,94534,899000.0,4.0,3.0,Fairfield,2648.0,9348.0,1989.0,26.0,340.0,64.0,Active,,,http://www.redfin.com/CA/Fairfield/3268-Seminole-Cir-94534/home/2535237,BAREIS,321094121,N,Y,38.285239,-122.0714494
236,MLS Listing,,Mobile/Manufactured Home,2500 Springs Rd Spc 226,Vallejo,CA,94591,99900.0,3.0,1.0,Trailer City,600.0,,1968.0,27.0,167.0,,Active,,,http://www.redfin.com/CA/Vallejo/2500-Springs-Rd-94591/home/2612916,BAREIS,321096332,N,Y,38.1074059,-122.2104423
237,MLS Listing,,Mobile/Manufactured Home,300 East H St #166,Benicia,CA,94510,220000.0,3.0,2.0,Rancho Benicia,1440.0,,1974.0,27.0,153.0,790.0,Active,,,http://www.redfin.com/CA/Benicia/300-E-H-St-94510/unit-166/home/176661411,BAREIS,321095893,N,Y,38.0471939,-122.1535604
238,MLS Listing,,Condo/Co-op,157 Lands End Ct #157,Vallejo,CA,94591,365000.0,2.0,1.0,Vallejo,1092.0,1133.0,1985.0,27.0,334.0,366.0,Active,,,http://www.redfin.com/CA/Vallejo/157-Lands-End-Ct-94591/unit-157/home/2404322,BAREIS,321095406,N,Y,38.084509,-122.197693
239,MLS Listing,,Multi-Family (2-4 Unit),324 - 322 Webster St Unit A,Fairfield,CA,94533,699000.0,5.0,3.0,Fairfield,1868.0,3920.0,1880.0,27.0,374.0,,Active,,,http://www.redfin.com/CA/Fairfield/324-Webster-St-94533/unit-A/home/2158487,BAREIS,321096281,N,Y,38.2452209,-122.0428812
240,MLS Listing,,Single Family Residential,7529 Locke Rd,Vacaville,CA,95688,999000.0,3.0,2.0,Vacaville,1610.0,211702.0,1970.0,27.0,620.0,,Active,,,http://www.redfin.com/CA/Vacaville/7529-Locke-Rd-95688/home/2417216,MetroList,321096114,N,Y,38.4284659,-121.9489553
241,MLS Listing,,Single Family Residential,730 Corte Crestview,Vacaville,CA,95688,585000.0,3.0,2.0,Vacaville,1535.0,11326.0,1974.0,27.0,381.0,,Active,,,http://www.redfin.com/CA/Vacaville/730-Corte-Crestview-95688/home/2445690,BAREIS,321090859,N,Y,38.3747654,-122.0077101
242,MLS Listing,,Townhouse,165 Oddstad Dr #24,Vallejo,CA,94589,350000.0,2.0,2.0,Vallejo,1100.0,,1981.0,27.0,318.0,300.0,Active,,,http://www.redfin.com/CA/Vallejo/165-Oddstad-Dr-94589/unit-24/home/2392926,BAREIS,321091726,N,Y,38.1314644,-122.2427616
243,MLS Listing,,Condo/Co-op,1201 Glen Cove Pkwy #1101,Vallejo,CA,94591,370000.0,2.0,2.0,Glen Cove Landing,1014.0,,1992.0,28.0,365.0,451.0,Active,,,http://www.redfin.com/CA/Vallejo/1201-Glen-Cove-Pkwy-94591/unit-1101/home/2329271,BAREIS,321044804,N,Y,38.0683245,-122.2209289
244,MLS Listing,,Single Family Residential,5660 Blush Ct,Vallejo,CA,94591,699000.0,4.0,3.0,Northgate,1857.0,20133.0,1999.0,28.0,376.0,,Active,,,http://www.redfin.com/CA/Vallejo/5660-Blush-Ct-94591/home/2595979,"bridgeMLS, Bay East AOR, or Contra Costa AOR",40969767,N,Y,38.1293696,-122.1950691
245,MLS Listing,,Single Family Residential,515 Morgan St,Suisun City,CA,94585,649000.0,3.0,3.5,Suisun City,2445.0,3751.0,2007.0,28.0,265.0,,Active,,,http://www.redfin.com/CA/Suisun-City/515-Morgan-St-94585/home/17296945,BAREIS,321094615,N,Y,38.2370755,-122.0400395
246,MLS Listing,,Vacant Land,0 Pleasants Valley Rd #2,Vacaville,CA,95688,500000.0,0.0,,Vacaville,,839401.0,,29.0,,,Active,,,http://www.redfin.com/CA/Vacaville/8212-Pleasants-Valley-Rd-95688/unit-2/home/176652817,BAREIS,321094317,N,Y,38.4637908,-122.0498573
247,MLS Listing,,Vacant Land,0 Pleasants Valley Rd #1,Vacaville,CA,95688,450000.0,0.0,,Vacaville,,430373.0,,29.0,,,Active,,,http://www.redfin.com/CA/Vacaville/8212-Pleasants-Valley-Rd-95688/unit-1/home/176652799,BAREIS,321094293,N,Y,38.4637908,-122.0498573
248,MLS Listing,,Single Family Residential,551 Valley Lndg,Rio Vista,CA,94571,525000.0,2.0,2.0,Trilogy at Rio Vista,1837.0,6077.0,2016.0,29.0,286.0,225.0,Active,,,http://www.redfin.com/CA/Rio-Vista/551-Valley-Landing-Ln-94571/home/109537194,BAREIS,321095153,N,Y,38.1756037,-121.7046957
249,MLS Listing,,Single Family Residential,2811 Rose Ct,Fairfield,CA,94533,539999.0,3.0,2.0,Fairfield,1861.0,8712.0,1987.0,29.0,290.0,,Active,,,http://www.redfin.com/CA/Fairfield/2811-Rose-Ct-94533/home/2549257,BAREIS,321092707,N,Y,38.280326,-122.0394623
250,MLS Listing,,Single Family Residential,254 Clydesdale Dr,Vallejo,CA,94591,650000.0,4.0,2.5,Vallejo,1927.0,8712.0,1986.0,30.0,,,Active,,,http://www.redfin.com/CA/Vallejo/254-Clydesdale-Dr-94591/home/2332132,MetroList,321095164,N,Y,38.1267311,-122.216305
251,MLS Listing,,Single Family Residential,331 Dodini Ct,Suisun City,CA,94585,605000.0,3.0,2.5,Lawler Ranch,2206.0,7714.0,1990.0,30.0,274.0,,Active,,,http://www.redfin.com/CA/Suisun-City/331-Dodini-Ct-94585/home/2580326,BAREIS,321095097,N,Y,38.240498,-121.9996262
252,MLS Listing,,Single Family Residential,2590 Nut Tree Rd,Vacaville,CA,95687,425000.0,3.0,2.0,Vacaville,1395.0,2178.0,1987.0,31.0,,257.0,Active,,,http://www.redfin.com/CA/Vacaville/2590-Nut-Tree-Rd-95687/home/2389205,MetroList,321094937,N,Y,38.33458,-121.952854
253,MLS Listing,,Single Family Residential,620 Kingswood Ct,Fairfield,CA,94534,649900.0,4.0,2.5,Fairfield,1930.0,9148.0,1982.0,32.0,337.0,,Active,,,http://www.redfin.com/CA/Fairfield/620-Kingswood-Ct-94534/home/2588103,BAREIS,321093598,N,Y,38.1955122,-122.1433138
254,MLS Listing,,Single Family Residential,117 Carroll St,Vallejo,CA,94590,594900.0,3.0,1.0,Vallejo,1521.0,6098.0,1932.0,32.0,391.0,,Active,,,http://www.redfin.com/CA/Vallejo/117-Carroll-St-94590/home/2236374,BAREIS,321094834,N,Y,38.1123051,-122.2416142
255,MLS Listing,,Single Family Residential,9031 Indigo Ct,Vacaville,CA,95687,749000.0,4.0,3.0,Vacaville,2514.0,5715.0,2017.0,32.0,298.0,,Active,,,http://www.redfin.com/CA/Vacaville/9031-Indigo-Ct-95687/home/109536526,BAREIS,321094346,N,Y,38.325565,-121.9368374
256,MLS Listing,,Multi-Family (2-4 Unit),4993 Clayton Rd,Fairfield,CA,94534,2650000.0,4.0,3.0,Fairfield,5200.0,479160.0,2008.0,32.0,,,Active,,,http://www.redfin.com/CA/Fairfield/4993-Clayton-Rd-94534/home/18975797,MetroList,321090778,N,Y,38.289556,-122.101555
257,MLS Listing,,Multi-Family (2-4 Unit),727 Florida St,Vallejo,CA,94590,695000.0,5.0,3.0,Vallejo,2216.0,6499.0,1940.0,32.0,314.0,,Active,,,http://www.redfin.com/CA/Vallejo/727-Florida-St-94590/home/2231925,BAREIS,321094258,N,Y,38.1049034,-122.2540146
258,MLS Listing,,Single Family Residential,707 Goldcoast,Fairfield,CA,94533,529000.0,3.0,2.0,Dover South,1342.0,6970.0,1978.0,32.0,394.0,,Active,,,http://www.redfin.com/CA/Fairfield/707-Gold-Coast-Dr-94533/home/2558446,"bridgeMLS, Bay East AOR, or Contra Costa AOR",40969341,N,Y,38.2741075,-122.0244533
259,MLS Listing,,Single Family Residential,915 W 8th St,Benicia,CA,94510,1078000.0,3.0,3.5,Benicia,2289.0,6098.0,1943.0,32.0,471.0,,Active,,,http://www.redfin.com/CA/Benicia/915-W-8th-St-94510/home/2377095,BAREIS,321093449,N,Y,38.0583091,-122.1717889
260,MLS Listing,,Single Family Residential,244 Cloverleaf,Suisun City,CA,94585,491000.0,3.0,2.5,Suisun City,1158.0,2862.0,1993.0,32.0,424.0,,Active,,,http://www.redfin.com/CA/Suisun-City/244-Cloverleaf-Cir-94585/home/2583163,BAREIS,321094523,N,Y,38.248173,-122.023431
261,MLS Listing,,Mobile/Manufactured Home,26 Starboard Dr,Suisun City,CA,94585,210000.0,3.0,2.0,Seabreeze Park,1200.0,,2004.0,32.0,175.0,,Active,,,http://www.redfin.com/CA/Suisun-City/26-Starboard-Dr-94585/home/2627299,BAREIS,321094021,N,Y,38.2439176,-122.0375232
262,MLS Listing,,Mobile/Manufactured Home,300 - 180 East H,Benicia,CA,94510,220000.0,2.0,2.0,Rancho Benicia,1240.0,,1977.0,32.0,177.0,881.0,Active,,,http://www.redfin.com/CA/Benicia/300-E-H-St-94510/home/2611053,BAREIS,321093450,N,Y,38.0471939,-122.1535604
263,MLS Listing,,Single Family Residential,2184 Vineyard Hills Ct,Vacaville,CA,95688,1275000.0,4.0,4.0,Vineyard Hills Estates,3114.0,21610.0,2001.0,32.0,409.0,,Active,,,http://www.redfin.com/CA/Vacaville/2184-Vineyard-Hills-Ct-95688/home/2142950,BAREIS,321093549,N,Y,38.3705173,-121.9871662
264,MLS Listing,,Vacant Land,3872 Ciarlo Ln,Vacaville,CA,95688,439000.0,0.0,,Vacaville,,390298.0,,32.0,,,Active,,,http://www.redfin.com/CA/Vacaville/3872-Ciarlo-Ln-95688/home/22589200,BAREIS,321091030,N,Y,38.431785,-122.013352
265,MLS Listing,,Single Family Residential,1320 E Greenmont Dr,Vallejo,CA,94591,745000.0,4.0,3.0,Vallejo,2248.0,9583.0,1980.0,32.0,331.0,,Active,,,http://www.redfin.com/CA/Vallejo/1320-Greenmont-Dr-94591/home/2308499,BAREIS,321093506,N,Y,38.0925533,-122.201764
266,MLS Listing,,Vacant Land,3874 Ciarlo Ln,Vacaville,CA,95688,719000.0,0.0,,Vacaville,,827640.0,,32.0,,,Active,,,http://www.redfin.com/CA/Vacaville/3874-Ciarlo-Ln-95688/home/22582664,BAREIS,321091550,N,Y,38.434206,-122.013552
267,MLS Listing,,Single Family Residential,4026 Blackthorn Dr,Vacaville,CA,95688,1275000.0,4.0,3.5,Vacaville,3570.0,228254.0,1994.0,33.0,357.0,,Active,November-6-2021 01:00 PM,November-6-2021 04:00 PM,http://www.redfin.com/CA/Vacaville/4026-Blackthorn-Dr-95688/home/2415930,BAREIS,321076710,N,Y,38.4255452,-122.0026244
268,MLS Listing,,Single Family Residential,1625 Harrisburg Ln,Suisun City,CA,94585,705000.0,4.0,3.5,Suisun City,2695.0,6970.0,2006.0,33.0,262.0,,Active,,,http://www.redfin.com/CA/Suisun-City/1625-Harrisburgh-Ln-94585/home/22592529,BAREIS,321094198,N,Y,38.263456,-121.9835012
269,MLS Listing,,Single Family Residential,520 2nd St,Rio Vista,CA,94571,600000.0,4.0,2.5,Rio Vista,2878.0,7405.0,1914.0,33.0,,,Active,,,http://www.redfin.com/CA/Rio-Vista/520-S-2nd-St-94571/home/2199624,MetroList,321094071,N,Y,38.1524977,-121.6949845
270,MLS Listing,,Single Family Residential,100 Hilborn St,Vallejo,CA,94590,478800.0,2.0,1.0,Vallejo,810.0,4530.0,1960.0,33.0,591.0,,Active,,,http://www.redfin.com/CA/Vallejo/100-Hilborn-St-94590/home/2204087,BAREIS,321093781,N,Y,38.1136613,-122.2656324
271,MLS Listing,,Single Family Residential,313 Parkwood Dr,Vallejo,CA,94591,575000.0,4.0,2.0,Vallejo,1266.0,,1955.0,33.0,454.0,,Active,,,http://www.redfin.com/CA/Vallejo/313-Parkwood-Dr-94591/home/2288343,BAREIS,321094005,N,Y,38.1076342,-122.2127586
272,MLS Listing,,Multi-Family (2-4 Unit),542 - 544 Grant St,Vallejo,CA,94590,699000.0,5.0,2.0,Vallejo,2459.0,10001.0,1900.0,33.0,284.0,,Active,,,http://www.redfin.com/CA/Vallejo/542-Grant-St-94590/home/2249339,BAREIS,321092835,N,Y,38.0888454,-122.2428369
273,MLS Listing,,Single Family Residential,109 Ardmore Way,Benicia,CA,94510,739000.0,4.0,2.5,Benicia,1853.0,9148.0,1969.0,34.0,399.0,40.0,Active,,,http://www.redfin.com/CA/Benicia/109-Ardmore-Way-94510/home/2368108,BAREIS,321090982,N,Y,38.0671095,-122.1609675
274,MLS Listing,,Single Family Residential,4527 Crimson Clover,Fairfield,CA,94534,749900.0,6.0,3.0,Serenade,2501.0,4182.0,2010.0,34.0,300.0,,Active,,,http://www.redfin.com/CA/Fairfield/4527-Crimson-Clover-Dr-94534/home/28899457,BAREIS,321088933,N,Y,38.1663066,-122.125391
275,MLS Listing,,Single Family Residential,552 Admiral Callaghan Ln,Vallejo,CA,94591,569000.0,3.0,2.0,Vallejo,2514.0,10890.0,1938.0,34.0,226.0,,Active,,,http://www.redfin.com/CA/Vallejo/552-Admiral-Callaghan-Ln-94591/home/2283704,BAREIS,321087047,N,Y,38.1197915,-122.2291598
276,MLS Listing,,Single Family Residential,2251 Reunion Ln,Rio Vista,CA,94571,450000.0,2.0,2.5,Rio Vista,1446.0,5000.0,2021.0,35.0,311.0,300.0,Active,,,http://www.redfin.com/CA/Rio-Vista/2251-Reunion-Ln-94571/home/22578196,"bridgeMLS, Bay East AOR, or Contra Costa AOR",40968868,N,Y,38.202136,-121.717466
277,MLS Listing,,Single Family Residential,225 Cristy Pl,Dixon,CA,95620,629000.0,4.0,3.0,Dixon,2379.0,11326.0,1969.0,35.0,264.0,,Active,,,http://www.redfin.com/CA/Dixon/225-Cristy-Pl-95620/home/2425452,BAREIS,321093194,N,Y,38.4468923,-121.8340874
278,MLS Listing,,Single Family Residential,3738 Morningbird,Vacaville,CA,95688,1450000.0,3.0,3.0,Vacaville,3684.0,979229.0,1990.0,36.0,394.0,,Active,,,http://www.redfin.com/CA/Vacaville/3738-Morningbird-Ln-95688/home/2440002,BAREIS,321075226,N,Y,38.393237,-122.018579
279,MLS Listing,,Single Family Residential,1130 Kellogg St,Suisun City,CA,94585,717000.0,4.0,3.0,Delta Cove,2849.0,4487.0,2003.0,36.0,252.0,,Active,,,http://www.redfin.com/CA/Suisun-City/1130-Kellogg-St-94585/home/2605485,BAREIS,321092858,N,Y,38.2351308,-122.0392403
280,MLS Listing,,Single Family Residential,1728 Dover Cir,SUISUN CITY,CA,94585,680000.0,4.0,3.5,SUISUN CITY,2695.0,10454.0,2005.0,38.0,252.0,,Active,,,http://www.redfin.com/CA/Suisun-City/1728-Dover-Cir-94585/home/2623680,MLSListings,ML81864294,N,Y,38.2564435,-121.9875438
281,MLS Listing,,Single Family Residential,3012 Waring Pl,FAIRFIELD,CA,94533,783000.0,4.0,3.5,FAIRFIELD,3561.0,8712.0,1988.0,38.0,220.0,,Active,,,http://www.redfin.com/CA/Fairfield/3012-Waring-Pl-94533/home/2555033,MLSListings,ML81864289,N,Y,38.2850291,-122.03107
282,MLS Listing,,Single Family Residential,2448 Baltic Dr,Fairfield,CA,94533,429000.0,3.0,1.5,Fairfield,1256.0,3485.0,1973.0,39.0,342.0,,Active,,,http://www.redfin.com/CA/Fairfield/2448-Baltic-Dr-94533/home/2559153,BAREIS,321091486,N,Y,38.2751697,-122.0189799
283,MLS Listing,,Single Family Residential,1261 Valley Gln,Dixon,CA,95620,600000.0,3.0,2.5,Dixon,1808.0,,2005.0,39.0,332.0,,Active,,,http://www.redfin.com/CA/Dixon/1261-Valley-Glen-Dr-95620/home/2621537,MetroList,321092412,N,Y,38.434377,-121.828036
284,MLS Listing,,Single Family Residential,1140 Columbia,Dixon,CA,95620,700000.0,4.0,3.0,Dixon,2589.0,,2017.0,39.0,270.0,,Active,,,http://www.redfin.com/CA/Dixon/1140-Columbia-Dr-95620/home/103686896,MetroList,321092400,N,Y,38.4341178,-121.8176711
285,MLS Listing,,Single Family Residential,95 Alexander Way,Suisun City,CA,94585,535000.0,4.0,2.0,Suisun City,1506.0,5663.0,1976.0,39.0,355.0,,Active,,,http://www.redfin.com/CA/Suisun-City/95-Alexander-Way-94585/home/2171623,MetroList,321092404,N,Y,38.2456888,-122.0257412
286,MLS Listing,,Single Family Residential,1347 Encore Dr,Fairfield,CA,94534,665000.0,4.0,2.5,Fairfield,2283.0,3001.0,2015.0,39.0,291.0,,Active,,,http://www.redfin.com/CA/Fairfield/1347-Encore-Dr-94534/home/100990656,MetroList,321091931,N,Y,38.1803648,-122.1364808
287,MLS Listing,,Single Family Residential,1275 Grizzly Island Rd,Fairfield,CA,94585,1550000.0,7.0,4.0,Fairfield,2960.0,14485007.0,,39.0,524.0,,Active,,,http://www.redfin.com/CA/Suisun-City/1275-Grizzly-Island-Rd-94585/home/77465475,BAREIS,321088500,N,Y,38.2416564,-122.0201598
288,MLS Listing,,Single Family Residential,130 Bald Eagle Dr,Vacaville,CA,95688,699900.0,5.0,3.0,Glen Eagle Ranch,2641.0,8359.0,1991.0,39.0,265.0,,Active,,,http://www.redfin.com/CA/Vacaville/130-Bald-Eagle-Dr-95688/home/2441944,BAREIS,321089972,N,Y,38.387759,-121.9809245
289,MLS Listing,,Condo/Co-op,457 Alamo Creek Ct Unit E,Vacaville,CA,95688,409500.0,3.0,2.5,Vacaville,1258.0,,1974.0,39.0,326.0,450.0,Active,,,http://www.redfin.com/CA/Vacaville/457-Alamo-Creek-Ct-95688/unit-E/home/2383712,BAREIS,321091556,N,Y,38.3543245,-122.0060223
290,MLS Listing,,Single Family Residential,4369 The Masters Dr,Fairfield,CA,94533,619900.0,3.0,2.5,Fairfield,1795.0,3171.0,2005.0,40.0,345.0,38.0,Active,,,http://www.redfin.com/CA/Fairfield/4369-The-Masters-Dr-94533/home/2614248,MetroList,321092029,N,Y,38.2977553,-122.0276063
291,MLS Listing,,Single Family Residential,213 Hermosa Ave,Vallejo,CA,94589,450000.0,2.0,1.0,Vallejo,952.0,5663.0,1942.0,40.0,473.0,,Active,,,http://www.redfin.com/CA/Vallejo/213-Hermosa-Ave-94589/home/2213974,BAREIS,321092028,N,Y,38.1246013,-122.2472426
292,MLS Listing,,Single Family Residential,650 Paintbrush St,Dixon,CA,95620,639000.0,4.0,2.0,Dixon,2317.0,7150.0,,40.0,276.0,60.0,Active,,,http://www.redfin.com/CA/DIXON/650-PAINTBRUSH-ST-95620/home/173641119,MetroList,321091989,N,Y,38.441,-121.8252
293,MLS Listing,,Multi-Family (2-4 Unit),1001 Grant St,Vallejo,CA,94590,505000.0,4.0,2.0,Vallejo,1578.0,5563.0,1964.0,40.0,320.0,,Active,,,http://www.redfin.com/CA/Vallejo/1001-Grant-St-94590/home/2252616,San Francisco MLS,321091826,N,Y,38.0826495,-122.2378913
294,MLS Listing,,Single Family Residential,326 Greenfield Ave,Vallejo,CA,94590,550000.0,3.0,2.0,Vallejo,1192.0,7841.0,1942.0,40.0,,,Active,,,http://www.redfin.com/CA/Vallejo/326-Greenfield-Ave-94590/home/2219674,MetroList,321086932,N,Y,38.1222505,-122.2310325
295,MLS Listing,,Single Family Residential,319 Parkwood Dr,Vallejo,CA,94591,550000.0,3.0,2.0,Vallejo,1166.0,4792.0,1955.0,41.0,472.0,,Active,,,http://www.redfin.com/CA/Vallejo/319-Parkwood-Dr-94591/home/2288341,BAREIS,321091557,N,Y,38.1077826,-122.2127586
296,MLS Listing,,Single Family Residential,1268 Sereno Dr,Vallejo,CA,94589,580000.0,3.0,2.0,Vallejo,1440.0,7405.0,1959.0,41.0,403.0,,Active,,,http://www.redfin.com/CA/Vallejo/1268-Sereno-Dr-94589/home/2212763,BAREIS,321091540,N,Y,38.1293165,-122.2398414
297,MLS Listing,,Single Family Residential,349 Franklin Ct,Vacaville,CA,95687,599500.0,3.0,2.0,Vacaville,1296.0,8276.0,1978.0,41.0,463.0,,Active,,,http://www.redfin.com/CA/Vacaville/349-Franklin-Ct-95687/home/2497342,BAREIS,321091231,N,Y,38.3372242,-121.9478221
298,MLS Listing,,Single Family Residential,106 Camino Del Sol,Vallejo,CA,94591,698000.0,3.0,2.5,Vallejo,1982.0,4221.0,1991.0,41.0,352.0,355.0,Active,,,http://www.redfin.com/CA/Vallejo/106-Cam-Del-Sol-94591/home/2328210,BAREIS,321091287,N,Y,38.0695262,-122.2110297
299,MLS Listing,,Multi-Family (2-4 Unit),640 Indiana St,Vallejo,CA,94590-4412,549000.0,5.0,2.0,Vallejo,1800.0,2177.0,1909.0,41.0,305.0,,Active,,,http://www.redfin.com/CA/Vallejo/640-Indiana-St-94590/home/2228355,"bridgeMLS, Bay East AOR, or Contra Costa AOR",40968106,N,Y,38.1111399,-122.2534689
300,MLS Listing,,Single Family Residential,1150 Mulberry Ln,Dixon,CA,95620,589000.0,3.0,2.0,Dixon,2019.0,7405.0,1978.0,41.0,292.0,,Active,,,http://www.redfin.com/CA/Dixon/1150-Mulberry-Ln-95620/home/2136261,BAREIS,321091298,N,Y,38.4454833,-121.8381392
301,MLS Listing,,Multi-Family (2-4 Unit),8495 Freedom Ln,Winters,CA,95694,1785000.0,5.0,4.0,Winters,5077.0,435600.0,2010.0,41.0,,,Active,,,http://www.redfin.com/CA/Winters/8495-Freedom-Ln-95694/home/2135531,MetroList,321090829,N,Y,38.481584,-121.941339
302,MLS Listing,,Single Family Residential,22 La Cruz Ave,Benicia,CA,94510,530000.0,3.0,1.0,Benicia,1019.0,5663.0,1943.0,41.0,520.0,,Active,,,http://www.redfin.com/CA/Benicia/22-La-Cruz-Ave-94510/home/2373291,BAREIS,321090361,N,Y,38.0613515,-122.1462415
303,MLS Listing,,Single Family Residential,536 Deodara St,Vacaville,CA,95688,460000.0,3.0,2.0,Montgomery Estates,1168.0,5227.0,1956.0,42.0,394.0,,Active,,,http://www.redfin.com/CA/Vacaville/536-Deodara-St-95688/home/2449517,BAREIS,321090404,N,Y,38.362118,-122.0062666
304,MLS Listing,,Single Family Residential,2417 Sonoma Blvd,Vallejo,CA,94590,543000.0,4.0,2.0,Vallejo,1856.0,3001.0,1907.0,42.0,293.0,,Active,,,http://www.redfin.com/CA/Vallejo/2417-Sonoma-Blvd-94590/home/2128742,BAREIS,321090996,N,Y,38.1085992,-122.255042
305,MLS Listing,,Single Family Residential,5381 Hawkins Rd,Vacaville,CA,95687,615000.0,2.0,2.0,Vacaville,1648.0,104544.0,1900.0,42.0,373.0,,Active,,,http://www.redfin.com/CA/Vacaville/5381-Hawkins-Rd-95687/home/2523254,BAREIS,321085778,N,Y,38.359892,-121.908185
306,MLS Listing,,Condo/Co-op,13 Fairway Pl,Fairfield,CA,94534,649000.0,2.0,2.0,Fairfield,1366.0,2613.0,1978.0,42.0,475.0,735.0,Active,,,http://www.redfin.com/CA/FAIRFIELD/13-FAIRWAY-PL-94534/home/2134524,"bridgeMLS, Bay East AOR, or Contra Costa AOR",40967899,N,Y,38.261351,-122.165064
307,MLS Listing,,Single Family Residential,160 Emily St,Vallejo,CA,94589,630000.0,4.0,2.5,Cimarron Hills,2410.0,6970.0,1984.0,43.0,261.0,,Active,,,http://www.redfin.com/CA/Vallejo/160-Emily-St-94589/home/2275536,BAREIS,321090308,N,Y,38.15419,-122.2338138
308,MLS Listing,,Multi-Family (2-4 Unit),1312 - 1314 Marin St,Vallejo,CA,94590,875000.0,6.0,3.5,Vallejo,3270.0,4500.0,1915.0,45.0,268.0,,Active,,,http://www.redfin.com/CA/Vallejo/1312-Marin-St-94590/home/2229354,BAREIS,321090248,N,Y,38.1084433,-122.2562163
309,MLS Listing,,Vacant Land,4699 E Ryer Island Rd E,Walnut Grove,CA,95690,1950000.0,0.0,,Walnut Grove,,5942020.0,,45.0,,,Active,,,http://www.redfin.com/CA/Walnut-Grove/4699-E-Ryer-Rd-95690/home/176466321,MetroList,321083169,N,Y,38.26995,-121.608623
310,MLS Listing,,Townhouse,26 Del Prado Cir,Fairfield,CA,94533,399999.0,3.0,2.5,Fairfield,1234.0,,,45.0,324.0,123.0,Active,,,http://www.redfin.com/CA/Fairfield/26-Del-Prado-Cir-94533/home/2394081,BAREIS,321087453,N,Y,38.2699586,-122.0518498
311,MLS Listing,,Single Family Residential,854 Fernbrook Ct,Vacaville,CA,95687,875000.0,4.0,3.0,Vacaville,4084.0,8999.0,1997.0,45.0,214.0,,Active,,,http://www.redfin.com/CA/Vacaville/854-Fernbrook-Ct-95687/home/2521451,BAREIS,321083583,N,Y,38.3214174,-121.9535102
312,MLS Listing,,Single Family Residential,4788 Brookside Cir,Fairfield,CA,94534,679000.0,4.0,2.5,Fairfield,1686.0,6220.0,1993.0,46.0,,,Active,,,http://www.redfin.com/CA/Fairfield/4788-Brookside-Cir-94534/home/2591490,MetroList,321090004,N,Y,38.1737369,-122.1361716
313,MLS Listing,,Single Family Residential,2260 Silver Fox Cir,Fairfield,CA,94534,705000.0,4.0,3.0,Fairfield,2551.0,9757.0,1989.0,46.0,276.0,,Active,,,http://www.redfin.com/CA/Fairfield/2260-Silver-Fox-Cir-94534/home/2546223,BAREIS,321089871,N,Y,38.2833085,-122.0491416
314,MLS Listing,,Single Family Residential,458 El Rancho Ct,Fairfield,CA,94533,645000.0,3.0,2.0,Fairfield,1966.0,11953.0,1990.0,46.0,328.0,,Active,,,http://www.redfin.com/CA/Fairfield/458-El-Rancho-Ct-94533/home/2552684,BAREIS,321089710,N,Y,38.290234,-122.0308923
315,MLS Listing,,Single Family Residential,2101 Pennsylvania Ave,Fairfield,CA,94533,524900.0,3.0,2.0,Fairfield,1160.0,5663.0,1966.0,47.0,453.0,,Active,,,http://www.redfin.com/CA/Fairfield/2101-Pennsylvania-Ave-94533/home/2184952,BAREIS,321084003,N,Y,38.2675173,-122.0502515
316,MLS Listing,,Single Family Residential,2306 Alameda St,Vallejo,CA,94590,699000.0,5.0,3.0,Vista De Vallejo,2694.0,6098.0,1981.0,47.0,259.0,,Active,,,http://www.redfin.com/CA/Vallejo/2306-Alameda-St-94590/home/2218199,"bridgeMLS, Bay East AOR, or Contra Costa AOR",40967419,N,Y,38.119189,-122.2475971
317,MLS Listing,,Mobile/Manufactured Home,3859 Joslin Ln,Vacaville,CA,95688,998000.0,3.0,2.0,Vacaville,1791.0,849420.0,2010.0,47.0,557.0,,Active,,,http://www.redfin.com/CA/Vacaville/3859-Joslin-Ln-95688/home/2415695,BAREIS,321088220,N,Y,38.40338,-122.016719
318,MLS Listing,,Single Family Residential,217 Canterbury Dr,Vallejo,CA,94591,749000.0,6.0,3.0,Vallejo,2301.0,6691.0,1989.0,47.0,326.0,,Active,,,http://www.redfin.com/CA/Vallejo/217-Canterbury-Dr-94591/home/2348140,BAREIS,321085843,N,Y,38.1069659,-122.194803
319,MLS Listing,,Single Family Residential,1749 Kolob Dr,Fairfield,CA,94534,868000.0,5.0,2.5,Fairfield,3486.0,8276.0,1987.0,47.0,249.0,,Active,,,http://www.redfin.com/CA/Fairfield/1749-Kolob-Dr-94534/home/2542167,BAREIS,321086005,N,Y,38.264731,-122.070717
320,MLS Listing,,Vacant Land,0 Gates Canyon Rd,Vacaville,CA,95688,175000.0,0.0,,Vacaville,,222156.0,,47.0,,,Active,,,http://www.redfin.com/CA/Vacaville/0-000-Gates-Canyon-Rd-95688/home/166868015,MetroList,321088960,N,Y,38.361134,-122.072174
321,MLS Listing,,Single Family Residential,863 Derry Cir,Vacaville,CA,95688,665000.0,3.0,2.5,Vacaville,2262.0,7658.0,1990.0,48.0,294.0,,Active,,,http://www.redfin.com/CA/Vacaville/863-Derry-Cir-95688/home/2483825,BAREIS,321088368,N,Y,38.3865858,-121.9719945
322,MLS Listing,,Single Family Residential,549 Stinson,Vacaville,CA,95688,589000.0,3.0,2.0,Burton Ranch,1870.0,8002.0,1989.0,48.0,315.0,,Active,,,http://www.redfin.com/CA/Vacaville/549-Stinson-Ave-95688/home/2453208,BAREIS,321088609,N,Y,38.3685409,-121.998538
323,MLS Listing,,Single Family Residential,215 E Chestnut St,Dixon,CA,95620,485000.0,3.0,2.0,Dixon,1436.0,5663.0,1963.0,49.0,338.0,,Active,,,http://www.redfin.com/CA/Dixon/215-E-Chestnut-St-95620/home/2437527,BAREIS,321088219,N,Y,38.4420322,-121.8210747
324,MLS Listing,,Single Family Residential,368 W K St,Benicia,CA,94510,787000.0,3.0,2.0,Benicia,1360.0,4356.0,1965.0,49.0,579.0,,Active,,,http://www.redfin.com/CA/Benicia/368-W-K-St-94510/home/2367282,BAREIS,321087395,N,Y,38.0553482,-122.1618989
325,MLS Listing,,Single Family Residential,124 Hillview Dr,Vacaville,CA,95688,949950.0,4.0,2.5,Alamo Terrace,2451.0,8712.0,1983.0,49.0,388.0,,Active,,,http://www.redfin.com/CA/Vacaville/124-Hillview-Dr-95688/home/2457301,BAREIS,321087857,N,Y,38.3491383,-122.0046898
326,MLS Listing,,Single Family Residential,2856 Rebecca Dr,Fairfield,CA,94533,900000.0,4.0,4.0,Horseshoe Lakes,3259.0,6512.0,2001.0,49.0,276.0,40.0,Active,,,http://www.redfin.com/CA/Fairfield/2856-Rebecca-Dr-94533/home/2607866,BAREIS,321082756,N,Y,38.2809514,-122.0058142
327,MLS Listing,,Condo/Co-op,138 Warwick Dr #86,Benicia,CA,94510,349000.0,2.0,1.5,Benicia,1012.0,435.0,1972.0,49.0,345.0,480.0,Active,,,http://www.redfin.com/CA/Benicia/138-Warwick-Dr-94510/unit-86/home/17296695,"bridgeMLS, Bay East AOR, or Contra Costa AOR",40967037,N,Y,38.063608,-122.158847
328,MLS Listing,,Single Family Residential,845 Rosewood Ave,Vallejo,CA,94591,529900.0,3.0,2.0,Vallejo,1176.0,6970.0,1953.0,50.0,,,Active,,,http://www.redfin.com/CA/Vallejo/845-Rosewood-Ave-94591/home/2293474,MetroList,321088132,N,Y,38.1014891,-122.2163494
329,MLS Listing,,Single Family Residential,2030 Twin Sisters Rd,Fairfield,CA,94534,1395000.0,4.0,2.5,Fairfield,3072.0,788436.0,1978.0,51.0,454.0,,Active,,,http://www.redfin.com/CA/Fairfield/2030-Twin-Sisters-Rd-94534/home/2530139,BAREIS,321085653,N,Y,38.296118,-122.140598
330,MLS Listing,,Single Family Residential,420 Canyon Ct,Benicia,CA,94510,850000.0,4.0,2.0,Benicia,1536.0,8276.0,1980.0,51.0,553.0,,Active,,,http://www.redfin.com/CA/Benicia/420-Canyon-Ct-94510/home/2371243,BAREIS,321087858,N,Y,38.0649553,-122.1562217
331,MLS Listing,,Single Family Residential,108 Roney Ave,Vallejo,CA,94590,495000.0,4.0,3.0,Vallejo,1590.0,5994.0,1920.0,53.0,,,Active,,,http://www.redfin.com/CA/Vallejo/108-Roney-Ave-94590/home/2245949,MetroList,321087660,N,Y,38.099435,-122.2343288
332,MLS Listing,,Condo/Co-op,72 Calhoun St,Vallejo,CA,94590,349990.0,3.0,1.5,Vallejo,1152.0,,1980.0,53.0,304.0,298.0,Active,,,http://www.redfin.com/CA/Vallejo/72-Calhoun-St-94590/home/2388212,BAREIS,321087605,N,Y,38.120109,-122.265685
333,MLS Listing,,Condo/Co-op,1625 Park Ln #24,Fairfield,CA,94533,210000.0,2.0,1.0,Fairfield,794.0,,1974.0,53.0,264.0,332.0,Active,,,http://www.redfin.com/CA/Fairfield/1625-Park-Ln-94533/unit-24/home/2395758,BAREIS,321086933,N,Y,38.2470018,-122.0570664
334,MLS Listing,,Single Family Residential,383 Warwick,Benicia,CA,94510,770000.0,3.0,2.0,Benicia,1412.0,9583.0,1980.0,53.0,545.0,,Active,,,http://www.redfin.com/CA/Benicia/383-Warwick-Dr-94510/home/2371361,BAREIS,321084779,N,Y,38.0636484,-122.1564878
335,MLS Listing,,Single Family Residential,6050 N Vine St,Vacaville,CA,95688,1645000.0,4.0,3.5,Vacaville,3263.0,66211.0,2005.0,55.0,504.0,125.0,Active,,,http://www.redfin.com/CA/Vacaville/6050-N-Vine-St-95688/home/2444498,BAREIS,321085790,N,Y,38.3794246,-121.9919638
336,MLS Listing,,Single Family Residential,405 Fountain Way,Dixon,CA,95620,649900.0,5.0,3.0,Dixon,2465.0,7013.0,1991.0,55.0,264.0,,Active,,,http://www.redfin.com/CA/Dixon/405-Fountain-Way-95620/home/2429776,BAREIS,321085949,N,Y,38.4588033,-121.8255459
337,MLS Listing,,Single Family Residential,4159 Summer Gate Ave,Vallejo,CA,94591,748000.0,3.0,3.0,The Village,2442.0,4591.0,2003.0,56.0,306.0,125.0,Active,,,http://www.redfin.com/CA/Vallejo/4159-Summer-Gate-Ave-94591/home/2608894,"bridgeMLS, Bay East AOR, or Contra Costa AOR",40966161,N,Y,38.1578218,-122.1784409
338,MLS Listing,,Condo/Co-op,1801 Marshall Rd #202,Vacaville,CA,95687,320000.0,2.0,2.0,Vacaville,948.0,,1986.0,56.0,338.0,385.0,Active,,,http://www.redfin.com/CA/Vacaville/1801-Marshall-Rd-95687/unit-202/home/2407985,BAREIS,321084500,N,Y,38.3456041,-121.9528659
339,MLS Listing,,Vacant Land,4144 Green Valley Rd,Fairfield,CA,94534,2995000.0,0.0,,Fairfield,,1308107.0,,57.0,,,Active,,,http://www.redfin.com/CA/Fairfield/4144-Green-Valley-Rd-94534/home/17296952,BAREIS,321085554,N,Y,38.2442633,-122.1538519
340,MLS Listing,,Single Family Residential,233 W Monte Vista Ave,Vacaville,CA,95688,467000.0,3.0,1.0,Vacaville,1002.0,6098.0,1954.0,57.0,466.0,,Active,,,http://www.redfin.com/CA/Vacaville/233-W-Monte-Vista-Ave-95688/home/2465196,BAREIS,321081865,N,Y,38.3588923,-121.994444
341,MLS Listing,,Vacant Land,1092 Collinsville Rd,Birds Landing,CA,94585,75000.0,0.0,,Birds Landing,,6970.0,,59.0,,,Active,,,http://www.redfin.com/CA/Birds-Landing/1092-Collinsville-Rd-94585/home/2379964,BAREIS,321085271,N,Y,38.07578,-121.850062
342,MLS Listing,,Multi-Family (2-4 Unit),1219 Solano Ave,Vallejo,CA,94590,640000.0,0.0,,Vallejo,2288.0,4199.0,1918.0,59.0,280.0,,Active,,,http://www.redfin.com/CA/Vallejo/1219-Solano-Ave-94590/home/2244174,BAREIS,321085253,N,Y,38.0990927,-122.2427222
343,MLS Listing,,Mobile/Manufactured Home,69 Lemon Tree,Vacaville,CA,95687,99000.0,2.0,2.0,Lemon Tree,1400.0,,1974.0,60.0,71.0,750.0,Active,,,http://www.redfin.com/CA/Vacaville/69-Lemon-Tree-Cir-95687/home/62640384,BAREIS,321085095,N,Y,38.3696544,-121.9490442
344,MLS Listing,,Single Family Residential,3006 Chardonnay Ct,Vacaville,CA,95688,1495000.0,5.0,3.5,Vacaville,4620.0,20874.0,2006.0,60.0,324.0,162.0,Active,,,http://www.redfin.com/CA/Vacaville/3006-Chardonnay-Ct-95688/home/12226979,BAREIS,321081035,N,Y,38.3626347,-121.9865442
345,MLS Listing,,Single Family Residential,201 Barcelona St,Vallejo,CA,94591,720000.0,5.0,3.0,Granada Hills,2688.0,10454.0,1969.0,60.0,268.0,,Active,,,http://www.redfin.com/CA/Vallejo/201-Barcelona-St-94591/home/2306022,BAREIS,321079731,N,Y,38.0938576,-122.2052664
346,MLS Listing,,Single Family Residential,780 Antiquity Dr,Fairfield,CA,94534,938800.0,5.0,3.0,Fairfield,3151.0,10960.0,2000.0,61.0,298.0,,Active,November-5-2021 04:00 PM,November-5-2021 06:00 PM,http://www.redfin.com/CA/Fairfield/780-Antiquity-Dr-94534/home/2528865,BAREIS,321059593,N,Y,38.2241243,-122.1563104
347,MLS Listing,,Single Family Residential,167 Hillview Dr,Vacaville,CA,95688,1099000.0,5.0,3.0,Vacaville,2886.0,8712.0,1983.0,61.0,381.0,,Active,,,http://www.redfin.com/CA/Vacaville/167-Hillview-Dr-95688/home/2457352,BAREIS,321082951,N,Y,38.3492468,-122.0057336
348,MLS Listing,,Vacant Land,25 Burnham St,Vallejo,CA,94590,175000.0,,,Vallejo,,5000.0,,62.0,,,Active,,,http://www.redfin.com/CA/Vallejo/25-Burnham-St-94590/home/22585578,"bridgeMLS, Bay East AOR, or Contra Costa AOR",40960830,N,Y,38.1159777,-122.2652263
349,MLS Listing,,Single Family Residential,8056 Carlisle Way,Vallejo,CA,94591,703990.0,4.0,2.5,Reflections At Hiddenbrook,2245.0,6652.0,2004.0,62.0,314.0,108.0,Active,,,http://www.redfin.com/CA/Vallejo/8056-Carlisle-Way-94591/home/22591380,BAREIS,321083933,N,Y,38.1601609,-122.1847011
350,MLS Listing,,Single Family Residential,1106 Kellogg St,Suisun City,CA,94585,780000.0,2.0,3.0,Suisun City,2967.0,4487.0,2002.0,62.0,263.0,,Active,,,http://www.redfin.com/CA/Suisun-City/1106-Kellogg-St-94585/home/2605475,BAREIS,321083521,N,Y,38.2356129,-122.0392403
351,MLS Listing,,Single Family Residential,149 Plov Way,Vallejo,CA,94590,599900.0,4.0,2.0,Vallejo,1734.0,5475.0,1942.0,62.0,346.0,,Active,,,http://www.redfin.com/CA/Vallejo/149-Plov-Way-94590/home/2202844,BAREIS,321080498,N,Y,38.1180269,-122.2673605
352,MLS Listing,,Multi-Family (2-4 Unit),745 - 745 1/2 Indiana St,Vallejo,CA,94590,599000.0,3.0,1.0,Vallejo,1800.0,4840.0,1924.0,63.0,333.0,,Active,,,http://www.redfin.com/CA/Vallejo/745-Indiana-St-94590/home/2228640,BAREIS,321082950,N,Y,38.110754,-122.2517628
353,MLS Listing,,Single Family Residential,941 Madrone Ave,Vallejo,CA,94592,699950.0,3.0,2.5,Vallejo,2645.0,3999.0,2005.0,63.0,265.0,,Active,,,http://www.redfin.com/CA/Vallejo/941-Madrone-Ave-94592/home/12246620,BAREIS,321083614,N,Y,38.0945877,-122.2728474
354,MLS Listing,,Single Family Residential,146 - 146 Cypress Ave,Vallejo,CA,94590,475000.0,3.0,2.0,Vallejo,1348.0,4356.0,1957.0,66.0,352.0,,Active,,,http://www.redfin.com/CA/Vallejo/146-Cypress-Ave-94590/home/2247718,BAREIS,321080804,N,Y,38.0946645,-122.2386448
355,MLS Listing,,Vacant Land,5264 Walnut Rd,Vacaville,CA,95687,795000.0,0.0,,Vacaville,,457380.0,,67.0,,,Active,,,http://www.redfin.com/CA/Vacaville/5264-Walnut-Rd-95687/home/176247854,BAREIS,321082952,N,Y,38.385462,-121.9197095
356,MLS Listing,,Single Family Residential,126 Bryce Way,Vacaville,CA,95687,410000.0,2.0,2.0,Vacaville,1193.0,3485.0,1987.0,67.0,344.0,133.0,Active,,,http://www.redfin.com/CA/Vacaville/126-Bryce-Way-95687/home/2486424,BAREIS,321082121,N,Y,38.3724004,-121.9401782
357,MLS Listing,,Single Family Residential,1012 Glenwood St,VALLEJO,CA,94591,619000.0,3.0,2.5,VALLEJO,1400.0,4792.0,1976.0,67.0,442.0,,Active,,,http://www.redfin.com/CA/Vallejo/1012-Glenwood-St-94591/home/2286079,MLSListings,ML81860316,N,Y,38.1072992,-122.2256138
358,MLS Listing,,Single Family Residential,2417 Baltic Dr,Fairfield,CA,94533,420000.0,3.0,1.5,Fairfield,1256.0,3485.0,1973.0,67.0,334.0,,Active,,,http://www.redfin.com/CA/Fairfield/2417-Baltic-Dr-94533/home/2558646,BAREIS,321082781,N,Y,38.2744349,-122.019424
359,MLS Listing,,Vacant Land,1071 W K St,Benicia,CA,94510,986888.0,0.0,,Benicia,,10010.0,,67.0,,,Active,,,http://www.redfin.com/CA/Benicia/1071-W-K-St-94510/home/109536937,BAREIS,321080873,N,Y,38.0621607,-122.1760128
360,MLS Listing,,Single Family Residential,2054 Pinecrest Ct,Vacaville,CA,95688,2420000.0,4.0,4.5,North Vine Estates,4975.0,51401.0,2002.0,67.0,486.0,125.0,Active,,,http://www.redfin.com/CA/Vacaville/2054-Pinecrest-Ct-95688/home/2444489,BAREIS,321082638,N,Y,38.379761,-121.993464
361,MLS Listing,,Single Family Residential,3977 Rustic Ln,Vacaville,CA,95688,2290000.0,4.0,3.5,Vacaville,3807.0,107593.0,1986.0,68.0,602.0,,Active,,,http://www.redfin.com/CA/Vacaville/3977-Rustic-Ln-95688/home/2440544,BAREIS,321081408,N,Y,38.3858951,-122.0069428
362,MLS Listing,,Single Family Residential,125 Titus Way,Vacaville,CA,95687,996880.0,5.0,4.0,Vacaville,3740.0,6281.0,2021.0,68.0,267.0,,Active,,,http://www.redfin.com/CA/Vacaville/125-Titus-Way-95687/home/173641876,BAREIS,321082155,N,Y,38.31886,-121.951115
363,MLS Listing,,Single Family Residential,500 Widgeon Ct,Vacaville,CA,95688,999900.0,4.0,3.0,Vacaville,3494.0,10454.0,1999.0,71.0,286.0,,Active,,,http://www.redfin.com/CA/Vacaville/500-Widgeon-Ct-95688/home/2453844,BAREIS,321080809,N,Y,38.367725,-121.9948289
364,MLS Listing,,Single Family Residential,1730 Sycamore Dr,Fairfield,CA,94533,505000.0,3.0,2.0,Fairfield,1430.0,6970.0,1959.0,71.0,353.0,,Active,,,http://www.redfin.com/CA/Fairfield/1730-Sycamore-Dr-94533/home/2176772,BAREIS,321080263,N,Y,38.2613659,-122.037886
365,MLS Listing,,Single Family Residential,3801 Surf Ct,Vallejo,CA,94591,799000.0,5.0,3.0,Vallejo,3078.0,10001.0,2002.0,72.0,260.0,,Active,,,http://www.redfin.com/CA/Vallejo/3801-Surf-Ct-94591/home/2143275,San Francisco MLS,321080763,N,Y,38.1311568,-122.2076604
366,MLS Listing,,Single Family Residential,969 Turquoise St,Vacaville,CA,95687,649000.0,4.0,3.0,Vacaville,1990.0,8181.0,1995.0,73.0,326.0,,Active,,,http://www.redfin.com/CA/Vacaville/969-Turquoise-St-95687/home/2521057,BAREIS,321077190,N,Y,38.3230538,-121.9576428
367,MLS Listing,,Single Family Residential,2640 Alvarado Ct,Fairfield,CA,94534,605000.0,4.0,2.5,Piedmont Village,1932.0,8276.0,1974.0,73.0,313.0,,Active,,,http://www.redfin.com/CA/Fairfield/2640-Alvarado-Ct-94534/home/2540886,BAREIS,321073440,N,Y,38.2638937,-122.0593527
368,MLS Listing,,Single Family Residential,903 Maine St,Vallejo,CA,94590,649000.0,6.0,3.0,Vallejo,1974.0,4099.0,1915.0,74.0,329.0,,Active,,,http://www.redfin.com/CA/Vallejo/903-Maine-St-94590/home/2236220,BAREIS,321079860,N,Y,38.0988057,-122.2464449
369,MLS Listing,,Single Family Residential,760 Foxtrace,Dixon,CA,95620,756306.0,4.0,3.0,Dixon,2838.0,12000.0,2021.0,75.0,266.0,70.0,Active,,,http://www.redfin.com/CA/Dixon/760-Foxtrace-Ln-95620/home/176155344,"bridgeMLS, Bay East AOR, or Contra Costa AOR",40963750,N,Y,38.438174,-121.840111
370,MLS Listing,,Single Family Residential,770 Foxtrace,Dixon,CA,95620,776690.0,4.0,3.0,Dixon,2992.0,12000.0,2021.0,75.0,260.0,70.0,Active,,,http://www.redfin.com/CA/Dixon/770-Foxtrace-Ln-95620/home/176155292,"bridgeMLS, Bay East AOR, or Contra Costa AOR",40963744,N,Y,38.4377802,-121.8466215
371,MLS Listing,,Single Family Residential,7623 Dove Creek Trl,Vacaville,CA,95688,1180000.0,3.0,3.0,Vacaville,2000.0,95396.0,1983.0,75.0,590.0,,Active,,,http://www.redfin.com/CA/Vacaville/7623-Dove-Creek-Trl-95688/home/2414466,BAREIS,321076948,N,Y,38.4336827,-121.991986
