,SALE TYPE,SOLD DATE,PROPERTY TYPE,ADDRESS,CITY,STATE OR PROVINCE,ZIP OR POSTAL CODE,PRICE,BEDS,BATHS,LOCATION,SQUARE FEET,LOT SIZE,YEAR BUILT,DAYS ON MARKET,$/SQUARE FEET,HOA/MONTH,STATUS,NEXT OPEN HOUSE START TIME,NEXT OPEN HOUSE END TIME,URL (SEE http://www.redfin.com/buy-a-home/comparative-market-analysis FOR INFO ON PRICING),SOURCE,MLS#,FAVORITE,INTERESTED,LATITUDE,LONGITUDE
0,MLS Listing,,Condo/Co-op,624 Jade St,Petaluma,CA,94952,750000.0,3.0,2.5,Petaluma,1989.0,969.0,2017.0,5.0,377.0,332.0,Active,,,http://www.redfin.com/CA/Petaluma/624-Jade-St-94952/home/110013406,BAREIS,321099644,N,Y,38.2263746,-122.6164986
1,MLS Listing,,Condo/Co-op,728 1st St W,Sonoma,CA,95476,689000.0,1.0,1.5,Sonoma,981.0,640.0,2001.0,40.0,702.0,335.0,Active,,,http://www.redfin.com/CA/Sonoma/728-1st-St-W-95476/home/2641149,BAREIS,321091933,N,Y,38.287719,-122.459204
2,MLS Listing,,Single Family Residential,3474 Chanate Ct,Santa Rosa,CA,95404,799000.0,3.0,2.0,Santa Rosa,1441.0,6300.0,1974.0,60.0,554.0,,Active,,,http://www.redfin.com/CA/Santa-Rosa/3474-Chanate-Ct-95404/home/2616096,BAREIS,321084851,N,Y,38.470724,-122.702557
3,MLS Listing,,Single Family Residential,3776 Crown Hill Dr,Santa Rosa,CA,95404,2100000.0,4.0,4.5,Santa Rosa,3460.0,11502.0,,179.0,607.0,67.0,Active,,,http://www.redfin.com/CA/Santa-Rosa/3776-Crown-Hill-Dr-95404/home/2643325,BAREIS,321032580,N,Y,38.4879403,-122.699408
4,MLS Listing,,Multi-Family (2-4 Unit),105 - E Shiloh Rd,Santa Rosa,CA,95403,1600000.0,0.0,,Santa Rosa,1975.0,219978.0,1972.0,1.0,810.0,,Active,,,http://www.redfin.com/CA/Santa-Rosa/105-E-Shiloh-Rd-95403/home/2423994,BAREIS,321104368,N,Y,38.526828,-122.773281
5,MLS Listing,,Single Family Residential,341 Rockgreen Pl,Santa Rosa,CA,95409,465000.0,2.0,2.0,Santa Rosa,1297.0,1742.0,1969.0,1.0,359.0,260.0,Active,,,http://www.redfin.com/CA/Santa-Rosa/341-Rockgreen-Pl-95409/home/2238411,BAREIS,321103240,N,Y,38.438583,-122.597856
6,MLS Listing,,Condo/Co-op,134 Park Place Dr,Petaluma,CA,94954,579000.0,3.0,1.5,Park Place,1356.0,741.0,1987.0,1.0,427.0,358.0,Active,,,http://www.redfin.com/CA/Petaluma/134-Park-Pl-Dr-94954/home/2569216,BAREIS,321104031,N,Y,38.25592,-122.633247
7,MLS Listing,,Single Family Residential,4190 Pine Rock Pl,Santa Rosa,CA,95409,1200000.0,5.0,3.0,Montecito Heights,2612.0,24398.0,1983.0,1.0,459.0,,Active,,,http://www.redfin.com/CA/Santa-Rosa/4190-Pine-Rock-Pl-95409/home/2627584,BAREIS,321104050,N,Y,38.4604201,-122.691068
8,MLS Listing,,Single Family Residential,247 Mission Dr,Petaluma,CA,94952,1250000.0,4.0,2.5,Petaluma,3021.0,7401.0,2010.0,1.0,414.0,,Active,November-7-2021 12:00 PM,November-7-2021 03:00 PM,http://www.redfin.com/CA/Petaluma/247-Mission-Dr-94952/home/22501749,BAREIS,321098147,N,Y,38.2248958,-122.619032
9,MLS Listing,,Single Family Residential,14309 Mill Ct,Guerneville,CA,95446,579950.0,2.0,2.0,Guerneville,1038.0,6825.0,1955.0,1.0,559.0,,Active,November-7-2021 12:00 PM,November-7-2021 03:00 PM,http://www.redfin.com/CA/Guerneville/14309-Mill-Ct-95446/home/2426254,BAREIS,321100429,N,Y,38.5054155,-122.9993604
10,MLS Listing,,Single Family Residential,534 Lamont Ct S,Rohnert Park,CA,94928,549999.0,3.0,2.0,Rohnert Park,1176.0,8712.0,1973.0,1.0,468.0,,Active,,,http://www.redfin.com/CA/Rohnert-Park/534-Lamont-Ct-S-94928/home/2352412,BAREIS,321103031,N,Y,38.3191273,-122.6861254
11,MLS Listing,,Single Family Residential,330 E 1st St,Cloverdale,CA,95425,499000.0,2.0,2.0,Cloverdale,1344.0,8200.0,1974.0,1.0,371.0,,Active,November-7-2021 01:00 PM,November-7-2021 03:00 PM,http://www.redfin.com/CA/Cloverdale/330-E-1st-St-95425/home/2129555,BAREIS,321102261,N,Y,38.8067193,-123.0138642
12,MLS Listing,,Mobile/Manufactured Home,977 Keegan Dr,Santa Rosa,CA,95407,599000.0,4.0,2.0,Santa Rosa,1737.0,8712.0,2000.0,1.0,345.0,,Active,November-7-2021 01:00 PM,November-7-2021 03:00 PM,http://www.redfin.com/CA/Santa-Rosa/977-Keegan-Dr-95407/home/2313037,BAREIS,321104227,N,Y,38.4239926,-122.7442295
13,MLS Listing,,Single Family Residential,4774 Tarton Dr,Santa Rosa,CA,95405,789000.0,2.0,2.0,Santa Rosa,1705.0,8803.0,1978.0,1.0,463.0,,Active,,,http://www.redfin.com/CA/Santa-Rosa/4774-Tarton-Dr-95405/home/2369930,BAREIS,321102935,N,Y,38.4382219,-122.6551407
14,MLS Listing,,Single Family Residential,14465 Old Cazadero Rd,Guerneville,CA,95446,575000.0,2.0,1.0,Guerneville,710.0,5001.0,1927.0,1.0,810.0,,Active,,,http://www.redfin.com/CA/Guerneville/14465-Old-Cazadero-Rd-95446/home/2433894,BAREIS,321104206,N,Y,38.4977534,-123.0141501
15,MLS Listing,,Mobile/Manufactured Home,36 Ellie Dr,Santa Rosa,CA,95403,219000.0,2.0,2.0,Mobile Home Estates,1200.0,702592.0,1981.0,1.0,183.0,,Active,,,http://www.redfin.com/CA/Santa-Rosa/36-Ellie-Dr-95403/home/40192443,BAREIS,321103835,N,Y,38.5206738,-122.7763336
16,MLS Listing,,Single Family Residential,450 Sunnyslope Rd,Petaluma,CA,94952,1749000.0,5.0,4.5,Vista Point,3271.0,33585.0,2006.0,1.0,535.0,,Active,November-7-2021 12:00 PM,November-7-2021 02:00 PM,http://www.redfin.com/CA/Petaluma/450-Sunnyslope-Rd-94952/home/12112203,BAREIS,321103977,N,Y,38.2185853,-122.6390047
17,MLS Listing,,Single Family Residential,1249 Meridian Cir,Santa Rosa,CA,95401,559000.0,2.0,2.0,Santa Rosa,996.0,6826.0,1978.0,1.0,561.0,,Active,,,http://www.redfin.com/CA/Santa-Rosa/1249-Meridian-Cir-95401/home/2320809,BAREIS,321104128,N,Y,38.4478851,-122.7633256
18,MLS Listing,,Single Family Residential,528 Western Ave,Petaluma,CA,94952,849000.0,3.0,1.0,Petaluma,1332.0,5601.0,1870.0,1.0,637.0,,Active,November-6-2021 01:00 PM,November-6-2021 04:00 PM,http://www.redfin.com/CA/Petaluma/528-Western-Ave-94952/home/2165774,BAREIS,321103441,N,Y,38.2322143,-122.6465322
19,MLS Listing,,Vacant Land,481 Drovers Close,The Sea Ranch,CA,95497,120000.0,0.0,,The Sea Ranch,,50965.0,,1.0,,257.0,Active,,,http://www.redfin.com/CA/Sea-Ranch/481-Drovers-Close-95497/home/22451363,BAREIS,321104166,N,Y,38.712083,-123.440951
20,MLS Listing,,Single Family Residential,14765 Northern Ave,Guerneville,CA,95446,499000.0,2.0,1.0,Guerneville,897.0,5000.0,1947.0,1.0,556.0,,Active,November-6-2021 12:00 PM,November-6-2021 02:00 PM,http://www.redfin.com/CA/Guerneville/14765-Northern-Ave-95446/home/2430035,BAREIS,321101168,N,Y,38.5173,-122.973816
21,MLS Listing,,Single Family Residential,2530 Del Rosa Ave,Santa Rosa,CA,95409,1300000.0,3.0,2.5,Montecito Heights,2663.0,18526.0,1972.0,1.0,488.0,,Active,,,http://www.redfin.com/CA/Santa-Rosa/2530-Del-Rosa-Ave-95409/home/2625609,BAREIS,321104097,N,Y,38.4521512,-122.6854414
22,MLS Listing,,Single Family Residential,14136 Morelli Ln,Sebastopol,CA,95472,1100000.0,3.0,2.0,Sebastopol,1812.0,63162.0,1965.0,1.0,607.0,,Active,November-7-2021 01:00 PM,November-7-2021 04:00 PM,http://www.redfin.com/CA/Sebastopol/14136-Morelli-Ln-95472/home/2439646,BAREIS,321104058,N,Y,38.4305817,-122.9333116
23,MLS Listing,,Single Family Residential,5361 Kirby Pl,Rohnert Park,CA,94928,750000.0,3.0,2.5,Rohnert Park,1898.0,4305.0,2018.0,1.0,395.0,109.0,Pre On-Market,,,http://www.redfin.com/CA/Rohnert-Park/5361-Kirby-Pl-94928/home/161387690,CRMLS,ND21240583,N,Y,38.3466431,-122.6779666
24,MLS Listing,,Single Family Residential,2429 Francisco Ave,Santa Rosa,CA,95403,995000.0,4.0,3.0,The Reserve,2743.0,5576.0,2018.0,1.0,363.0,,Active,,,http://www.redfin.com/CA/Santa-Rosa/2429-Francisco-Ave-95403/home/167453842,BAREIS,321102862,N,Y,38.480371,-122.760725
25,MLS Listing,,Single Family Residential,301 Green Field Cir,Santa Rosa,CA,95409,599000.0,2.0,2.0,Santa Rosa,1155.0,8398.0,1963.0,1.0,519.0,102.0,Active,,,http://www.redfin.com/CA/Santa-Rosa/301-Green-Field-Cir-95409/home/2234670,BAREIS,321104054,N,Y,38.4353612,-122.5976929
26,MLS Listing,,Single Family Residential,668 Decanter Cir,Windsor,CA,95492,769000.0,3.0,2.5,Windsor,1998.0,4299.0,2001.0,1.0,385.0,,Active,,,http://www.redfin.com/CA/Windsor/668-Decanter-Cir-95492/home/2640753,BAREIS,321098040,N,Y,38.5386425,-122.8183005
27,MLS Listing,,Single Family Residential,1477 Cecilia Dr,Santa Rosa,CA,95401,662450.0,3.0,2.5,Santa Rosa,1421.0,3220.0,,1.0,466.0,,Active,,,http://www.redfin.com/CA/SANTA-ROSA/1477-CECILIA-DR-95401/home/172965841,BAREIS,321104013,N,Y,38.43464,-122.734108
28,MLS Listing,,Single Family Residential,1465 Cecilia Dr,Santa Rosa,CA,95401,682450.0,3.0,2.5,Santa Rosa,1650.0,3220.0,,1.0,414.0,,Active,,,http://www.redfin.com/CA/SANTA-ROSA/1465-CECILIA-DR-95401/home/172965838,BAREIS,321104002,N,Y,38.434614,-122.733685
29,MLS Listing,,Single Family Residential,1473 Cecilia Dr,Santa Rosa,CA,95401,712450.0,4.0,2.5,Santa Rosa,1881.0,3220.0,,1.0,379.0,,Active,,,http://www.redfin.com/CA/SANTA-ROSA/1473-CECILIA-DR-95401/home/172965840,BAREIS,321104012,N,Y,38.434631,-122.733967
30,MLS Listing,,Condo/Co-op,7211 Camino Colegio,Rohnert Park,CA,94928,425000.0,3.0,2.5,Rohnert Park,1306.0,,1980.0,1.0,325.0,370.0,Active,November-7-2021 12:00 PM,November-7-2021 03:00 PM,http://www.redfin.com/CA/Rohnert-Park/7211-Camino-Colegio-94928/home/2585525,BAREIS,321103052,N,Y,38.337351,-122.689968
31,MLS Listing,,Single Family Residential,6264 Old Redwood Hwy,Windsor,CA,95403,995000.0,4.0,3.0,Windsor,2976.0,11012.0,2002.0,1.0,334.0,,Active,,,http://www.redfin.com/CA/Santa-Rosa/6264-Old-Redwood-Hwy-95403/home/2642971,BAREIS,321103959,N,Y,38.5315339,-122.7831676
32,MLS Listing,,Multi-Family (2-4 Unit),1905 Bodega Ave,Petaluma,CA,94952,1899499.0,5.0,3.5,Petaluma,2789.0,100188.0,1915.0,1.0,681.0,,Active,,,http://www.redfin.com/CA/Petaluma/1905-Bodega-Ave-94952/home/176999655,BAREIS,321103907,N,Y,38.2353183,-122.6696509
33,MLS Listing,,Single Family Residential,516 Adrienne Dr,Petaluma,CA,94954,629000.0,0.0,,Petaluma,1137.0,297297000.0,1959.0,1.0,553.0,,Active,,,http://www.redfin.com/CA/Petaluma/516-Adrienne-Dr-94954/home/2174512,BAREIS,321103865,N,Y,38.2427661,-122.6207024
34,MLS Listing,,Condo/Co-op,1040 Campoy St #210,Santa Rosa,CA,95407,399000.0,3.0,2.5,Village Square/Courtside Village,1282.0,562.0,2007.0,1.0,311.0,369.0,Active,November-7-2021 02:00 PM,November-7-2021 04:00 PM,http://www.redfin.com/CA/Santa-Rosa/1040-Campoy-St-95407/unit-210/home/12113611,BAREIS,321103804,N,Y,38.426052,-122.763393
35,MLS Listing,,Single Family Residential,204 Locust Ave,Sonoma,CA,95476,589000.0,2.0,1.0,Sonoma,964.0,4600.0,1951.0,1.0,611.0,,Active,,,http://www.redfin.com/CA/Sonoma/204-Locust-Ave-95476/home/2392814,BAREIS,321100463,N,Y,38.3143574,-122.485697
36,MLS Listing,,Condo/Co-op,375 Occidental Cir,Santa Rosa,CA,95401,399000.0,3.0,2.5,Santa Rosa,1228.0,,1986.0,1.0,325.0,350.0,Active,,,http://www.redfin.com/CA/Santa-Rosa/375-Occidental-Cir-95401/home/2312167,BAREIS,321103889,N,Y,38.4309449,-122.7580186
37,MLS Listing,,Single Family Residential,863 Twin Oaks Ln,Windsor,CA,95492,429000.0,3.0,1.5,Windsor,1076.0,1189.0,1995.0,1.0,399.0,170.0,Active,,,http://www.redfin.com/CA/Windsor/863-Twin-Oaks-Ln-95492/home/2601114,BAREIS,321103908,N,Y,38.560509,-122.82476
38,MLS Listing,,Single Family Residential,7506 Adrian Dr,Rohnert Park,CA,94928,649000.0,3.0,2.0,Rohnert Park,1523.0,5998.0,1960.0,1.0,426.0,,Active,,,http://www.redfin.com/CA/Rohnert-Park/7506-Adrian-Dr-94928/home/2540912,BAREIS,321103890,N,Y,38.3335359,-122.7033792
39,MLS Listing,,Multi-Family (2-4 Unit),746 - 746A Dexter St,Santa Rosa,CA,95404,699500.0,3.0,2.0,Junior College,1071.0,5640.0,1945.0,1.0,653.0,,Active,,,http://www.redfin.com/CA/Santa-Rosa/746-Dexter-St-95404/home/2619228,BAREIS,321103825,N,Y,38.4569938,-122.7130859
40,MLS Listing,,Single Family Residential,1074 Wikiup Dr,Santa Rosa,CA,95403,3750000.0,4.0,4.5,Santa Rosa,3650.0,65776.0,2021.0,1.0,1027.0,,Active,November-7-2021 01:00 AM,November-7-2021 03:00 PM,http://www.redfin.com/CA/Santa-Rosa/1074-Wikiup-Dr-95403/home/2334471,BAREIS,321096178,N,Y,38.5059406,-122.7419801
41,MLS Listing,,Vacant Land,420 E 1st,Cloverdale,CA,95425,315000.0,0.0,,Cloverdale,,13277.0,,1.0,,,Active,,,http://www.redfin.com/CA/Cloverdale/420-E-1st-St-95425/home/177023469,BAREIS,321103861,N,Y,38.8069176,-123.0131748
42,MLS Listing,,Single Family Residential,8485 Kennedy Rd,Sebastopol,CA,95472,1450000.0,4.0,2.5,Sebastopol,2603.0,84942.0,1976.0,1.0,557.0,,Active,November-7-2021 12:00 PM,November-7-2021 03:00 PM,http://www.redfin.com/CA/Sebastopol/8485-Kennedy-Rd-95472/home/2443988,BAREIS,321095015,N,Y,38.3648838,-122.8411723
43,MLS Listing,,Mobile/Manufactured Home,413 Sonoma,Rohnert Park,CA,94928,235000.0,3.0,2.0,Las Casitas De Sonoma,1200.0,,2001.0,1.0,196.0,,Active,,,http://www.redfin.com/CA/Rohnert-Park/413-Sonoma-Ln-94928/home/40539758,BAREIS,321103263,N,Y,38.3317681,-122.7044398
44,MLS Listing,,Single Family Residential,819 Milsom Pl,Windsor,CA,95492,635000.0,3.0,2.0,Lakewood Mdws 02,1262.0,4530.0,1988.0,1.0,503.0,,Active,,,http://www.redfin.com/CA/Windsor/819-Milsom-Pl-95492/home/2595922,BAREIS,321097727,N,Y,38.5547141,-122.8065322
45,MLS Listing,,Condo/Co-op,720 Petaluma Blvd S #10,Petaluma,CA,94952,295000.0,1.0,1.0,Diamondhead Condos,560.0,601.0,1983.0,1.0,527.0,328.0,Active,November-7-2021 11:00 AM,November-7-2021 03:00 PM,http://www.redfin.com/CA/Petaluma/720-Petaluma-Blvd-S-94952/unit-10/home/2190153,BAREIS,321103312,N,Y,38.229383,-122.630219
46,MLS Listing,,Vacant Land,118 Kimberly Way,Petaluma,CA,94952,299000.0,0.0,,Petaluma,,7767.0,,2.0,,83.0,Active,,,http://www.redfin.com/CA/Petaluma/118-Kimberly-Way-94952/home/22201280,BAREIS,321103429,N,Y,38.222161,-122.619434
47,MLS Listing,,Single Family Residential,6108 Tyler Ct,Windsor,CA,95492,799000.0,3.0,2.0,Windsor,2084.0,,1989.0,3.0,383.0,,Active,,,http://www.redfin.com/CA/Windsor/6108-Tyler-Ct-95492/home/2607302,BAREIS,321103662,N,Y,38.5292352,-122.7868049
48,MLS Listing,,Single Family Residential,1108 Lohrman Ln,Petaluma,CA,94952,1395000.0,3.0,2.5,Petaluma,1715.0,90169.0,1961.0,3.0,813.0,330.0,Active,,,http://www.redfin.com/CA/Petaluma/1108-Lohrman-Ln-94952/home/2365026,BAREIS,321103136,N,Y,38.2453386,-122.6699738
49,MLS Listing,,Single Family Residential,1105 Lanewood Way,Santa Rosa,CA,95404,695000.0,4.0,2.0,Santa Rosa,1936.0,9283.0,1973.0,3.0,359.0,,Active,,,http://www.redfin.com/CA/Santa-Rosa/1105-Lanewood-Way-95404/home/2631690,BAREIS,321084173,N,Y,38.4630948,-122.6786229
50,MLS Listing,,Single Family Residential,20402 Meadow Lark Ct,Bodega Bay,CA,94923,1599000.0,3.0,2.5,Bodega Harbour,2252.0,6599.0,1986.0,3.0,710.0,274.0,Active,,,http://www.redfin.com/CA/Bodega-Bay/20402-Meadow-Lark-Ct-94923/home/2474956,BAREIS,321099365,N,Y,38.3088089,-123.0135342
51,MLS Listing,,Single Family Residential,16 Pearce St,Petaluma,CA,94952,750000.0,2.0,1.0,Petaluma,1637.0,7500.0,1930.0,3.0,458.0,,Active,,,http://www.redfin.com/CA/Petaluma/16-Pearce-St-94952/home/2186818,BAREIS,321093796,N,Y,38.2246921,-122.6454285
52,MLS Listing,,Single Family Residential,6690 Fairfield Dr,Santa Rosa,CA,95409,525000.0,2.0,2.0,Santa Rosa,1456.0,10415.0,1969.0,4.0,361.0,102.0,Active,,,http://www.redfin.com/CA/Santa-Rosa/6690-Fairfield-Dr-95409/home/2235278,BAREIS,321103552,N,Y,38.440183,-122.5988854
53,MLS Listing,,Single Family Residential,5 Oak Island Dr,Santa Rosa,CA,95409,665000.0,2.0,2.0,Santa Rosa,1591.0,2801.0,1975.0,4.0,418.0,275.0,Active,,,http://www.redfin.com/CA/Santa-Rosa/5-Oak-Island-Dr-95409/home/2241063,BAREIS,321103488,N,Y,38.4311741,-122.5881298
54,MLS Listing,,Single Family Residential,3933 Sacramento Ave,Santa Rosa,CA,95405,749000.0,3.0,2.5,Santa Rosa,1594.0,6000.0,1957.0,4.0,470.0,,Active,,,http://www.redfin.com/CA/Santa-Rosa/3933-Sacramento-Ave-95405/home/2224512,BAREIS,321075568,N,Y,38.4360096,-122.6701362
55,MLS Listing,,Single Family Residential,8537 Planetree Dr,Windsor,CA,95492,670000.0,3.0,2.0,Windsor,1357.0,4500.0,1989.0,4.0,494.0,,Active,November-6-2021 12:00 PM,November-6-2021 03:00 PM,http://www.redfin.com/CA/Windsor/8537-Planetree-Dr-95492/home/2602954,BAREIS,321098649,N,Y,38.54505,-122.7976719
56,MLS Listing,,Single Family Residential,4946 Sunshine Ave,Santa Rosa,CA,95409,635000.0,3.0,2.0,Santa Rosa,1092.0,5998.0,1970.0,4.0,582.0,,Active,,,http://www.redfin.com/CA/Santa-Rosa/4946-Sunshine-Ave-95409/home/2633093,BAREIS,321102644,N,Y,38.4780398,-122.6684715
57,MLS Listing,,Townhouse,31 Pine Tree Cir,Cotati,CA,94931,399500.0,2.0,1.5,Cotati,840.0,1228.0,1986.0,4.0,476.0,316.0,Active,,,http://www.redfin.com/CA/Cotati/31-Pine-Tree-Cir-94931/home/2551504,BAREIS,321103099,N,Y,38.322589,-122.704804
58,MLS Listing,,Single Family Residential,8476 Grape Ave,Forestville,CA,95436,499000.0,3.0,2.0,Forestville,1560.0,3358.0,1960.0,4.0,320.0,,Active,,,http://www.redfin.com/CA/Forestville/8476-Grape-Ave-95436/home/2451528,BAREIS,321103338,N,Y,38.4911613,-122.8936834
59,MLS Listing,,Single Family Residential,1287 Kresky Way,Petaluma,CA,94954,825000.0,3.0,2.0,Petaluma,1365.0,5401.0,1957.0,4.0,604.0,,Active,November-3-2021 10:00 AM,November-3-2021 12:00 PM,http://www.redfin.com/CA/Petaluma/1287-Kresky-Way-94954/home/2174443,BAREIS,321102936,N,Y,38.2441934,-122.6210998
60,MLS Listing,,Vacant Land,41920 Mizzen Mast,The Sea Ranch,CA,95497,235000.0,0.0,,The Sea Ranch,,11953.0,,4.0,,257.0,Active,,,http://www.redfin.com/CA/THE-SEA-RANCH/41920-MIZZEN-MAST-95497/home/22461793,BAREIS,321097975,N,Y,38.75091,-123.519095
61,MLS Listing,,Multi-Family (2-4 Unit),6545 Lakeville Hwy,Petaluma,CA,94954,19750000.0,3.0,2.5,Petaluma,41071.0,5619240.0,2003.0,4.0,481.0,,Active,,,http://www.redfin.com/CA/Petaluma/6545-Lakeville-Hwy-94954/home/161435527,BAREIS,321102567,N,Y,38.1789014,-122.5300862
62,MLS Listing,,Single Family Residential,5762 Fairway Knoll Ct,Santa Rosa,CA,95340,1399000.0,3.0,2.5,Santa Rosa,2636.0,2793.0,,4.0,531.0,175.0,Active,,,http://www.redfin.com/CA/Santa-Rosa/5762-Fairway-Knoll-Ct-95403/home/2614425,BAREIS,321103009,N,Y,38.491934,-122.710509
63,MLS Listing,,Single Family Residential,123 Hidden Valley Ct,Santa Rosa,CA,95404,865000.0,4.0,2.0,Santa Rosa,1757.0,8002.0,1963.0,4.0,492.0,,Active,,,http://www.redfin.com/CA/Santa-Rosa/123-Hidden-Valley-Ct-95404/home/2619576,BAREIS,321101862,N,Y,38.462527,-122.7017466
64,MLS Listing,,Single Family Residential,8830 Oak Trail Dr,Santa Rosa,CA,95409,675000.0,3.0,2.0,Oakmont,1870.0,7501.0,1981.0,4.0,361.0,102.0,Active,,,http://www.redfin.com/CA/Santa-Rosa/8830-Oak-Trail-Dr-95409/home/2244149,BAREIS,321102908,N,Y,38.4301614,-122.5749875
65,MLS Listing,,Single Family Residential,106 Briarwood Ct,Santa Rosa,CA,95401,739000.0,4.0,2.5,Santa Rosa,2477.0,8198.0,1964.0,4.0,298.0,,Active,,,http://www.redfin.com/CA/Santa-Rosa/106-Briarwood-Ct-95401/home/2203874,BAREIS,321103227,N,Y,38.4379398,-122.7392895
66,MLS Listing,,Single Family Residential,622 High St,Sebastopol,CA,95472,635000.0,1.0,1.0,Sebastopol,,2500.0,1915.0,4.0,,,Active,,,http://www.redfin.com/CA/Sebastopol/622-S-High-St-95472/home/2146622,BAREIS,321102827,N,Y,38.3967334,-122.822807
67,MLS Listing,,Single Family Residential,15341 Glandy Gln,Guerneville,CA,95446,659000.0,2.0,1.5,Guerneville,1121.0,12001.0,1954.0,4.0,588.0,,Active,,,http://www.redfin.com/CA/Guerneville/15341-Glandy-Glen-Ln-95446/home/2430627,BAREIS,321102112,N,Y,38.506752,-122.982058
68,MLS Listing,,Single Family Residential,8816 Hood Mountain Cir,Santa Rosa,CA,95409,775000.0,3.0,2.0,Santa Rosa,2025.0,8401.0,1985.0,4.0,383.0,106.0,Active,,,http://www.redfin.com/CA/Santa-Rosa/8816-Hood-Mountain-Cir-95409/home/2245184,BAREIS,321100293,N,Y,38.4267208,-122.5746782
69,MLS Listing,,Single Family Residential,1287 Mark West Springs Rd,Santa Rosa,CA,95404,1500000.0,3.0,2.5,Santa Rosa,3333.0,39600.0,2021.0,5.0,450.0,,Active,,,http://www.redfin.com/CA/Santa-Rosa/1287-W-Mark-Springs-Rd-95404/home/2423352,BAREIS,321102663,N,Y,38.512749,-122.7195934
70,MLS Listing,,Single Family Residential,1439 N Fitch Mountain Rd,Healdsburg,CA,95448,1195000.0,3.0,3.0,Healdsburg,2040.0,40511.0,1932.0,5.0,586.0,,Active,,,http://www.redfin.com/CA/Healdsburg/1439-N-Fitch-Mountain-Rd-95448/home/22467911,BAREIS,321103148,N,Y,38.623657,-122.8497423
71,MLS Listing,,Single Family Residential,17180 Keaton Ave,Sonoma,CA,95476,550000.0,3.0,2.5,Sonoma,1605.0,5998.0,1981.0,5.0,343.0,,Active,,,http://www.redfin.com/CA/Sonoma/17180-Keaton-Ave-95476/home/2390865,BAREIS,321102972,N,Y,38.3236713,-122.4840279
72,MLS Listing,,Single Family Residential,17320 Hwy 116,Guerneville,CA,95446,468000.0,2.0,2.0,Guerneville,1046.0,4883.0,1950.0,5.0,447.0,,Active,,,http://www.redfin.com/CA/Guerneville/17320-CA-116-95446/home/22619226,BAREIS,321100722,N,Y,38.494389,-123.0108399
73,MLS Listing,,Single Family Residential,2271 Joy Rd,Occidental,CA,95465,849000.0,2.0,2.0,Occidental,1220.0,58806.0,1984.0,5.0,696.0,,Active,,,http://www.redfin.com/CA/Occidental/2271-Joy-Rd-95465/home/2439305,BAREIS,321099413,N,Y,38.378399,-122.967272
74,MLS Listing,,Single Family Residential,8850 Petaluma Hill Rd,Penngrove,CA,94951,1095000.0,3.0,1.5,Penngrove,1186.0,95832.0,1955.0,5.0,923.0,,Active,,,http://www.redfin.com/CA/Penngrove/8850-Petaluma-Hill-Rd-94951/home/2355594,BAREIS,321102280,N,Y,38.3016678,-122.6662314
75,MLS Listing,,Mobile/Manufactured Home,136 Oakwood Dr,Petaluma,CA,94954,199000.0,3.0,2.0,The Cottages of Petaluma,1344.0,943666.0,2005.0,5.0,148.0,,Active,,,http://www.redfin.com/CA/Petaluma/136-Oakwood-Dr-94954/home/2655947,BAREIS,321103043,N,Y,38.2607759,-122.6375698
76,MLS Listing,,Single Family Residential,5721 Brigadoon Way,Santa Rosa,CA,95409,1299000.0,4.0,2.5,Santa Rosa,2384.0,28800.0,1978.0,5.0,545.0,,Active,,,http://www.redfin.com/CA/Santa-Rosa/5721-Brigadoon-Way-95409/home/2281572,BAREIS,321095799,N,Y,38.4660101,-122.6296663
77,MLS Listing,,Single Family Residential,2467 Mill Creek Rd,Healdsburg,CA,95448,2795000.0,4.0,3.5,Healdsburg,3076.0,1198336.0,1978.0,5.0,909.0,,Active,,,http://www.redfin.com/CA/Healdsburg/2467-Mill-Creek-Rd-95448/home/2481320,BAREIS,321102900,N,Y,38.597505,-122.906523
78,MLS Listing,,Single Family Residential,1272 Marian Way,Petaluma,CA,94954,585000.0,3.0,1.0,Petaluma,960.0,6800.0,1964.0,5.0,609.0,,Active,,,http://www.redfin.com/CA/Petaluma/1272-Marian-Way-94954/home/2177639,BAREIS,321102383,N,Y,38.2415062,-122.618936
79,MLS Listing,,Single Family Residential,1959 Dowling Ct,Santa Rosa,CA,95404,949000.0,3.0,2.0,Santa Rosa,1468.0,6650.0,1951.0,5.0,646.0,,Active,,,http://www.redfin.com/CA/Santa-Rosa/1959-Dowling-Ct-95404/home/2626614,BAREIS,321102718,N,Y,38.4532134,-122.6965839
80,MLS Listing,,Single Family Residential,204 Vineyard Dr,Healdsburg,CA,95448,670000.0,2.0,2.0,Healdsburg,1150.0,6551.0,1974.0,5.0,583.0,110.0,Active,November-7-2021 01:00 PM,November-7-2021 04:00 PM,http://www.redfin.com/CA/Healdsburg/204-Vineyard-Dr-95448/home/2142002,BAREIS,321102864,N,Y,38.6096209,-122.8491916
81,MLS Listing,,Mobile/Manufactured Home,109 Salamanca,Rohnert Park,CA,94928,109000.0,3.0,2.0,Rancho Feliz,1440.0,,1974.0,5.0,76.0,,Active,,,http://www.redfin.com/CA/Rohnert-Park/109-Salamanca-St-94928/home/40539346,BAREIS,321102967,N,Y,38.3440836,-122.7197478
82,MLS Listing,,Single Family Residential,2325 Brompton Ave,Santa Rosa,CA,95403,675000.0,3.0,2.5,Santa Rosa,1649.0,3337.0,1994.0,5.0,409.0,,Active,,,http://www.redfin.com/CA/Santa-Rosa/2325-Brompton-Ave-95403/home/2302950,BAREIS,321102645,N,Y,38.4765499,-122.7586952
83,MLS Listing,,Single Family Residential,1357 Sugar Bear Ln,Santa Rosa,CA,95407,549000.0,3.0,2.0,Santa Rosa,1168.0,7048.0,1975.0,5.0,470.0,,Active,,,http://www.redfin.com/CA/Santa-Rosa/1357-Sugar-Bear-Ln-95407/home/2492382,BAREIS,321102321,N,Y,38.4270395,-122.7349668
84,MLS Listing,,Single Family Residential,1004 Polaris Dr,Windsor,CA,95492,600000.0,3.0,2.0,Starr View Estates,1056.0,8189.0,1973.0,5.0,568.0,,Active,,,http://www.redfin.com/CA/Windsor/1004-Polaris-Dr-95492/home/2419625,BAREIS,321102596,N,Y,38.5536875,-122.8291862
85,MLS Listing,,Single Family Residential,494 Wall St,Windsor,CA,95492,450000.0,3.0,1.0,Windsor,1317.0,12506.0,1956.0,5.0,342.0,,Active,,,http://www.redfin.com/CA/Windsor/494-Wall-St-95492/home/2418222,BAREIS,321102196,N,Y,38.5461876,-122.8184768
86,MLS Listing,,Condo/Co-op,23 Liberty Ln,Petaluma,CA,94952,519000.0,2.0,2.5,Liberty Meadows,1389.0,937.0,1981.0,6.0,374.0,470.0,Active,,,http://www.redfin.com/CA/Petaluma/23-Liberty-Ln-94952/home/2168752,BAREIS,321102835,N,Y,38.2436609,-122.6493466
87,MLS Listing,,Single Family Residential,2538 Pleasant Hill Rd,Sebastopol,CA,95472,1260000.0,3.0,2.0,Sebastopol,1922.0,53579.0,1977.0,6.0,656.0,,Active,,,http://www.redfin.com/CA/Sebastopol/2538-Pleasant-Hill-Rd-95472/home/2444166,BAREIS,321102405,N,Y,38.3672671,-122.8300676
88,MLS Listing,,Vacant Land,1936 Lyon Ct,Santa Rosa,CA,95403,385000.0,0.0,,Santa Rosa,,31476.0,,6.0,,75.0,Active,,,http://www.redfin.com/CA/Santa-Rosa/1936-Lyon-Ct-95403/home/2614354,BAREIS,321102764,N,Y,38.4926316,-122.7082768
89,MLS Listing,,Single Family Residential,115 Westridge Dr,Petaluma,CA,94952,875000.0,3.0,2.0,Petaluma,1412.0,6721.0,1974.0,6.0,620.0,,Active,,,http://www.redfin.com/CA/Petaluma/115-Westridge-Dr-94952/home/2266278,BAREIS,321102359,N,Y,38.2127189,-122.6296663
90,MLS Listing,,Single Family Residential,385 Walnut Ave,Sonoma,CA,95476,1100000.0,2.0,2.0,Sonoma,1596.0,7501.0,1952.0,6.0,689.0,,Active,,,http://www.redfin.com/CA/Sonoma/385-Walnut-Ave-95476/home/2380457,MetroList,321102672,N,Y,38.2976582,-122.4831482
91,MLS Listing,,Single Family Residential,2033 Bluebell Dr,Santa Rosa,CA,95403,895000.0,5.0,3.0,Santa Rosa,2164.0,25000.0,1949.0,6.0,414.0,,Active,,,http://www.redfin.com/CA/Santa-Rosa/2033-Bluebell-Dr-95403/home/2562166,BAREIS,321102051,N,Y,38.4661174,-122.740701
92,MLS Listing,,Multi-Family (5+ Unit),117 - 121 Lincoln,Santa Rosa,CA,95405,1795000.0,2.0,2.0,Santa Rosa,,14375.0,,6.0,,,Active,,,http://www.redfin.com/CA/Santa-Rosa/117-Lincoln-St-95401/home/2199905,BAREIS,321102625,N,Y,38.4453749,-122.7260065
93,MLS Listing,,Single Family Residential,1374 Mission Dr,Sonoma,CA,95476,425000.0,1.0,1.0,Sonoma,784.0,1307.0,1965.0,6.0,542.0,195.0,Active,November-7-2021 02:00 PM,November-7-2021 04:00 PM,http://www.redfin.com/CA/Sonoma/1374-Mission-Dr-95476/home/2535682,BAREIS,321089760,N,Y,38.264658,-122.490653
94,MLS Listing,,Single Family Residential,5221 Wendell Ln,Sebastopol,CA,95472,950000.0,3.0,1.0,Sebastopol,1120.0,13430.0,1972.0,6.0,848.0,,Active,November-7-2021 11:00 AM,November-7-2021 01:00 PM,http://www.redfin.com/CA/Sebastopol/5221-Wendell-Ln-95472/home/2412487,BAREIS,321100487,N,Y,38.3489257,-122.768088
95,MLS Listing,,Single Family Residential,3073 Lamberson Ct,Santa Rosa,CA,95403,579500.0,3.0,2.0,Santa Rosa,1240.0,5998.0,1983.0,6.0,,,Active,,,http://www.redfin.com/CA/Santa-Rosa/3073-Lamberson-Ct-95403/home/2562220,MetroList,321078426,N,Y,38.464794,-122.7392895
96,MLS Listing,,Single Family Residential,2421 Grahn Dr,Santa Rosa,CA,95404,985000.0,3.0,1.5,Santa Rosa,2034.0,13351.0,1956.0,6.0,484.0,,Active,,,http://www.redfin.com/CA/Santa-Rosa/2421-Grahn-Dr-95404/home/2627820,BAREIS,321102257,N,Y,38.4578312,-122.6964074
97,MLS Listing,,Single Family Residential,742 William Cunningham Ave,Sonoma,CA,95476,2888000.0,4.0,2.5,Sonoma,3198.0,11308.0,2003.0,6.0,903.0,,Active,,,http://www.redfin.com/CA/Sonoma/742-William-Cunningham-Ave-95476/home/2647680,BAREIS,321098748,N,Y,38.2881796,-122.4434947
98,MLS Listing,,Mobile/Manufactured Home,120 Salisbury Cir,Santa Rosa,CA,95401,149000.0,2.0,2.0,The Country,1152.0,,1972.0,7.0,129.0,,Active,,,http://www.redfin.com/CA/Santa-Rosa/120-Salisbury-Cir-95401/home/176977035,BAREIS,321102482,N,Y,38.447701,-122.768645
99,MLS Listing,,Mobile/Manufactured Home,1564 Crown Rd,Petaluma,CA,94954,239000.0,2.0,2.0,Royal Oak Senior Mobile Home Park,1040.0,,1987.0,7.0,230.0,,Active,,,http://www.redfin.com/CA/Petaluma/1564-Crown-Rd-94954/home/21828159,BAREIS,321101943,N,Y,38.2644571,-122.6438833
100,MLS Listing,,Single Family Residential,939 Oak St,Sonoma,CA,95476,1695000.0,3.0,2.0,Sonoma,1612.0,6469.0,1988.0,7.0,1051.0,,Active,,,http://www.redfin.com/CA/Sonoma/939-Oak-St-95476/home/2379869,BAREIS,321102020,N,Y,38.2965008,-122.4896654
101,MLS Listing,,Single Family Residential,2928 Bay Village Ave,Santa Rosa,CA,95403,629950.0,3.0,2.5,Santa Rosa,1420.0,2701.0,,7.0,444.0,,Active,,,http://www.redfin.com/CA/Santa-Rosa/2928-Bay-Village-Ave-95403/home/144151916,BAREIS,321102087,N,Y,38.4657793,-122.7533049
102,MLS Listing,,Single Family Residential,5851 Kittyhawk Pl,Rohnert Park,CA,94928,754609.0,3.0,2.5,Rohnert Park,1936.0,4400.0,2021.0,7.0,390.0,100.0,Active,,,http://www.redfin.com/CA/Rohnert-Park/5851-Kittyhawk-Pl-94928/home/167509769,BAREIS,321102243,N,Y,38.3483399,-122.6695464
103,MLS Listing,,Single Family Residential,6333 Sequoia Cir,Sebastopol,CA,95472,2395000.0,5.0,5.5,Sebastopol,3443.0,229561.0,2004.0,7.0,696.0,,Active,,,http://www.redfin.com/CA/Sebastopol/6333-Sequoia-Cir-95472/home/2447364,BAREIS,321100283,N,Y,38.4633958,-122.8592368
104,MLS Listing,,Single Family Residential,4511 Creekmont Ct,Santa Rosa,CA,95404,2650000.0,4.0,5.0,Santa Rosa,4443.0,140263.0,1988.0,7.0,596.0,125.0,Active,,,http://www.redfin.com/CA/Santa-Rosa/4511-Creekmont-Ct-95404/home/2278746,BAREIS,321098052,N,Y,38.4924726,-122.6797924
105,MLS Listing,,Mobile/Manufactured Home,63 Estrella Dr,Santa Rosa,CA,95403,198000.0,2.0,2.0,Rancho San Miguel,1464.0,,1975.0,7.0,135.0,,Active,,,http://www.redfin.com/CA/Santa-Rosa/63-Estrella-Dr-95403/unit-xxx/home/147305817,BAREIS,321100473,N,Y,38.464148,-122.735999
106,MLS Listing,,Single Family Residential,99 Hop Ranch Rd,Santa Rosa,CA,95403,899000.0,3.0,2.5,Saddlebrook,2092.0,7701.0,1989.0,8.0,430.0,31.0,Active,November-6-2021 01:00 PM,November-6-2021 04:00 PM,http://www.redfin.com/CA/Santa-Rosa/99-Hop-Ranch-Rd-95403/home/2401693,BAREIS,321102186,N,Y,38.5078395,-122.7653541
107,MLS Listing,,Condo/Co-op,1370 Townview Ave #306,Santa Rosa,CA,95405,329000.0,2.0,1.5,Santa Rosa,1038.0,1041.0,1975.0,8.0,317.0,504.0,Active,,,http://www.redfin.com/CA/Santa-Rosa/1370-Townview-Ave-95405/unit-306/home/2229674,BAREIS,321102160,N,Y,38.4343171,-122.6851094
108,MLS Listing,,Single Family Residential,166 Patten St,Sonoma,CA,95476,1150000.0,2.0,2.0,Sonoma,994.0,6299.0,1948.0,8.0,1157.0,,Active,,,http://www.redfin.com/CA/Sonoma/166-Patten-St-95476/home/2257379,BAREIS,321099448,N,Y,38.2900131,-122.455548
109,MLS Listing,,Single Family Residential,2020 Banjo Dr,Santa Rosa,CA,95407,735500.0,4.0,3.0,Santa Rosa,2075.0,10855.0,1998.0,8.0,354.0,,Active,,,http://www.redfin.com/CA/Santa-Rosa/2020-Banjo-Dr-95407/home/2516147,BAREIS,321091019,N,Y,38.4073989,-122.7335112
110,MLS Listing,,Condo/Co-op,178 W Agua Caliente Rd,Sonoma,CA,95476,359000.0,2.0,2.0,Sonoma,1030.0,871.0,1983.0,8.0,349.0,385.0,Active,,,http://www.redfin.com/CA/Sonoma/178-Agua-Caliente-Rd-W-95476/unit-2/home/2396466,BAREIS,321100330,N,Y,38.324272,-122.490964
111,MLS Listing,,Single Family Residential,5006 Grange Rd,Santa Rosa,CA,95404,3495000.0,3.0,5.5,Santa Rosa,4500.0,317988.0,2019.0,9.0,777.0,,Active,,,http://www.redfin.com/CA/Santa-Rosa/5006-Grange-Rd-95404/home/2366231,BAREIS,321099883,N,Y,38.3732634,-122.6331869
112,MLS Listing,,Single Family Residential,19129 Spring Dr,Sonoma,CA,95476,1200000.0,3.0,2.0,Diamond A Ranch Estates Unit 5,1690.0,87120.0,1972.0,9.0,,4.0,Active,,,http://www.redfin.com/CA/Sonoma/19129-Spring-Dr-95476/home/2416915,MetroList,321100447,N,Y,38.3090699,-122.5498026
113,MLS Listing,,Multi-Family (2-4 Unit),948 - 950 Edwards Ave,Santa Rosa,CA,95401,649000.0,3.0,2.0,Santa Rosa,1699.0,6808.0,1948.0,9.0,382.0,140.0,Active,,,http://www.redfin.com/CA/Santa-Rosa/948-Edwards-Ave-95401/home/176945910,BAREIS,321098226,N,Y,38.4556032,-122.727264
114,MLS Listing,,Condo/Co-op,6804 - 6804 Avenida Cala,Rohnert Park,CA,94928,459000.0,3.0,2.5,Rohnert Park,1266.0,,1981.0,10.0,363.0,370.0,Active,,,http://www.redfin.com/CA/Rohnert-Park/6804-Avenida-Cala-94928/home/2585660,BAREIS,321101597,N,Y,38.341246,-122.687433
115,MLS Listing,,Vacant Land,3160 Primrose Ave,Santa Rosa,CA,95407,575000.0,0.0,,Santa Rosa,,210395.0,,10.0,,,Active,,,http://www.redfin.com/CA/Santa-Rosa/3160-Primrose-Ave-95407/home/17546509,BAREIS,321101636,N,Y,38.399438,-122.733536
116,MLS Listing,,Single Family Residential,2348 Donna Maria Way,Santa Rosa,CA,95401,625000.0,3.0,2.0,Santa Rosa,1240.0,6721.0,1977.0,10.0,504.0,,Active,,,http://www.redfin.com/CA/Santa-Rosa/2348-Donna-Maria-Way-95401/home/2307061,BAREIS,321097586,N,Y,38.4351861,-122.7607679
117,MLS Listing,,Single Family Residential,11 Woodgreen St,Santa Rosa,CA,95409,374000.0,1.0,1.0,Oakmont,1043.0,1307.0,1968.0,11.0,359.0,250.0,Active,,,http://www.redfin.com/CA/Santa-Rosa/11-Woodgreen-St-95409/home/2237213,BAREIS,321101669,N,Y,38.439632,-122.60367
118,MLS Listing,,Mobile/Manufactured Home,3455 Santa Rosa Ave # 37,Santa Rosa,CA,95407,225000.0,2.0,2.0,Rancho Santa Rosa,850.0,,1980.0,11.0,265.0,,Active,,,http://www.redfin.com/CA/Santa-Rosa/3455-Santa-Rosa-Ave-95407/unit-37/home/40538728,BAREIS,321101688,N,Y,38.3929364,-122.7137371
119,MLS Listing,,Mobile/Manufactured Home,137 Kentwood Ln,Santa Rosa,CA,95409,135000.0,2.0,2.0,Santa Rosa Village,1248.0,,1970.0,11.0,108.0,,Active,,,http://www.redfin.com/CA/Santa-Rosa/137-Kentwood-Ln-95409/unit-137/home/176316173,BAREIS,321101645,N,Y,38.456823,-122.680731
120,MLS Listing,,Single Family Residential,477 Singing Woods Ln,Santa Rosa,CA,95409,475000.0,2.0,2.0,Santa Rosa,1430.0,2801.0,1980.0,11.0,332.0,245.0,Active,,,http://www.redfin.com/CA/Santa-Rosa/477-Singing-Woods-Ln-95409/home/2243933,BAREIS,321101463,N,Y,38.4309798,-122.5939605
121,MLS Listing,,Single Family Residential,545 Los Alamos,Santa Rosa,CA,95409,1795000.0,3.0,3.0,Santa Rosa,2455.0,85378.0,1951.0,11.0,731.0,,Active,,,http://www.redfin.com/CA/Santa-Rosa/545-Los-Alamos-Rd-95409/home/17309990,BAREIS,321101161,N,Y,38.4585072,-122.6287611
122,MLS Listing,,Single Family Residential,2103 Bodega Ave,Petaluma,CA,94952,999000.0,3.0,2.0,Petaluma,1100.0,31498.0,1925.0,11.0,908.0,,Active,,,http://www.redfin.com/CA/Petaluma/2103-Bodega-Ave-94952/home/2269595,BAREIS,321099262,N,Y,38.2363648,-122.6710443
123,MLS Listing,,Single Family Residential,8480 Orchard Rd,Forestville,CA,95436,549000.0,2.0,2.0,Forestville,1044.0,6800.0,1955.0,11.0,526.0,,Active,,,http://www.redfin.com/CA/Forestville/8480-Orchard-Rd-95436/home/2452697,BAREIS,321099964,N,Y,38.4977288,-122.9063642
124,MLS Listing,,Single Family Residential,736 Potomac Ave,Santa Rosa,CA,95407,610000.0,3.0,2.5,Meadow Vista,1310.0,171626400.0,1999.0,11.0,466.0,,Active,,,http://www.redfin.com/CA/Santa-Rosa/736-Potomac-Ave-95407/home/2345869,BAREIS,321101195,N,Y,38.4021254,-122.7089386
125,MLS Listing,,Vacant Land,23405 Old Mill Rd,Cazadero,CA,95421,139000.0,0.0,,Cazadero,,47045.0,,11.0,,,Active,,,http://www.redfin.com/CA/Unknown/23405-Old-Mill-Rd-95421/home/176875138,BAREIS,321101341,N,Y,38.4699747,-123.0531299
126,MLS Listing,,Single Family Residential,1639 Winding Creek Way,Healdsburg,CA,95448,1215000.0,3.0,3.0,Arden Healdsburg,2172.0,4230.0,,11.0,559.0,168.0,Active,,,http://www.redfin.com/CA/HEALDSBURG/1639-WINDING-CREEK-WAY-95448/home/172964714,BAREIS,321101423,N,Y,38.636688,-122.875591
127,MLS Listing,,Single Family Residential,607 Wild Oak Dr,Santa Rosa,CA,95409,1995000.0,4.0,4.5,Santa Rosa,4318.0,66499.0,1989.0,11.0,462.0,106.0,Active,,,http://www.redfin.com/CA/Santa-Rosa/607-Wild-Oak-Dr-95409/home/2285022,BAREIS,321100916,N,Y,38.4351187,-122.6023747
128,MLS Listing,,Single Family Residential,5175 Gates Rd,Santa Rosa,CA,95404,650000.0,3.0,1.0,Santa Rosa,1338.0,19798.0,1956.0,11.0,486.0,,Active,,,http://www.redfin.com/CA/Santa-Rosa/5175-Gates-Rd-95404/home/2278193,BAREIS,321100262,N,Y,38.539354,-122.644855
129,MLS Listing,,Single Family Residential,7523 Walnut Orch,Santa Rosa,CA,95409,975000.0,3.0,2.0,Santa Rosa,2308.0,6957.0,2006.0,11.0,422.0,102.0,Active,,,http://www.redfin.com/CA/Santa-Rosa/7523-Walnut-Orchard-Way-95409/home/12112583,BAREIS,321100176,N,Y,38.4329602,-122.5816804
130,MLS Listing,,Single Family Residential,11399 Valley Frd,Petaluma,CA,94952,2200000.0,3.0,3.5,Petaluma,3693.0,209088.0,2008.0,11.0,596.0,,Active,,,http://www.redfin.com/CA/Petaluma/11399-Valley-Ford-Rd-94952/home/52266935,BAREIS,321101138,N,Y,38.3101296,-122.8510069
131,MLS Listing,,Condo/Co-op,2206 Marylyn Cir,Petaluma,CA,94954,699000.0,3.0,2.5,Petaluma,1615.0,1233.0,1981.0,11.0,433.0,414.0,Active,,,http://www.redfin.com/CA/Petaluma/2206-Marylyn-Cir-94954/home/2249681,BAREIS,321100715,N,Y,38.2498285,-122.6019375
132,MLS Listing,,Mobile/Manufactured Home,9 Sequoia Cir,Santa Rosa,CA,95401,155000.0,2.0,2.0,Sequoia Gardens,1344.0,,1972.0,12.0,115.0,,Active,,,http://www.redfin.com/CA/Santa-Rosa/9-Sequoia-Cir-95401/home/18752608,BAREIS,321101153,N,Y,38.4448346,-122.7747612
133,MLS Listing,,Mobile/Manufactured Home,159 Sequoia Cir,Santa Rosa,CA,95401,180000.0,2.0,2.0,Sequoia Gardens,1152.0,,1973.0,12.0,156.0,,Active,,,http://www.redfin.com/CA/Santa-Rosa/159-Sequoia-Cir-95401/unit-159/home/176317241,BAREIS,321101338,N,Y,38.442791,-122.77154
134,MLS Listing,,Single Family Residential,203 Donald St,Graton,CA,95444,1200000.0,7.0,3.0,Graton,2186.0,12632.0,1909.0,12.0,549.0,,Active,,,http://www.redfin.com/CA/Graton/203-Donald-St-95444/home/2507970,BAREIS,321098206,N,Y,38.4339398,-122.8676952
135,MLS Listing,,Condo/Co-op,1370 Townview Ave #108,Santa Rosa,CA,95405,339900.0,2.0,1.5,Santa Rosa,1038.0,,1975.0,12.0,327.0,521.0,Active,,,http://www.redfin.com/CA/Santa-Rosa/1370-Townview-Ave-95405/unit-108/home/2229598,BAREIS,321101327,N,Y,38.4343171,-122.6851094
136,MLS Listing,,Single Family Residential,9049 Oak Trail Cir,Santa Rosa,CA,95409,440000.0,3.0,2.0,Santa Rosa,1125.0,4334.0,2006.0,12.0,391.0,102.0,Active,,,http://www.redfin.com/CA/Santa-Rosa/9049-Oak-Trail-Cir-95409/home/12112557,BAREIS,321101299,N,Y,38.4317688,-122.5809515
137,MLS Listing,,Single Family Residential,4196 Old Vineyard Ln,Santa Rosa,CA,95404,2399000.0,3.0,3.0,Hidden Hills,3176.0,130680.0,2020.0,12.0,755.0,,Active,,,http://www.redfin.com/CA/Santa-Rosa/4196-Old-Vineyard-Ln-95404/home/2280309,BAREIS,321100063,N,Y,38.5007513,-122.7074164
138,MLS Listing,,Single Family Residential,2072 Leonard Ave,Santa Rosa,CA,95405,865000.0,4.0,2.5,Bodle Estates,2459.0,6800.0,1979.0,12.0,352.0,,Active,,,http://www.redfin.com/CA/Santa-Rosa/2072-Leonard-Ave-95405/home/2218695,BAREIS,321095844,N,Y,38.4481204,-122.6906267
139,MLS Listing,,Single Family Residential,1101 Piner Creek Dr,Out Of Area,CA,95401,599000.0,3.0,2.0,,1108.0,7405.0,1977.0,12.0,541.0,,Active,,,http://www.redfin.com/CA/Santa-Rosa/1101-Piner-Creek-Dr-95401/home/2319721,FRESNOMLS,568334,N,Y,38.4455446,-122.7636343
140,MLS Listing,,Single Family Residential,113 Otter Close,The Sea Ranch,CA,95497,1100000.0,3.0,2.0,The Sea Ranch,1206.0,14026.0,1972.0,12.0,912.0,257.0,Active,,,http://www.redfin.com/CA/Sea-Ranch/113-Otter-Close-95497/home/2581552,BAREIS,321100204,N,Y,38.7255962,-123.4734499
141,MLS Listing,,Single Family Residential,18096 Greger St,Sonoma,CA,95476,490000.0,3.0,1.0,Boyes Springs Hotel Grounds,972.0,4100.0,1953.0,12.0,504.0,,Active,November-7-2021 01:00 PM,November-7-2021 04:00 PM,http://www.redfin.com/CA/Sonoma/18096-Greger-St-95476/home/2393336,BAREIS,321100821,N,Y,38.312749,-122.4834088
142,MLS Listing,,Vacant Land,7002 Mill Creek Rd,Healdsburg,CA,95448,349000.0,0.0,,Healdsburg,,160301.0,,12.0,,,Active,,,http://www.redfin.com/CA/Healdsburg/7002-Mill-Creek-Rd-95448/home/2481823,BAREIS,321100759,N,Y,38.5991489,-122.9699765
143,MLS Listing,,Single Family Residential,400 Oak St,Penngrove,CA,94951,1399000.0,4.0,2.5,Penngrove,2194.0,14340.0,1996.0,12.0,638.0,,Active,,,http://www.redfin.com/CA/PENNGROVE/400-OAK-ST-94951/home/2355375,BAREIS,321100826,N,Y,38.295515,-122.663972
144,MLS Listing,,Single Family Residential,595 Montclair Dr,Santa Rosa,CA,95409,1695000.0,4.0,3.0,Santa Rosa,3431.0,934798.0,1979.0,12.0,494.0,,Active,,,http://www.redfin.com/CA/Santa-Rosa/595-Montclair-Dr-95409/home/2576483,BAREIS,321099412,N,Y,38.4757273,-122.6490784
145,MLS Listing,,Single Family Residential,307 Powell Ave,Healdsburg,CA,95448,1050000.0,3.0,2.5,Healdsburg,2300.0,5700.0,1991.0,12.0,457.0,,Active,,,http://www.redfin.com/CA/Healdsburg/307-Powell-Ave-95448/home/2139157,BAREIS,321101002,N,Y,38.6213223,-122.8669904
146,MLS Listing,,Single Family Residential,316 Arbor Ave,Sonoma,CA,95476,699000.0,3.0,1.0,Sonoma,1440.0,5998.0,1952.0,12.0,485.0,,Active,,,http://www.redfin.com/CA/Sonoma/316-Arbor-Ave-95476/home/2381801,BAREIS,321095305,N,Y,38.3037445,-122.4851775
147,MLS Listing,,Single Family Residential,210 Solar Way,Healdsburg,CA,95448,549000.0,3.0,1.5,Healdsburg,1455.0,7349.0,1953.0,12.0,377.0,,Active,,,http://www.redfin.com/CA/Healdsburg/210-Solar-Way-95448/home/2139945,BAREIS,321100603,N,Y,38.6299989,-122.8708669
148,MLS Listing,,Single Family Residential,1621 Sarkesian Dr,Petaluma,CA,94954,799000.0,4.0,3.0,Petaluma,2159.0,6425.0,1970.0,12.0,370.0,,Active,,,http://www.redfin.com/CA/Petaluma/1621-Sarkesian-Dr-94954/home/2517789,San Francisco MLS,321100791,N,Y,38.2483411,-122.6127534
149,MLS Listing,,Vacant Land,148 Mission Dr,Kenwood,CA,95452,698000.0,0.0,,Kenwood,,43560.0,,12.0,,,Active,,,http://www.redfin.com/CA/Kenwood/148-Mission-Dr-95409/home/22419589,BAREIS,321099611,N,Y,38.417256,-122.553655
150,MLS Listing,,Single Family Residential,807 Stellar,Windsor,CA,95492,635000.0,3.0,2.0,Windsor,1250.0,6713.0,1986.0,12.0,508.0,,Active,,,http://www.redfin.com/CA/Windsor/807-Stellar-Ln-95492/home/2420770,BAREIS,321100611,N,Y,38.5495175,-122.8241181
151,MLS Listing,,Single Family Residential,5980 Stone Bridge Rd,SANTA ROSA,CA,95409,789000.0,3.0,2.0,SANTA ROSA,2065.0,16649.0,1989.0,13.0,382.0,102.0,Active,,,http://www.redfin.com/CA/Santa-Rosa/5980-Stone-Bridge-Rd-95409/home/2246715,MLSListings,ML81867558,N,Y,38.451407,-122.6239038
152,MLS Listing,,Single Family Residential,22132 Ruoff Rd,Jenner,CA,95450,699000.0,2.0,2.0,Timber Cove,1755.0,66211.0,1995.0,13.0,398.0,46.0,Active,November-7-2021 11:00 AM,November-7-2021 03:00 PM,http://www.redfin.com/CA/Jenner/22132-Ruoff-Rd-95450/home/2480813,BAREIS,321095781,N,Y,38.544467,-123.2816998
153,MLS Listing,,Single Family Residential,432 Godfrey Dr,Windsor,CA,95492,725000.0,3.0,2.0,Windsor,1666.0,5998.0,1991.0,13.0,435.0,,Active,,,http://www.redfin.com/CA/Windsor/432-Godfrey-Dr-95492/home/2597999,BAREIS,321100214,N,Y,38.5538288,-122.8206805
154,MLS Listing,,Single Family Residential,232 Twin Oaks Way,Healdsburg,CA,95448,699000.0,3.0,1.0,Solar Terrace,1025.0,6534.0,1953.0,13.0,682.0,,Active,,,http://www.redfin.com/CA/Healdsburg/232-Twin-Oaks-Way-95448/home/2140169,BAREIS,321100516,N,Y,38.6285398,-122.8700299
155,MLS Listing,,Single Family Residential,1534 Ranch Rd,Bodega Bay,CA,94923,1449000.0,4.0,3.5,Bodega Bay,3138.0,20473.0,2009.0,13.0,462.0,,Active,,,http://www.redfin.com/CA/Bodega-Bay/1534-Ranch-Rd-94923/home/22466807,BAREIS,321097539,N,Y,38.3395116,-123.0489604
156,MLS Listing,,Single Family Residential,3348 Terra Linda Dr,Santa Rosa,CA,95404,895000.0,4.0,2.5,Santa Rosa,2142.0,13199.0,1976.0,13.0,418.0,,Active,,,http://www.redfin.com/CA/Santa-Rosa/3348-Terra-Linda-Dr-95404/home/2610078,BAREIS,321097933,N,Y,38.4722875,-122.7144095
157,MLS Listing,,Single Family Residential,1642 Spring Creek Dr,Santa Rosa,CA,95405,799000.0,3.0,2.0,Santa Rosa,2071.0,9875.0,1957.0,13.0,386.0,,Active,,,http://www.redfin.com/CA/Santa-Rosa/1642-Spring-Creek-Dr-95405/home/2220130,BAREIS,321098051,N,Y,38.4417288,-122.69312
158,MLS Listing,,Vacant Land,14621 Eagle Nest Ln,Guerneville,CA,95446,50000.0,0.0,,Guerneville,,5001.0,,14.0,,,Active,,,http://www.redfin.com/CA/Guerneville/14621-Eagle-Nest-Ln-95446/home/22416226,BAREIS,321100371,N,Y,38.519256,-122.980328
159,MLS Listing,,Single Family Residential,720 Cleveland Ln,Petaluma,CA,94952,1295000.0,2.0,2.0,Petaluma,1296.0,108900.0,1908.0,14.0,999.0,,Active,,,http://www.redfin.com/CA/Petaluma/720-Cleveland-Ln-94952/home/2264414,BAREIS,321100302,N,Y,38.233387,-122.6641017
160,MLS Listing,,Vacant Land,3946 Graystone Pl,Santa Rosa,CA,95403,299000.0,0.0,,Santa Rosa,,91912.0,,14.0,,,Active,,,http://www.redfin.com/CA/Santa-Rosa/3946-Greystone-Ct-95403/home/161458695,BAREIS,321100395,N,Y,38.5041167,-122.7149821
161,MLS Listing,,Vacant Land,3959 Graystone Pl,Santa Rosa,CA,95403,320000.0,0.0,,Santa Rosa,,87120.0,,14.0,,,Active,,,http://www.redfin.com/CA/Santa-Rosa/3959-Greystone-Ct-95403/home/161473675,BAREIS,321100394,N,Y,38.5046007,-122.7158988
162,MLS Listing,,Single Family Residential,14619 Eagle Nest Ln,Guerneville,CA,95446,599000.0,3.0,2.0,Guerneville,1334.0,9500.0,1919.0,14.0,449.0,,Active,,,http://www.redfin.com/CA/Guerneville/14619-Eagle-Nest-Ln-95446/home/2429583,BAREIS,321100175,N,Y,38.519082,-122.980202
163,MLS Listing,,Vacant Land,3953 Bridlewood Ct,Santa Rosa,CA,95403,370000.0,0.0,,Santa Rosa,,87120.0,,14.0,,,Active,,,http://www.redfin.com/CA/Santa-Rosa/3953-Bridlewood-Ct-95403/home/21826767,BAREIS,321100385,N,Y,38.5045748,-122.7173723
164,MLS Listing,,Vacant Land,0 West Ave,Santa Rosa,CA,95407,1750000.0,0.0,,Santa Rosa,,97574.0,,14.0,,,Active,,,http://www.redfin.com/CA/SANTA-ROSA/WEST-AVE-95407/home/22426488,BAREIS,321100102,N,Y,38.425011,-122.726648
165,MLS Listing,,Vacant Land,3965 Bridlewood Ct,Santa Rosa,CA,95403,375000.0,0.0,,Santa Rosa,,87120.0,,14.0,,,Active,,,http://www.redfin.com/CA/Santa-Rosa/3965-Bridlewood-Ct-95403/home/17546590,BAREIS,321100384,N,Y,38.5047852,-122.7181736
166,MLS Listing,,Vacant Land,4010 Bridlewood Ct,Santa Rosa,CA,95403,380000.0,0.0,,Santa Rosa,,94525.0,,14.0,,,Active,,,http://www.redfin.com/CA/Santa-Rosa/4010-Bridlewood-Ct-95403/home/147931972,BAREIS,321100375,N,Y,38.5053564,-122.7171832
167,MLS Listing,,Vacant Land,4030 Bridlewood Ct,Santa Rosa,CA,95403,399000.0,0.0,,Santa Rosa,,91476.0,,14.0,,,Active,,,http://www.redfin.com/CA/Santa-Rosa/4030-Bridlewood-Ct-95403/home/143174510,BAREIS,321100367,N,Y,38.505913,-122.7181699
168,MLS Listing,,Single Family Residential,3021 Marc Way,Santa Rosa,CA,95403,1299000.0,3.0,2.0,Santa Rosa,1617.0,42250.0,1960.0,14.0,803.0,,Active,,,http://www.redfin.com/CA/Santa-Rosa/3021-Marc-Way-95403/home/2317895,BAREIS,321098854,N,Y,38.4630987,-122.758144
169,MLS Listing,,Vacant Land,0 3850 Saint Andrews Dr,Santa Rosa,CA,95403,675000.0,0.0,,Santa Rosa,,241322.0,,14.0,,,Active,,,http://www.redfin.com/CA/Santa-Rosa/3850-St-Andrews-Dr-95403/home/161458693,BAREIS,321100299,N,Y,38.4977233,-122.715282
170,MLS Listing,,Condo/Co-op,231 Gambrel Cir,Santa Rosa,CA,95403,776002.0,3.0,2.5,Santa Rosa,1912.0,,2021.0,14.0,406.0,220.0,Active,,,http://www.redfin.com/CA/Larkfield-Wikiup/231-Gambrel-CIR-95403/home/174685070,BAREIS,321100276,N,Y,38.4739555,-122.7520139
171,MLS Listing,,Condo/Co-op,291 Gambrel Cir,Santa Rosa,CA,95403,703031.0,3.0,2.5,Santa Rosa,1884.0,,2021.0,14.0,373.0,220.0,Active,,,http://www.redfin.com/CA/Larkfield-Wikiup/291-Gambrel-CIR-95403/home/176771386,BAREIS,321100260,N,Y,38.4739555,-122.7520139
172,MLS Listing,,Single Family Residential,20290 River Blvd,Monte Rio,CA,95462,615000.0,2.0,1.0,Monte Rio,677.0,10400.0,1914.0,14.0,908.0,,Active,,,http://www.redfin.com/CA/Monte-Rio/20290-River-Blvd-95462/home/2469307,BAREIS,321099480,N,Y,38.47158,-123.0047802
173,MLS Listing,,Single Family Residential,15300 Bittner Rd,Occidental,CA,95465,1995000.0,3.0,2.5,Occidental,2712.0,436471.0,1983.0,15.0,736.0,,Active,,,http://www.redfin.com/CA/Occidental/15300-Bittner-Rd-95465/home/2438368,BAREIS,321098452,N,Y,38.402515,-122.9540737
174,MLS Listing,,Single Family Residential,960 Gumview Rd,Windsor,CA,95492,1129000.0,3.0,2.0,Windsor,1741.0,24394.0,1989.0,15.0,648.0,,Active,,,http://www.redfin.com/CA/Windsor/960-Gumview-Rd-95492/home/2420390,BAREIS,321098656,N,Y,38.5563065,-122.8275115
175,MLS Listing,,Single Family Residential,4342 Burnside Rd,Sebastopol,CA,95472,1895000.0,3.0,2.5,Sebastopol,2536.0,255697.0,1984.0,15.0,747.0,,Active,,,http://www.redfin.com/CA/Sebastopol/4342-Burnside-Rd-95472/home/2436806,BAREIS,321099832,N,Y,38.3501642,-122.8725507
176,MLS Listing,,Multi-Family (2-4 Unit),846 3rd St W,Sonoma,CA,95476,1085000.0,5.0,4.0,Sonoma,2358.0,4205.0,1999.0,15.0,460.0,300.0,Active,,,http://www.redfin.com/CA/Sonoma/846-3rd-St-W-95476/home/2637208,BAREIS,321098312,N,Y,38.28634,-122.4640176
177,MLS Listing,,Vacant Land,0 Crane Cyn,Santa Rosa,CA,95405,515000.0,0.0,,Santa Rosa,,87120.0,,15.0,,,Active,,,http://www.redfin.com/CA/Santa-Rosa/1971-Crane-Canyon-Rd-95404/home/107346797,BAREIS,321099959,N,Y,38.3677776,-122.6541916
178,MLS Listing,,Single Family Residential,672 Greenview Dr,Santa Rosa,CA,95403,1250000.0,5.0,3.5,Santa Rosa,3062.0,6752.0,1967.0,15.0,408.0,,Active,,,http://www.redfin.com/CA/Santa-Rosa/672-Greenview-Dr-95403/home/2334134,BAREIS,321095330,N,Y,38.5065885,-122.747343
179,MLS Listing,,Single Family Residential,1208 Marque Dr,Rohnert Park,CA,94928,798000.0,4.0,3.0,Rohnert Park,2066.0,3999.0,1998.0,15.0,386.0,,Active,,,http://www.redfin.com/CA/Rohnert-Park/1208-Marque-Dr-94928/home/2363486,BAREIS,321094497,N,Y,38.3272963,-122.6870587
180,MLS Listing,,Single Family Residential,8477 Old Oak Rd,Windsor,CA,95492,950000.0,6.0,3.0,Windsor,2800.0,5110.0,2005.0,15.0,339.0,55.0,Active,,,http://www.redfin.com/CA/Windsor/8477-Old-Oak-Rd-95492/home/12112365,BAREIS,321095287,N,Y,38.5425899,-122.8107636
181,MLS Listing,,Single Family Residential,571 Monaco Cir,Cloverdale,CA,95425,684950.0,4.0,2.5,Jefferson Springs,1800.0,5171.0,1990.0,15.0,381.0,,Active,,,http://www.redfin.com/CA/Cloverdale/571-Monaco-Cir-95425/home/2486662,BAREIS,321095945,N,Y,38.8131387,-123.0284451
182,MLS Listing,,Single Family Residential,20 Cliffwood Ct,Santa Rosa,CA,95409,598000.0,2.0,2.0,Santa Rosa,1618.0,3498.0,1981.0,16.0,370.0,337.0,Active,,,http://www.redfin.com/CA/Santa-Rosa/20-Cliffwood-Ct-95409/home/2243944,BAREIS,321098056,N,Y,38.4299639,-122.5968095
183,MLS Listing,,Single Family Residential,108 Grape Gables Way,Cloverdale,CA,95425,699000.0,2.0,2.0,Cloverdale,1886.0,,2003.0,16.0,371.0,,Active,,,http://www.redfin.com/CA/Cloverdale/108-Grape-Gables-Way-95425/home/2647618,BAREIS,321099814,N,Y,38.7863174,-123.0197364
184,MLS Listing,,Vacant Land,0 120 Big Leaf Ct,Healdsburg,CA,95448,1795000.0,0.0,,Healdsburg,,11326.0,,16.0,,1833.0,Active,,,http://www.redfin.com/CA/Healdsburg/120-Big-Leaf-CT-95448/home/176745565,San Francisco MLS,321099810,N,Y,38.6104658,-122.8691609
185,MLS Listing,,Vacant Land,22202 Umland Cir,Jenner,CA,95450,249000.0,0.0,,Jenner,,69696.0,,16.0,,55.0,Active,,,http://www.redfin.com/CA/Jenner/22202-Umland-Cir-95450/home/21822792,BAREIS,321099785,N,Y,38.541155,-123.2787338
186,MLS Listing,,Single Family Residential,5850 Kittyhawk Pl,Rohnert Park,CA,94928,869848.0,3.0,2.0,Rohnert Park,1787.0,4480.0,2021.0,16.0,487.0,100.0,Active,,,http://www.redfin.com/CA/Cotati/5850-Kittyhawk-Pl-94928/home/167509805,BAREIS,321099796,N,Y,38.348364,-122.669093
187,MLS Listing,,Single Family Residential,631 Baker St,Petaluma,CA,94952,730000.0,2.0,1.0,Petaluma,816.0,10001.0,1923.0,16.0,895.0,,Active,,,http://www.redfin.com/CA/Petaluma/631-Baker-St-94952/home/2164962,BAREIS,321099745,N,Y,38.2337752,-122.6511235
188,MLS Listing,,Single Family Residential,142 Alexander Valley Rd,Healdsburg,CA,95448,2150000.0,3.0,2.0,Healdsburg,2550.0,217800.0,1962.0,17.0,843.0,,Active,,,http://www.redfin.com/CA/Healdsburg/142-Alexander-Valley-Rd-95448/home/2464527,BAREIS,321099323,N,Y,38.6505719,-122.868289
189,MLS Listing,,Mobile/Manufactured Home,204 Jason St,Windsor,CA,95492,254999.0,3.0,2.0,Royal Mobile Manor,1400.0,364292.0,1997.0,17.0,182.0,,Active,,,http://www.redfin.com/CA/Windsor/204-Jason-St-95492/home/40539400,BAREIS,321099617,N,Y,38.5373028,-122.7922846
190,MLS Listing,,Single Family Residential,667 Donald St,Sonoma,CA,95476,849000.0,2.0,2.0,Sonoma,1452.0,7684.0,1988.0,17.0,585.0,,Active,,,http://www.redfin.com/CA/Sonoma/667-Donald-St-95476/home/2498735,BAREIS,321091192,N,Y,38.3039094,-122.4700321
191,MLS Listing,,Vacant Land,11025 Occidental Rd,Sebastopol,CA,95472,349000.0,0.0,,Sebastopol,,37906.0,,18.0,,,Active,,,http://www.redfin.com/CA/Sebastopol/11025-Occidental-Rd-95472/home/22468887,BAREIS,321091566,N,Y,38.4076354,-122.8920707
192,MLS Listing,,Single Family Residential,426 Terrace Blvd,Healdsburg,CA,95448,785000.0,3.0,2.0,Healdsburg,1658.0,6199.0,1969.0,18.0,473.0,,Active,,,http://www.redfin.com/CA/Healdsburg/426-Terrace-Blvd-95448/home/2140559,BAREIS,321099394,N,Y,38.6277359,-122.8654265
193,MLS Listing,,Single Family Residential,2344 Maria Luz Ct W,Santa Rosa,CA,95401,669950.0,4.0,2.5,Valley West 02,1975.0,6268.0,1978.0,18.0,339.0,,Active,,,http://www.redfin.com/CA/Santa-Rosa/2344-Maria-Luz-Ct-W-95401/home/2307486,BAREIS,321091932,N,Y,38.4343446,-122.7606356
194,MLS Listing,,Single Family Residential,985 Hacienda Cir,Rohnert Park,CA,94928,585000.0,2.0,1.5,Rohnert Park,1557.0,3049.0,1984.0,18.0,376.0,,Active,,,http://www.redfin.com/CA/Rohnert-Park/985-Hacienda-Cir-94928/home/2593572,BAREIS,321098607,N,Y,38.3629564,-122.6946446
195,MLS Listing,,Single Family Residential,3393 White Alder,Sonoma,CA,95476,2495000.0,3.0,2.5,George Ranch,2323.0,137214.0,1988.0,18.0,1074.0,225.0,Active,,,http://www.redfin.com/CA/Sonoma/3393-White-Alder-95476/home/2537575,San Francisco MLS,321098904,N,Y,38.2878265,-122.5328987
196,MLS Listing,,Vacant Land,8820 Mill Creek Rd,Healdsburg,CA,95448,400000.0,0.0,,Healdsburg,,435600.0,,18.0,,,Active,,,http://www.redfin.com/CA/Healdsburg/8820-Mill-Creek-Rd-95448/home/147936542,BAREIS,321098976,N,Y,38.5929689,-122.989229
197,MLS Listing,,Single Family Residential,4743 Montgomery,Santa Rosa,CA,95409,749900.0,3.0,2.0,Santa Rosa,1631.0,8751.0,1924.0,19.0,,,Active,,,http://www.redfin.com/CA/Santa-Rosa/4743-Montgomery-Dr-95409/home/2282928,MetroList,321099045,N,Y,38.4608874,-122.6654259
198,MLS Listing,,Single Family Residential,11945 Mays Canyon Rd,Guerneville,CA,95446,1375000.0,3.0,2.0,Guerneville,2624.0,2196731.0,,19.0,524.0,,Active,,,http://www.redfin.com/CA/Guerneville/11945-Mays-Canyon-Rd-95446/home/176730135,BAREIS,321098637,N,Y,38.4833668,-122.974721
199,MLS Listing,,Multi-Family (5+ Unit),80 Front St,Healdsburg,CA,95448,2950000.0,8.0,7.0,Healdsburg,6283.0,24002.0,1987.0,19.0,470.0,,Active,,,http://www.redfin.com/CA/Healdsburg/80-Front-St-95448/home/2137808,BAREIS,321096095,N,Y,38.6070376,-122.8617039
200,MLS Listing,,Single Family Residential,4281 Lakeside Rd,Glen Ellen,CA,95442,559000.0,1.0,1.0,Glen Ellen,750.0,4051.0,1936.0,19.0,745.0,42.0,Active,,,http://www.redfin.com/CA/Glen-Ellen/4281-Lakeside-Rd-95442/home/2386153,BAREIS,321097607,N,Y,38.3697507,-122.5355067
201,MLS Listing,,Single Family Residential,1234 Camino Coronado,Rohnert Park,CA,94928,610000.0,4.0,2.0,Rohnert Park,1318.0,4356.0,1971.0,19.0,463.0,,Active,,,http://www.redfin.com/CA/Rohnert-Park/1234-Camino-Coronado-94928/home/2544075,"bridgeMLS, Bay East AOR, or Contra Costa AOR",40970867,N,Y,38.3419582,-122.688685
202,MLS Listing,,Single Family Residential,2250 Vallejo St,Santa Rosa,CA,95404,786500.0,3.0,2.0,Santa Rosa,1766.0,7902.0,1967.0,19.0,445.0,,Active,,,http://www.redfin.com/CA/Santa-Rosa/2250-Vallejo-St-95404/home/2221238,San Francisco MLS,321098726,N,Y,38.4388967,-122.6912886
203,MLS Listing,,Single Family Residential,20675 Broadway,Sonoma,CA,95476,6475000.0,4.0,3.5,Sonoma,3400.0,261796.0,2016.0,19.0,1904.0,,Active,,,http://www.redfin.com/CA/Sonoma/20675-Broadway-95476/home/2504590,San Francisco MLS,321098086,N,Y,38.272391,-122.462329
204,MLS Listing,,Single Family Residential,7411 Oakmont Dr,Santa Rosa,CA,95409,415000.0,1.0,1.0,Oakmont Village,1074.0,1398.0,1981.0,19.0,386.0,250.0,Active,,,http://www.redfin.com/CA/Santa-Rosa/7411-Oakmont-Dr-95409/home/2244300,BAREIS,321095162,N,Y,38.425948,-122.584159
205,MLS Listing,,Single Family Residential,1450 Ridge Oaks Rd,Geyserville,CA,95441,7800000.0,4.0,4.0,Geyserville,6058.0,8465015.0,,20.0,1288.0,,Active,,,http://www.redfin.com/CA/Geyserville/1450-Ridge-Oaks-Rd-95441/home/173376968,BAREIS,321097750,N,Y,38.7386399,-122.898283
206,MLS Listing,,Single Family Residential,21848 Russian River Ave,Villa Grande,CA,95486,1480000.0,2.0,1.0,Villa Grande,856.0,21941.0,1914.0,20.0,1729.0,,Active,,,http://www.redfin.com/CA/Monte-Rio/21848-Russian-River-Ave-95462/home/2467700,San Francisco MLS,321097341,N,Y,38.4748697,-123.0226834
207,MLS Listing,,Single Family Residential,4024 Rickenbacker Dr,Santa Rosa,CA,95407,679000.0,4.0,2.5,Santa Rosa,1338.0,4230.0,2002.0,20.0,507.0,,Active,,,http://www.redfin.com/CA/Santa-Rosa/4024-Rickenbacker-Dr-95407/home/2641278,BAREIS,321091707,N,Y,38.4151108,-122.7579014
208,MLS Listing,,Single Family Residential,12020 Mays Canyon Rd,Guerneville,CA,95446,475000.0,2.0,2.0,Guerneville,1272.0,,1936.0,20.0,373.0,,Active,,,http://www.redfin.com/CA/Guerneville/12020-Mays-Canyon-Rd-95446/home/2432743,San Francisco MLS,321096825,N,Y,38.491177,-122.980778
209,MLS Listing,,Condo/Co-op,2694 Westberry Dr,Santa Rosa,CA,95403,420000.0,2.0,2.0,Santa Rosa,1061.0,1102.0,1986.0,20.0,396.0,403.0,Active,,,http://www.redfin.com/CA/Santa-Rosa/2694-Westberry-Dr-95403/home/2325296,BAREIS,321095243,N,Y,38.455886,-122.7403866
210,MLS Listing,,Single Family Residential,15392 Marty Dr,Glen Ellen,CA,95442,750000.0,3.0,2.0,Glen Ellen,1746.0,22324.0,1979.0,20.0,430.0,,Active,,,http://www.redfin.com/CA/Glen-Ellen/15392-Marty-Dr-95442/home/2385396,BAREIS,321096077,N,Y,38.3410792,-122.5113506
211,MLS Listing,,Single Family Residential,2077 Cooper Dr,Santa Rosa,CA,95404,758000.0,3.0,2.5,Santa Rosa,2380.0,3807.0,2006.0,20.0,318.0,40.0,Active,,,http://www.redfin.com/CA/Santa-Rosa/2077-Cooper-Dr-95404/home/12112264,BAREIS,321097860,N,Y,38.4280759,-122.6943218
212,MLS Listing,,Single Family Residential,4560 Kilarney Cir,Santa Rosa,CA,95403,650000.0,2.0,2.5,Santa Rosa,1640.0,2087.0,2020.0,21.0,396.0,596.0,Active,,,http://www.redfin.com/CA/Santa-Rosa/4560-Kilarney-Cir-95403/home/2615312,BAREIS,321098105,N,Y,38.4896442,-122.7226704
213,MLS Listing,,Single Family Residential,19590 Crescent Ave,Monte Rio,CA,95462,789000.0,3.0,2.5,Monte Rio,1978.0,8141.0,1988.0,21.0,399.0,,Active,,,http://www.redfin.com/CA/Monte-Rio/19590-Crescent-Ave-95462/home/2466570,San Francisco MLS,321095690,N,Y,38.4759411,-123.000161
214,MLS Listing,,Single Family Residential,6129 Lichau,Penngrove,CA,94951-9732,2199000.0,3.0,2.0,Penngrove,2511.0,396831.0,1985.0,21.0,876.0,,Active,November-6-2021 01:00 PM,November-6-2021 03:00 PM,http://www.redfin.com/CA/Penngrove/6129-Lichau-Rd-94951/home/2517484,"bridgeMLS, Bay East AOR, or Contra Costa AOR",40970636,N,Y,38.343537,-122.602755
215,MLS Listing,,Single Family Residential,1477 Dutch Ln,Penngrove,CA,94951,1195000.0,3.0,2.0,Penngrove,1340.0,60113.0,1959.0,21.0,892.0,,Active,,,http://www.redfin.com/CA/Penngrove/1477-Dutch-Ln-94951/home/2355717,BAREIS,321096061,N,Y,38.304064,-122.6572155
216,MLS Listing,,Multi-Family (2-4 Unit),836 Third St W,Sonoma,CA,95476,1135000.0,5.0,4.0,Sonoma,2358.0,6294.0,1999.0,21.0,481.0,300.0,Active,,,http://www.redfin.com/CA/Sonoma/836-3rd-St-W-95476/home/2637200,BAREIS,321097962,N,Y,38.2862257,-122.4637301
217,MLS Listing,,Mobile/Manufactured Home,201 Petaluma Way,Petaluma,CA,94954,244999.0,2.0,2.0,Petaluma Estates,1344.0,,1972.0,21.0,182.0,,Active,,,http://www.redfin.com/CA/Petaluma/201-Petaluma-Way-94954/home/176711586,MetroList,321097684,N,Y,38.2630714,-122.6523596
218,MLS Listing,,Single Family Residential,1710 Canyon Run,Healdsburg,CA,95448,919000.0,4.0,2.5,Healdsburg,1926.0,4500.0,1999.0,22.0,477.0,,Active,,,http://www.redfin.com/CA/Healdsburg/1710-Canyon-Run-95448/home/2465228,BAREIS,321096142,N,Y,38.6403987,-122.8682238
219,MLS Listing,,Multi-Family (2-4 Unit),137 Agua Caliente W,Sonoma,CA,95476,1250000.0,6.0,6.0,Sonoma,2875.0,7500.0,2000.0,22.0,435.0,,Active,,,http://www.redfin.com/CA/Sonoma/137-Agua-Caliente-Rd-W-95476/home/107962893,BAREIS,321096972,N,Y,38.324637,-122.4912793
220,MLS Listing,,Single Family Residential,837 Lilac Way,Rohnert Park,CA,94928,759980.0,4.0,2.0,Rohnert Park,2046.0,6900.0,1973.0,22.0,371.0,,Active,,,http://www.redfin.com/CA/Rohnert-Park/837-Lilac-Way-94928/home/2349872,BAREIS,321080958,N,Y,38.3225201,-122.6868315
221,MLS Listing,,Single Family Residential,3200 Cobblestone Dr,Santa Rosa,CA,95404,1195000.0,3.0,2.5,Santa Rosa,2328.0,14170.0,1984.0,22.0,513.0,50.0,Active,,,http://www.redfin.com/CA/Santa-Rosa/3200-Cobblestone-Dr-95404/home/2610428,BAREIS,321081394,N,Y,38.4709143,-122.7058398
222,MLS Listing,,Single Family Residential,8190 Mill Station Rd,Sebastopol,CA,95472,1450000.0,2.0,2.5,Sebastopol,2648.0,42001.0,2017.0,22.0,548.0,,Active,,,http://www.redfin.com/CA/Sebastopol/8190-Mill-Station-Rd-95472/home/2409365,BAREIS,321096006,N,Y,38.4114214,-122.8499369
223,MLS Listing,,Single Family Residential,1749 Rosamond,Petaluma,CA,94954,939000.0,4.0,2.5,Petaluma,1986.0,4687.0,1993.0,23.0,473.0,,Active,,,http://www.redfin.com/CA/Petaluma/1749-Rosamond-St-94954/home/2523607,BAREIS,321097254,N,Y,38.2652095,-122.6329337
224,MLS Listing,,Single Family Residential,8525 Starr Rd,Windsor,CA,95492,1699000.0,3.0,3.0,Windsor,2176.0,182952.0,1976.0,24.0,781.0,,Active,,,http://www.redfin.com/CA/Windsor/8525-Starr-Rd-95492/home/2418514,BAREIS,321097431,N,Y,38.5371112,-122.8270268
225,MLS Listing,,Single Family Residential,1933 Marian Ln,Santa Rosa,CA,95405,839000.0,3.0,2.0,Santa Rosa,1751.0,8999.0,1958.0,24.0,479.0,,Active,,,http://www.redfin.com/CA/Santa-Rosa/1933-Marian-Ln-95405/home/2217686,BAREIS,321097432,N,Y,38.4490455,-122.6929655
226,MLS Listing,,Single Family Residential,1388 Gillpepper Ln,Rohnert Park,CA,94928,699000.0,4.0,2.0,Rohnert Park,1648.0,4500.0,1980.0,24.0,424.0,,Active,,,http://www.redfin.com/CA/Rohnert-Park/1388-Gillpepper-Ln-94928/home/2590550,BAREIS,321093075,N,Y,38.3721108,-122.6829921
227,MLS Listing,,Single Family Residential,720 Blossom Way,Santa Rosa,CA,95401,657000.0,3.0,2.0,Santa Rosa,1448.0,19001.0,1946.0,24.0,454.0,,Active,,,http://www.redfin.com/CA/Santa-Rosa/720-Blossom-Way-95401/home/2328415,BAREIS,321096005,N,Y,38.4433834,-122.7372385
228,MLS Listing,,Single Family Residential,43 Haworth Way,Santa Rosa,CA,95407,664156.0,3.0,3.0,Village Station,1939.0,1200.0,2021.0,24.0,343.0,109.0,Active,,,http://www.redfin.com/CA/Santa-Rosa/43-Haworth-Way-95407/home/175621019,MetroList,321097374,N,Y,38.432832,-122.720171
229,MLS Listing,,Single Family Residential,1895 Fumay Dr,Santa Rosa,CA,95403,1049000.0,4.0,3.0,Santa Rosa,1975.0,,2021.0,24.0,531.0,77.0,Active,,,http://www.redfin.com/CA/Santa-Rosa/1895-Fumay-Dr-95403/home/2614560,BAREIS,321097109,N,Y,38.4943437,-122.711457
230,MLS Listing,,Mobile/Manufactured Home,1945 Piner Rd #122,Santa Rosa,CA,95403,395000.0,2.0,2.0,The Orchards,1948.0,,1983.0,24.0,203.0,,Active,,,http://www.redfin.com/CA/Santa-Rosa/1945-Piner-Rd-95403/unit-122/home/40014295,BAREIS,321096106,N,Y,38.4703038,-122.751639
231,MLS Listing,,Mobile/Manufactured Home,1506 Royal Oak Dr,Petaluma,CA,94954,215000.0,2.0,2.0,Royal Oak Mobile Estates,1056.0,3750.0,1984.0,25.0,204.0,,Active,,,http://www.redfin.com/CA/Petaluma/1506-Royal-Oak-Dr-94954/home/21492591,BAREIS,321096362,N,Y,38.2621322,-122.6461422
232,MLS Listing,,Vacant Land,1125 Westside Rd,Healdsburg,CA,95448,2550000.0,0.0,,Healdsburg,,462172.0,,25.0,,,Active,,,http://www.redfin.com/CA/Healdsburg/1125-Westside-Rd-95448/home/22484906,BAREIS,321097247,N,Y,38.601899,-122.888788
233,MLS Listing,,Single Family Residential,245 Edinburgh Ln,Petaluma,CA,94952,1250000.0,4.0,3.0,Petaluma,2229.0,8947.0,2000.0,25.0,561.0,104.0,Active,,,http://www.redfin.com/CA/Petaluma/245-Edinburgh-Ln-94952/home/2191071,BAREIS,321086688,N,Y,38.2229232,-122.6585177
234,MLS Listing,,Single Family Residential,334 Kentucky St,Petaluma,CA,94952,1399000.0,5.0,4.0,Petaluma,3000.0,5250.0,1900.0,25.0,466.0,,Active,,,http://www.redfin.com/CA/Petaluma/334-Kentucky-St-94952/home/2163168,BAREIS,321095764,N,Y,38.2382819,-122.6435301
235,MLS Listing,,Single Family Residential,4021 Slate Ct,Santa Rosa,CA,95405,1190000.0,4.0,3.0,Castlerock,2568.0,29185.0,1984.0,25.0,463.0,,Active,,,http://www.redfin.com/CA/Santa-Rosa/4021-Slate-Ct-95405/home/2216997,BAREIS,321095687,N,Y,38.4527988,-122.6630423
236,MLS Listing,,Condo/Co-op,15 Woodgreen St,Santa Rosa,CA,95409,410000.0,1.0,1.0,Santa Rosa,1043.0,1307.0,1969.0,25.0,393.0,352.0,Active,,,http://www.redfin.com/CA/Santa-Rosa/15-Woodgreen-St-95409/home/2237229,San Francisco MLS,321096668,N,Y,38.439842,-122.603868
237,MLS Listing,,Single Family Residential,1963 Abramson Rd,Santa Rosa,CA,95401,1800000.0,4.0,2.5,Santa Rosa,1918.0,217800.0,1979.0,25.0,938.0,,Active,,,http://www.redfin.com/CA/Santa-Rosa/1963-Abramson-Rd-95401/home/2288078,BAREIS,321097056,N,Y,38.4603499,-122.7877486
238,MLS Listing,,Vacant Land,35592 Timber Ridge Rd,The Sea Ranch,CA,95497,349000.0,0.0,,The Sea Ranch,,21867.0,,25.0,,257.0,Active,,,http://www.redfin.com/CA/Sea-Ranch/35592-Timber-Ridge-Rd-95497/home/22430438,BAREIS,321097027,N,Y,38.698614,-123.427322
239,MLS Listing,,Mobile/Manufactured Home,311 Locust Tree Way,Santa Rosa,CA,95403,239555.0,3.0,2.0,Redwood Village,1030.0,,2018.0,25.0,233.0,,Active,,,http://www.redfin.com/CA/Larkfield-Wikiup/311-Locust-Tree-Ln-95403/home/168962233,BAREIS,321095439,N,Y,38.512355,-122.7673857
240,MLS Listing,,Single Family Residential,335 Terrace Blvd,Healdsburg,CA,95448,728000.0,4.0,2.0,Healdsburg,1406.0,6769.0,1965.0,25.0,518.0,,Active,,,http://www.redfin.com/CA/Healdsburg/335-Terrace-Blvd-95448/home/2140998,BAREIS,321095338,N,Y,38.6281896,-122.8676511
241,MLS Listing,,Multi-Family (2-4 Unit),530 Healdsburg Ave,Healdsburg,CA,95448,3590000.0,5.0,5.5,Healdsburg,3760.0,29399.0,1909.0,25.0,955.0,,Active,,,http://www.redfin.com/CA/Healdsburg/530-Healdsburg-Ave-95448/home/2134639,BAREIS,321076682,N,Y,38.6154058,-122.8715717
242,MLS Listing,,Single Family Residential,6650 Warehill Rd,Santa Rosa,CA,95404,1299000.0,3.0,2.5,Santa Rosa,1637.0,159865.0,1972.0,26.0,794.0,,Active,,,http://www.redfin.com/CA/Santa-Rosa/6650-Warehill-Rd-95404/home/2366101,BAREIS,321093661,N,Y,38.3899867,-122.6211881
243,MLS Listing,,Mobile/Manufactured Home,124 Coronado Cir,Santa Rosa,CA,95409,110000.0,2.0,1.0,Rancho Cabeza Mobile Home Estates,791.0,,1964.0,26.0,139.0,,Active,,,http://www.redfin.com/CA/Santa-Rosa/124-Coronado-Cir-95409/home/176676172,BAREIS,321096572,N,Y,38.4764535,-122.6554056
244,MLS Listing,,Single Family Residential,9805 Elizabeth Way,Forestville,CA,95436,849900.0,4.0,2.0,Forestville,1932.0,18295.0,1974.0,26.0,440.0,,Active,,,http://www.redfin.com/CA/Forestville/9805-Elizabeth-Way-95436/home/2453376,BAREIS,321090979,N,Y,38.5045471,-122.912574
245,MLS Listing,,Multi-Family (2-4 Unit),430 Calle Del Monte,Sonoma,CA,95476,1340000.0,6.0,6.0,Boyes Springs Park,2951.0,11690.0,1971.0,26.0,454.0,,Active,,,http://www.redfin.com/CA/Sonoma/430-Calle-Del-Monte-95476/home/2394216,BAREIS,321095752,N,Y,38.3137572,-122.4780423
246,MLS Listing,,Single Family Residential,7660 Mandolin Way,Rohnert Park,CA,94928,789000.0,3.0,2.5,Rohnert Park,1846.0,3999.0,1988.0,26.0,427.0,,Active,,,http://www.redfin.com/CA/Rohnert-Park/7660-Mandolin-Way-94928/home/2586317,BAREIS,321096506,N,Y,38.3310232,-122.6879519
247,MLS Listing,,Mobile/Manufactured Home,1107 Sunnyvale Ct,Santa Rosa,CA,95401,134900.0,2.0,1.5,Woodcrest Senior Mobile Home Park,1152.0,,1971.0,26.0,117.0,,Active,,,http://www.redfin.com/CA/Santa-Rosa/1107-Sunnyvale-Ct-95401/home/40539059,BAREIS,321095421,N,Y,38.4444917,-122.7455805
248,MLS Listing,,Single Family Residential,25900 Highland Ranch Rd,Cloverdale,CA,95425,3495000.0,3.0,2.0,Cloverdale,3000.0,1888762.0,,26.0,1165.0,,Active,,,http://www.redfin.com/CA/Cloverdale/25900-Highland-Ranch-Rd-95425/home/167571333,BAREIS,321095920,N,Y,38.773966,-122.9573584
249,MLS Listing,,Single Family Residential,8805 Oakmont Dr,Santa Rosa,CA,95409,799000.0,3.0,2.0,Oakmont,1870.0,10036.0,1985.0,26.0,427.0,102.0,Active,,,http://www.redfin.com/CA/Santa-Rosa/8805-Oakmont-Dr-95409/home/2245250,BAREIS,321096345,N,Y,38.4255679,-122.5764896
250,MLS Listing,,Single Family Residential,795 Dry Creek Rd,Healdsburg,CA,95448,1900000.0,3.0,2.0,Healdsburg,1340.0,62291.0,1890.0,26.0,1418.0,,Active,,,http://www.redfin.com/CA/Healdsburg/795-Dry-Creek-Rd-95448/home/2463364,BAREIS,321093019,N,Y,38.6290383,-122.8862395
251,MLS Listing,,Single Family Residential,1288 San Jose Way,Petaluma,CA,94954,720000.0,3.0,2.0,Petaluma,1152.0,6752.0,1971.0,26.0,625.0,,Active,,,http://www.redfin.com/CA/Petaluma/1288-San-Jose-Way-94954/home/2158707,BAREIS,321090453,N,Y,38.235886,-122.6067591
252,MLS Listing,,Condo/Co-op,660 Racquet Club Cir,Rohnert Park,CA,94928,470000.0,3.0,2.0,Rohnert Park,1284.0,1083.0,1979.0,26.0,366.0,448.0,Active,,,http://www.redfin.com/CA/Rohnert-Park/660-Racquet-Club-Cir-94928/home/2587268,BAREIS,321095605,N,Y,38.350338,-122.700034
253,MLS Listing,,Mobile/Manufactured Home,297 La Serena Way,Sonoma,CA,94954,149000.0,2.0,1.0,Moon Valley,800.0,,1970.0,27.0,186.0,,Active,,,http://www.redfin.com/CA/Sonoma/297-La-Serena-Way-95476/home/18832923,BAREIS,321096257,N,Y,38.2831473,-122.4719693
254,MLS Listing,,Single Family Residential,1215 El Cerrito Dr,Santa Rosa,CA,95401,649500.0,4.0,2.0,Santa Rosa,1512.0,6499.0,1965.0,27.0,430.0,,Active,,,http://www.redfin.com/CA/Santa-Rosa/1215-El-Cerrito-Dr-95401/home/2209829,BAREIS,321095886,N,Y,38.4541596,-122.7387161
255,MLS Listing,,Single Family Residential,12559 Bodega Hwy,Sebastopol,CA,95472,1200000.0,5.0,5.0,Sebastopol,3492.0,65340.0,1952.0,27.0,344.0,,Active,,,http://www.redfin.com/CA/Sebastopol/12559-Bodega-Hwy-95472/home/2437578,BAREIS,321096157,N,Y,38.3742065,-122.9087435
256,MLS Listing,,Single Family Residential,14 Meadowgreen Cir,Santa Rosa,CA,95409,719000.0,2.0,2.0,Santa Rosa,1713.0,2614.0,1973.0,27.0,420.0,282.0,Active,,,http://www.redfin.com/CA/Santa-Rosa/14-Meadowgreen-Cir-95409/home/2239675,BAREIS,321095780,N,Y,38.4417437,-122.6094522
257,MLS Listing,,Single Family Residential,1967 Seville St,Santa Rosa,CA,95403,675000.0,3.0,2.5,Santa Rosa,1874.0,5018.0,1989.0,27.0,360.0,,Active,,,http://www.redfin.com/CA/Santa-Rosa/1967-Seville-St-95403/home/2297675,BAREIS,321096034,N,Y,38.4680238,-122.7585629
258,MLS Listing,,Multi-Family (2-4 Unit),14977 Melody Ave,Guerneville,CA,95446,849000.0,4.0,2.0,Guerneville,1428.0,3999.0,1962.0,27.0,595.0,,Active,,,http://www.redfin.com/CA/Guerneville/14977-Melody-Ave-95446/home/2430462,BAREIS,321094728,N,Y,38.5121232,-122.9810217
259,MLS Listing,,Single Family Residential,4807 Newanga Ave,Santa Rosa,CA,95405,1699000.0,3.0,1.0,Santa Rosa,1500.0,206910.0,1923.0,27.0,1133.0,,Active,,,http://www.redfin.com/CA/Santa-Rosa/4807-Newanga-Ave-95405/home/2216656,BAREIS,321095332,N,Y,38.4455279,-122.6603938
260,MLS Listing,,Mobile/Manufactured Home,18715 Sonoma Hwy #28,Sonoma,CA,95476,158000.0,2.0,2.0,Brookside Mobile Manor,960.0,,1976.0,27.0,165.0,,Active,,,http://www.redfin.com/CA/Sonoma/18715-Sonoma-Hwy-95476/unit-28/home/40449842,BAREIS,321093853,N,Y,38.3054484,-122.4776435
261,MLS Listing,,Mobile/Manufactured Home,1178 Healey Ct,Santa Rosa,CA,95401,220000.0,2.0,2.0,Woodcrest Mobile Home Park,1344.0,,1999.0,27.0,164.0,,Active,,,http://www.redfin.com/CA/Santa-Rosa/1178-Healey-Ct-95401/home/25724745,BAREIS,321095013,N,Y,38.443843,-122.7453792
262,MLS Listing,,Single Family Residential,4573 Blank Rd,Sebastopol,CA,95472,949950.0,3.0,2.0,Sebastopol,1512.0,32600.0,2017.0,27.0,628.0,,Active,,,http://www.redfin.com/CA/Sebastopol/4573-Blank-Rd-95472/home/22405650,BAREIS,321095738,N,Y,38.3357607,-122.7660155
263,MLS Listing,,Single Family Residential,1140 Bay View St,Bodega Bay,CA,94923,990000.0,3.0,3.0,Bodega Bay,2521.0,8551.0,1952.0,27.0,,,Active,,,http://www.redfin.com/CA/Bodega-Bay/1140-Bay-View-St-94923/home/2472613,MetroList,321095710,N,Y,38.3334645,-123.0455304
264,MLS Listing,,Single Family Residential,1283 Felder Rd,Sonoma,CA,95476,2875000.0,3.0,3.0,Sonoma,2806.0,107158.0,1920.0,28.0,1025.0,,Active,,,http://www.redfin.com/CA/Sonoma/1283-Felder-Rd-95476/home/2534877,BAREIS,321095760,N,Y,38.2736297,-122.4926057
265,MLS Listing,,Single Family Residential,5920 Channel Dr,Santa Rosa,CA,95409,1495000.0,3.0,2.0,Santa Rosa,1673.0,48787.0,1962.0,28.0,894.0,,Active,,,http://www.redfin.com/CA/Santa-Rosa/5920-Channel-Dr-95409/home/2282157,BAREIS,321095545,N,Y,38.4551199,-122.6367309
266,MLS Listing,,Single Family Residential,200 Southeast Woodlands Dr,Healdsburg,CA,95448,5853000.0,4.0,4.5,Healdsburg,3132.0,6098.0,,28.0,1869.0,1833.0,Active,,,http://www.redfin.com/CA/HEALDSBURG/200-WOODLANDS-DR-95448/home/168960773,San Francisco MLS,321095765,N,Y,38.645853,-122.857853
267,MLS Listing,,Single Family Residential,220 Northeast Sumac Ct #35,Healdsburg,CA,95448,6342000.0,4.0,4.5,Healdsburg,3132.0,6098.0,,28.0,2025.0,1833.0,Active,,,http://www.redfin.com/CA/Healdsburg/220-NE-Sumac-CT-95448/unit-35/home/176647813,San Francisco MLS,321095744,N,Y,38.6104658,-122.8691609
268,MLS Listing,,Condo/Co-op,920 5th St W Unit H,Sonoma,CA,95476,600000.0,2.0,2.0,Sonoma,1202.0,2242.0,1984.0,28.0,499.0,507.0,Active,,,http://www.redfin.com/CA/Sonoma/920-5th-St-W-95476/unit-H/home/2505753,BAREIS,321095682,N,Y,38.2846808,-122.4690813
269,MLS Listing,,Single Family Residential,762 Pine St,Santa Rosa,CA,95404,549000.0,2.0,2.0,Santa Rosa,1200.0,4800.0,1946.0,28.0,458.0,,Active,,,http://www.redfin.com/CA/Santa-Rosa/762-Pine-St-95404/home/2196586,BAREIS,321095306,N,Y,38.433448,-122.7069532
270,MLS Listing,,Single Family Residential,544 Sutter St,Petaluma,CA,94954,769000.0,4.0,2.0,Petaluma,1652.0,5998.0,1968.0,28.0,465.0,,Active,,,http://www.redfin.com/CA/Petaluma/544-Sutter-St-94954/home/2178837,BAREIS,321095598,N,Y,38.2520612,-122.6126651
271,MLS Listing,,Multi-Family (2-4 Unit),2675 - 2677 Edison St,Graton,CA,95444,890000.0,3.0,4.0,Graton,1840.0,11700.0,1982.0,28.0,484.0,,Active,,,http://www.redfin.com/CA/Graton/2675-Edison-St-95444/home/2509237,BAREIS,321062835,N,Y,38.4315285,-122.8676181
272,MLS Listing,,Condo/Co-op,331 Keller St #6,Petaluma,CA,94952,875000.0,2.0,2.5,Petaluma,1368.0,1307.0,2007.0,28.0,640.0,469.0,Active,,,http://www.redfin.com/CA/Petaluma/331-Keller-St-94952/unit-6/home/12113225,BAREIS,321090870,N,Y,38.237679,-122.6448435
273,MLS Listing,,Condo/Co-op,1453 Neotomas Ave #304,Santa Rosa,CA,95405,359000.0,2.0,1.5,Santa Rosa,1038.0,954.0,1975.0,28.0,346.0,521.0,Active,,,http://www.redfin.com/CA/Santa-Rosa/1453-Neotomas-Ave-95405/unit-304/home/2229445,BAREIS,321092274,N,Y,38.4338519,-122.6845808
274,MLS Listing,,Single Family Residential,4741 Hillsboro Cir,Santa Rosa,CA,95405,1150000.0,4.0,3.0,BENNETT VALLEY HEIGHTS,2865.0,11099.0,1988.0,29.0,401.0,43.0,Active,,,http://www.redfin.com/CA/Santa-Rosa/4741-Hillsboro-Cir-95405/home/2372419,BAREIS,321095350,N,Y,38.4307251,-122.6554498
275,MLS Listing,,Single Family Residential,754 Pordon Ln,Healdsburg,CA,95448,1059000.0,3.0,2.0,Healdsburg,1725.0,7840.0,1958.0,29.0,,,Active,,,http://www.redfin.com/CA/Healdsburg/754-Pordon-Ln-95448/home/2138262,MetroList,321095400,N,Y,38.6177689,-122.8581354
276,MLS Listing,,Single Family Residential,262 Maple Ave,Kenwood,CA,95452,698000.0,2.0,1.0,Kenwood,864.0,7248.0,1970.0,29.0,808.0,,Active,,,http://www.redfin.com/CA/Kenwood/262-Maple-Ave-95452/home/2375222,BAREIS,321095215,N,Y,38.4156319,-122.5507305
277,MLS Listing,,Single Family Residential,123 Sherman St,Healdsburg,CA,95448,2595000.0,4.0,4.0,Healdsburg,2107.0,7579.0,,29.0,1232.0,,Active,,,http://www.redfin.com/CA/Healdsburg/123-Sherman-St-95448/home/2133069,BAREIS,321095354,N,Y,38.6194637,-122.870911
278,MLS Listing,,Single Family Residential,4682 Kilarney Cir,Santa Rosa,CA,95403,674500.0,2.0,2.5,Santa Rosa,1640.0,2091.0,2019.0,29.0,411.0,602.0,Active,,,http://www.redfin.com/CA/Santa-Rosa/4682-Kilarney-Cir-95403/home/2615258,BAREIS,321094963,N,Y,38.4905284,-122.7219993
279,MLS Listing,,Single Family Residential,566 N Jefferson St,Cloverdale,CA,95425,669000.0,4.0,3.0,Jefferson Springs,1962.0,5001.0,1990.0,29.0,341.0,,Active,,,http://www.redfin.com/CA/Cloverdale/566-N-Jefferson-St-95425/home/2486295,BAREIS,321094166,N,Y,38.812686,-123.0282032
280,MLS Listing,,Single Family Residential,18109 Barrett Ave,Sonoma,CA,95476,649000.0,2.0,1.0,Sonoma,1136.0,4901.0,1920.0,29.0,571.0,,Active,,,http://www.redfin.com/CA/Sonoma/18109-Barrett-Ave-95476/home/2376620,BAREIS,321088594,N,Y,38.3108442,-122.4892012
281,MLS Listing,,Condo/Co-op,2037 Stonefield Ln,Santa Rosa,CA,95403,629000.0,3.0,2.5,Stonefield,1862.0,976.0,1992.0,29.0,338.0,575.0,Active,,,http://www.redfin.com/CA/Santa-Rosa/2037-Stonefield-Ln-95403/home/2615176,BAREIS,321094979,N,Y,38.481682,-122.721608
282,MLS Listing,,Single Family Residential,5785 Owl Hill Ave,Santa Rosa,CA,95409,975000.0,4.0,3.0,Santa Rosa,2837.0,6932.0,2002.0,31.0,344.0,,Active,,,http://www.redfin.com/CA/Santa-Rosa/5785-Owl-Hill-Ave-95409/home/2577050,BAREIS,321090897,N,Y,38.4674075,-122.6412343
283,MLS Listing,,Single Family Residential,369 Bonnie Ave,Rohnert Park,CA,94928,579000.0,4.0,2.0,B section,1604.0,6970.0,1963.0,31.0,361.0,,Active,,,http://www.redfin.com/CA/Rohnert-Park/369-Bonnie-Ave-94928/home/2541902,BAREIS,321094745,N,Y,38.3303157,-122.7012392
284,MLS Listing,,Townhouse,1822 Arroyo Sierra Cir,Santa Rosa,CA,95405,585000.0,4.0,2.5,Sierra Creek Village,1718.0,871.0,1974.0,31.0,341.0,408.0,Active,,,http://www.redfin.com/CA/Santa-Rosa/1822-Arroyo-Sierra-Cir-95405/home/2228841,BAREIS,321093697,N,Y,38.440699,-122.665976
285,MLS Listing,,Vacant Land,25467 Freezeout Rd,Duncans Mills,CA,95462,499000.0,0.0,,Duncans Mills,,14201.0,,32.0,,,Active,,,http://www.redfin.com/CA/Monte-Rio/25467-Freezeout-Rd-95462/home/2469996,BAREIS,321094542,N,Y,38.4487182,-123.0520604
286,MLS Listing,,Single Family Residential,4607 Sullivan Way,Santa Rosa,CA,95409,1118000.0,3.0,2.0,Santa Rosa,2614.0,16801.0,1951.0,32.0,428.0,,Active,,,http://www.redfin.com/CA/Santa-Rosa/4607-Sullivan-Way-95409/home/2283184,BAREIS,321089401,N,Y,38.4577119,-122.6678756
287,MLS Listing,,Single Family Residential,956 Phillips Ave,Petaluma,CA,94952,1100000.0,2.0,2.0,Petaluma,1612.0,5950.0,1953.0,32.0,682.0,,Active,,,http://www.redfin.com/CA/Petaluma/956-Phillips-Ave-94952/home/2188111,BAREIS,321092905,N,Y,38.219965,-122.6283416
288,MLS Listing,,Vacant Land,9799 Hillside Dr,Forestville,CA,95436,86000.0,0.0,,Forestville,,37897.0,,32.0,,,Active,,,http://www.redfin.com/CA/Forestville/9799-Hillside-Dr-95436/home/22417670,BAREIS,321094652,N,Y,38.5021738,-122.9148662
289,MLS Listing,,Single Family Residential,2041 Stagecoach Rd,Santa Rosa,CA,95404,749950.0,3.0,2.5,Santa Rosa,1875.0,2191.0,2020.0,32.0,400.0,,Active,,,http://www.redfin.com/CA/Santa-Rosa/2041-Stagecoach-Rd-95404/home/17051296,BAREIS,321094571,N,Y,38.4867979,-122.7096446
290,MLS Listing,,Single Family Residential,20 Branching Way,Petaluma,CA,94952,1795000.0,4.0,4.0,Petaluma,2043.0,22216.0,1952.0,32.0,879.0,,Active,,,http://www.redfin.com/CA/Petaluma/20-Branching-Way-94952/home/2184813,BAREIS,321089870,N,Y,38.2260879,-122.6305052
291,MLS Listing,,Single Family Residential,21 Mission St,Camp Meeker,CA,95419,699500.0,2.0,2.0,Camp Meeker,1460.0,16063.0,1918.0,32.0,479.0,,Active,,,http://www.redfin.com/CA/Camp-Meeker/21-Mission-St-95419/home/2442009,BAREIS,321094314,N,Y,38.42226,-122.955047
292,MLS Listing,,Condo/Co-op,7651 Camino Colegio,Rohnert Park,CA,94928,287500.0,1.0,1.0,Rohnert Park,616.0,671.0,1988.0,32.0,467.0,375.0,Active,,,http://www.redfin.com/CA/Rohnert-Park/7651-Camino-Colegio-94928/home/2586078,BAREIS,321093984,N,Y,38.331815,-122.685582
293,MLS Listing,,Single Family Residential,97 Kennedy Ln #36,Healdsburg,CA,95448,465000.0,2.0,2.0,Healdsburg,1170.0,3576.0,2015.0,32.0,397.0,166.0,Active,,,http://www.redfin.com/CA/Healdsburg/97-Kennedy-Ln-95448/unit-36/home/22618712,BAREIS,321091283,N,Y,38.6021148,-122.8619431
294,MLS Listing,,Single Family Residential,2790 Rochelle St,Santa Rosa,CA,95403,680000.0,3.0,2.0,Santa Rosa,1288.0,7405.0,1980.0,32.0,528.0,,Active,,,http://www.redfin.com/CA/SANTA-ROSA/2790-ROCHELE-ST-95403/home/2571260,BAREIS,321088860,N,Y,38.459521,-122.750111
295,MLS Listing,,Single Family Residential,366 Deer Path Dr,Geyserville,CA,95441,1650000.0,3.0,3.0,Geyserville,1843.0,109336.0,1977.0,32.0,895.0,,Active,,,http://www.redfin.com/CA/Geyserville/366-Deer-Path-Dr-95441/home/2642757,BAREIS,321094043,N,Y,38.7410338,-122.9204119
296,MLS Listing,,Vacant Land,7510 St Helena Rd,Santa Rosa,CA,95404,345000.0,0.0,,Santa Rosa,,113256.0,,33.0,,,Active,,,http://www.redfin.com/CA/Santa-Rosa/7510-St-Helena-Rd-95404/home/2277802,BAREIS,321092265,N,Y,38.5190748,-122.606044
297,MLS Listing,,Mobile/Manufactured Home,14755 Armstrong Woods Rd #7,Guerneville,CA,95446,149000.0,1.0,1.0,Redwood Grove,352.0,,2021.0,33.0,423.0,,Active,,,http://www.redfin.com/CA/Guerneville/14755-Armstrong-Woods-Rd-95446/unit-7/home/176575624,BAREIS,321093100,N,Y,38.5123217,-122.9957158
298,MLS Listing,,Single Family Residential,733 - 735 Healdsburg Ave,Healdsburg,CA,95448,2280000.0,4.0,1.0,Healdsburg,1660.0,22246.0,1948.0,33.0,1373.0,,Active,,,http://www.redfin.com/CA/Healdsburg/733-Healdsburg-Ave-95448/home/2133118,BAREIS,321093139,N,Y,38.618897,-122.8720996
299,MLS Listing,,Vacant Land,0 Petaluma Hill Rd,Santa Rosa,CA,95404,24500000.0,0.0,,Kawana Meadows,,1655280.0,,33.0,,,Active,,,http://www.redfin.com/CA/Santa-Rosa/1145-Petaluma-Hill-Rd-95404/home/172751892,BAREIS,321094000,N,Y,38.426794,-122.710105
300,MLS Listing,,Single Family Residential,7540 Oak Leaf Dr,Santa Rosa,CA,95409,680000.0,2.0,2.0,Oakmont,1718.0,8260.0,1975.0,33.0,396.0,104.0,Active,,,http://www.redfin.com/CA/Santa-Rosa/7540-Oak-Leaf-Dr-95409/home/2240319,BAREIS,321087083,N,Y,38.434758,-122.5830056
301,MLS Listing,,Single Family Residential,3952 Millbrook Dr,SANTA ROSA,CA,95404,1149000.0,4.0,3.0,SANTA ROSA,2410.0,7897.0,2021.0,34.0,477.0,72.0,Active,,,http://www.redfin.com/CA/Santa-Rosa/3952-Millbrook-Dr-95404/home/2613298,MLSListings,ML81864740,N,Y,38.4898816,-122.6894352
302,MLS Listing,,Vacant Land,1120 Napa Rd,Sonoma,CA,95476,1750000.0,0.0,,Sonoma,,355450.0,,34.0,,,Active,,,http://www.redfin.com/CA/Sonoma/1120-Napa-Rd-95476/home/22619530,BAREIS,321093788,N,Y,38.273782,-122.435307
303,MLS Listing,,Single Family Residential,1350 White Oak Dr,Santa Rosa,CA,95409,1595000.0,5.0,4.0,Santa Rosa,3963.0,39204.0,1985.0,34.0,402.0,88.0,Active,,,http://www.redfin.com/CA/Santa-Rosa/1350-White-Oak-Dr-95409/home/2285380,BAREIS,321092206,N,Y,38.4241123,-122.5973837
304,MLS Listing,,Multi-Family (2-4 Unit),5817 Hwy 12,Santa Rosa,CA,95409,1398000.0,4.0,3.5,Santa Rosa,2739.0,135472.0,1947.0,34.0,510.0,,Active,,,http://www.redfin.com/CA/Santa-Rosa/5817-CA-12-95409/home/2282188,BAREIS,321093741,N,Y,38.4575071,-122.6296663
305,MLS Listing,,Single Family Residential,123 Redwood Ave,Camp Meeker,CA,95419,325000.0,2.0,1.0,Camp Meeker,620.0,2592.0,1944.0,34.0,524.0,,Active,,,http://www.redfin.com/CA/Camp-Meeker/123-Redwood-Ave-95419/home/2441290,BAREIS,321093617,N,Y,38.426286,-122.961436
306,MLS Listing,,Single Family Residential,24359 - 24301 Dutcher Creek Rd,Cloverdale,CA,95425,3750000.0,3.0,4.5,Cloverdale,3000.0,682585.0,2005.0,34.0,1250.0,,Active,,,http://www.redfin.com/CA/Cloverdale/24359-Dutcher-Creek-Rd-95425/home/2532789,BAREIS,321086763,N,Y,38.7327281,-122.984519
307,MLS Listing,,Single Family Residential,949 Madison Dr,Sonoma,CA,95476,700000.0,2.0,2.0,Sonoma,1484.0,7500.0,1966.0,34.0,472.0,,Active,,,http://www.redfin.com/CA/Sonoma/949-Madison-Dr-95476/home/2377108,BAREIS,321092279,N,Y,38.3073329,-122.49538
308,MLS Listing,,Vacant Land,3949 Graystone Ct,Santa Rosa,CA,95403,295000.0,0.0,,Santa Rosa,,92783.0,,34.0,,69.0,Active,,,http://www.redfin.com/CA/Santa-Rosa/3949-Greystone-Ct-95403/home/40232397,BAREIS,321093123,N,Y,38.503983,-122.716614
309,MLS Listing,,Mobile/Manufactured Home,22900 Sylvan Way #4,Monte Rio,CA,95462,75000.0,1.0,1.0,Reins Sandy Beach Park,385.0,,1998.0,34.0,195.0,,Active,,,http://www.redfin.com/CA/Monte-Rio/22900-Sylvan-Way-95462/unit-4/home/176563036,BAREIS,321089082,N,Y,38.4632904,-123.042848
310,MLS Listing,,Single Family Residential,2280 Magnolia Ave,Petaluma,CA,94952,869000.0,3.0,1.0,Petaluma,1185.0,15229.0,1958.0,34.0,733.0,,Active,,,http://www.redfin.com/CA/Petaluma/2280-Magnolia-Ave-94952/home/2364619,BAREIS,321093244,N,Y,38.2489254,-122.6731721
311,MLS Listing,,Single Family Residential,176 White Oak Drive Dr,Santa Rosa,CA,95409,425000.0,2.0,2.0,Santa Rosa,1172.0,1742.0,1971.0,34.0,363.0,275.0,Active,,,http://www.redfin.com/CA/Santa-Rosa/176-White-Oak-Dr-95409/home/2238384,BAREIS,321092696,N,Y,38.441435,-122.5985222
312,MLS Listing,,Single Family Residential,8926 Bodega Hwy,Sebastopol,CA,95472,675000.0,1.0,1.0,Sebastopol,832.0,43560.0,,35.0,811.0,,Active,,,http://www.redfin.com/CA/Sebastopol/8926-Bodega-Hwy-95472/home/2446575,BAREIS,321093132,N,Y,38.3980064,-122.8560207
313,MLS Listing,,Single Family Residential,185 Mohrhardt Ridge Rd,Cazadero,CA,95421,1189000.0,3.0,3.0,Cazadero,2352.0,47045.0,1969.0,35.0,506.0,,Active,,,http://www.redfin.com/CA/Cazadero/185-Mohrhardt-Ridge-Rd-95421/home/2479563,BAREIS,321086863,N,Y,38.540864,-123.0944394
314,MLS Listing,,Vacant Land,17811 Old Monte Rio Rd,Guerneville,CA,95446,179000.0,0.0,,Guerneville,,16052.0,,35.0,,,Active,,,http://www.redfin.com/CA/Guerneville/17811-Old-Monte-Rio-Rd-95446/home/22438070,BAREIS,321093365,N,Y,38.4888509,-123.016595
315,MLS Listing,,Condo/Co-op,281 Gambrel Cir,Santa Rosa,CA,95403,724413.0,3.0,2.5,Santa Rosa,1884.0,,2021.0,35.0,385.0,220.0,Active,,,http://www.redfin.com/CA/Larkfield-Wikiup/281-Gambrel-CIR-95403/home/176555882,BAREIS,321093251,N,Y,38.4739555,-122.7520139
316,MLS Listing,,Mobile/Manufactured Home,8167 Willow St,Windsor,CA,95492,169000.0,2.0,2.0,Windsor Mobile Country Club,1100.0,,1972.0,35.0,154.0,,Active,,,http://www.redfin.com/CA/Windsor/8167-Willow-St-95492/home/176555238,BAREIS,321075197,N,Y,38.5409573,-122.8051874
317,MLS Listing,,Mobile/Manufactured Home,60 Oakwood Dr,Petaluma,CA,94954,95000.0,2.0,1.0,The Cottages,672.0,,1997.0,35.0,141.0,,Active,,,http://www.redfin.com/CA/Petaluma/60-Oakwood-Dr-94954/home/40539082,BAREIS,321093111,N,Y,38.2592061,-122.6392917
318,MLS Listing,,Single Family Residential,1947 Bay Meadow Dr,Santa Rosa,CA,95403,639000.0,3.0,2.0,Santa Rosa,1197.0,4182.0,2014.0,35.0,534.0,,Active,,,http://www.redfin.com/CA/Santa-Rosa/1947-Bay-Meadow-Dr-95403/home/22502446,MetroList,321092946,N,Y,38.4658357,-122.7547923
319,MLS Listing,,Multi-Family (2-4 Unit),92 E Sierra Ave,Cotati,CA,94931,900000.0,4.0,4.0,699 - Not Defined,1608.0,6450.0,1973.0,36.0,560.0,,Active,,,http://www.redfin.com/CA/Cotati/92-E-Sierra-Ave-94931/home/2550859,CRMLS,CV21214793,N,Y,38.3280594,-122.705453
320,MLS Listing,,Multi-Family (2-4 Unit),88 E Sierra Ave,Cotati,CA,94931,1300000.0,4.0,4.5,699 - Not Defined,2951.0,5050.0,1974.0,36.0,441.0,,Active,,,http://www.redfin.com/CA/Cotati/88-E-Sierra-Ave-94931/home/2550849,CRMLS,CV21214747,N,Y,38.3279213,-122.7055412
321,MLS Listing,,Single Family Residential,2775 Bella Cir,Santa Rosa,CA,95407,734990.0,4.0,3.0,Santa Rosa,2140.0,3544.0,2021.0,36.0,343.0,67.0,Active,,,http://www.redfin.com/CA/Santa-Rosa/2775-Bella-CIR-95407/home/176551381,BAREIS,321093122,N,Y,38.3986068,-122.7520139
322,MLS Listing,,Single Family Residential,2743 Bella Cir,Santa Rosa,CA,95407,679990.0,3.0,2.5,Santa Rosa,1777.0,3101.0,2021.0,36.0,383.0,67.0,Active,,,http://www.redfin.com/CA/Santa-Rosa/2743-Bella-CIR-95407/home/176551327,BAREIS,321093113,N,Y,38.3986068,-122.7520139
323,MLS Listing,,Vacant Land,1383 Maureen Ave,Santa Rosa,CA,95407,750000.0,0.0,,Santa Rosa,,24999.0,,36.0,,,Active,,,http://www.redfin.com/CA/Santa-Rosa/1383-Maureen-Dr-95407/home/22460043,BAREIS,321093043,N,Y,38.4090275,-122.7258357
324,MLS Listing,,Single Family Residential,5833 E Highway 12,Santa Rosa,CA,95409,1500000.0,3.0,2.0,Santa Rosa,1383.0,100624.0,1977.0,36.0,1085.0,,Active,,,http://www.redfin.com/CA/Santa-Rosa/5833-Sonoma-Hwy-95409/home/2281826,BAREIS,321092455,N,Y,38.4570849,-122.6297194
325,MLS Listing,,Vacant Land,0 Gravenstein Hwy,Cotati,CA,94931,129000.0,,,Cotati,,20473.0,,36.0,,,Active,,,http://www.redfin.com/CA/Cotati/8039-Gravenstein-Hwy-94931/home/176550250,CRMLS,IV21211738,N,Y,38.3331055,-122.7235053
326,MLS Listing,,Vacant Land,21860 Monte Vista Ter,Monte Rio,CA,95462,8300.0,0.0,,Monte Rio,,5101.0,,36.0,,,Active,,,http://www.redfin.com/CA/Monte-Rio/21860-Monte-Vista-Ter-95462/home/22419739,San Francisco MLS,321093018,N,Y,38.4713049,-123.0249502
327,MLS Listing,,Single Family Residential,10430 Mill Station Rd,Sebastopol,CA,95472,2400000.0,4.0,4.5,Sebastopol,4206.0,108900.0,2003.0,36.0,571.0,,Active,,,http://www.redfin.com/CA/Sebastopol/10430-Mill-Station-Rd-95472/home/2408117,BAREIS,321091873,N,Y,38.4255531,-122.8772321
328,MLS Listing,,Vacant Land,2700 Amber Ln,Santa Rosa,CA,95404,725000.0,0.0,,Santa Rosa,,270943.0,,36.0,,,Active,,,http://www.redfin.com/CA/Santa-Rosa/2700-Amber-Ln-95404/home/2278695,BAREIS,321092932,N,Y,38.4951829,-122.6866809
329,MLS Listing,,Vacant Land,1054 Vista Way,Monte Rio,CA,95462,8300.0,0.0,,Monte Rio,,4957.0,,36.0,,,Active,,,http://www.redfin.com/CA/Monte-Rio/1054-Vista-Way-95462/home/22415017,San Francisco MLS,321093012,N,Y,38.4714634,-123.025014
330,MLS Listing,,Vacant Land,1052 Vista Way,Monte Rio,CA,95462,8300.0,0.0,,Monte Rio,,7671.0,,36.0,,,Active,,,http://www.redfin.com/CA/Monte-Rio/1052-Vista-Way-95462/home/22415019,San Francisco MLS,321092997,N,Y,38.471584,-123.0249172
331,MLS Listing,,Single Family Residential,31255 Hwy 128,Cloverdale,CA,95425,699999.0,4.0,2.0,Cloverdale,1518.0,57935.0,1942.0,36.0,461.0,,Active,,,http://www.redfin.com/CA/Cloverdale/31255-CA-128-95425/home/2484451,BAREIS,321092981,N,Y,38.8207798,-123.0243327
332,MLS Listing,,Mobile/Manufactured Home,141 Wade Dr,Windsor,CA,95492,94000.0,1.0,1.0,Royal Mobile Manor,432.0,,2005.0,36.0,218.0,,Active,,,http://www.redfin.com/CA/Windsor/141-Wade-Dr-95492/home/17309663,BAREIS,321086922,N,Y,38.5380324,-122.7918638
333,MLS Listing,,Single Family Residential,1401 Wright St,Santa Rosa,CA,95404,610000.0,3.0,2.0,Santa Rosa,1829.0,7000.0,1927.0,36.0,334.0,,Active,,,http://www.redfin.com/CA/Santa-Rosa/1401-Wright-St-95404/home/2620584,BAREIS,321089315,N,Y,38.4533195,-122.7097769
334,MLS Listing,,Multi-Family (2-4 Unit),22179 Ruoff Rd,Jenner,CA,95450,639000.0,1.0,1.0,Jenner,875.0,119354.0,1966.0,36.0,730.0,,Active,,,http://www.redfin.com/CA/Jenner/22179-Ruoff-Rd-95450/home/2480568,BAREIS,321051786,N,Y,38.5478527,-123.2857088
335,MLS Listing,,Multi-Family (2-4 Unit),2675 Meier Rd,Sebastopol,CA,95472,979000.0,2.0,2.0,Sebastopol,899.0,57935.0,1903.0,37.0,1089.0,,Active,,,http://www.redfin.com/CA/Sebastopol/2675-Meier-Rd-95472/home/2414375,BAREIS,321092805,N,Y,38.3754648,-122.7901478
336,MLS Listing,,Single Family Residential,5665 Ross Branch Rd,Sebastopol,CA,95472,2700000.0,4.0,2.5,Sebastopol,3190.0,121097.0,1998.0,37.0,846.0,,Active,,,http://www.redfin.com/CA/Sebastopol/5665-Ross-Branch-Rd-95472/home/176544502,BAREIS,321090364,N,Y,38.4614688,-122.8872752
337,MLS Listing,,Vacant Land,471 York Ct,Sonoma,CA,95476,597000.0,0.0,,Sonoma,,9698.0,,37.0,,,Active,,,http://www.redfin.com/CA/Sonoma/471-York-Ct-95476/home/173951662,BAREIS,321092634,N,Y,38.2865962,-122.4493738
338,MLS Listing,,Vacant Land,595 Stony Point Rd,Petaluma,CA,94952,1575000.0,0.0,,Petaluma,,1894424.0,,39.0,,,Active,,,http://www.redfin.com/CA/Petaluma/595-Stony-Point-Rd-94952/home/146119458,BAREIS,321092569,N,Y,38.27887,-122.687424
339,MLS Listing,,Mobile/Manufactured Home,165 Shoreham Way,Santa Rosa,CA,95401,239000.0,3.0,2.0,The Country,1521.0,,2001.0,39.0,157.0,,Active,,,http://www.redfin.com/CA/Santa-Rosa/165-Shoreham-Way-95401/home/2645836,BAREIS,321092474,N,Y,38.447,-122.767143
340,MLS Listing,,Mobile/Manufactured Home,8184 E St,Windsor,CA,95492,119000.0,2.0,2.0,Windsor Country Mobile,1056.0,,1971.0,39.0,113.0,,Active,,,http://www.redfin.com/CA/Windsor/8184-E-St-95492/home/40537985,BAREIS,321091322,N,Y,38.5382192,-122.8052922
341,MLS Listing,,Mobile/Manufactured Home,157 Tiffany Dr,Santa Rosa,CA,95409,124500.0,2.0,2.0,Santa Rosa Village,1000.0,,1971.0,39.0,125.0,,Active,,,http://www.redfin.com/CA/Santa-Rosa/157-Tiffany-Dr-95409/unit-157/home/104230917,BAREIS,321089105,N,Y,38.456067,-122.680465
342,MLS Listing,,Single Family Residential,6420 Bohemian Hwy,Occidental,CA,95419,695000.0,2.0,1.0,Occidental,1224.0,87120.0,1924.0,39.0,568.0,,Active,,,http://www.redfin.com/CA/CAMP-MEEKER/6420-BOHEMIAN-HWY-95419/home/2441097,BAREIS,321091609,N,Y,38.437661,-122.974637
343,MLS Listing,,Single Family Residential,3727 Lakebriar Pl,Santa Rosa,CA,95403,2795000.0,5.0,5.5,Santa Rosa,4818.0,19450.0,2021.0,39.0,580.0,75.0,Active,,,http://www.redfin.com/CA/Santa-Rosa/3727-Lakebriar-Pl-95403/home/2614828,BAREIS,321089242,N,Y,38.4911035,-122.7144536
344,MLS Listing,,Single Family Residential,50 - 60 Marigold Ln,Forestville,CA,95436,898000.0,3.0,3.0,Forestville,2311.0,49223.0,1992.0,39.0,389.0,,Active,,,http://www.redfin.com/CA/Forestville/5060-Marigold-Ln-95436/home/175713560,BAREIS,321091722,N,Y,38.5075546,-122.9315881
345,MLS Listing,,Single Family Residential,3233 Cobblestone Dr,Santa Rosa,CA,95404,1099000.0,4.0,2.0,Santa Rosa,2232.0,8799.0,1981.0,39.0,492.0,50.0,Active,,,http://www.redfin.com/CA/Santa-Rosa/3233-Cobblestone-Dr-95404/home/2610526,BAREIS,321091217,N,Y,38.4739693,-122.7076812
346,MLS Listing,,Single Family Residential,894 Chiquita Rd,Healdsburg,CA,95448,5250000.0,4.0,3.0,Laurel Springs,3013.0,217800.0,1995.0,39.0,1742.0,,Active,,,http://www.redfin.com/CA/Healdsburg/894-Chiquita-Rd-95448/home/2464874,BAREIS,321088319,N,Y,38.6443948,-122.8809717
347,MLS Listing,,Single Family Residential,2061 Stagecoach Rd,Santa Rosa,CA,95404,818000.0,3.0,2.0,Santa Rosa,1830.0,5162.0,2020.0,39.0,447.0,,Active,,,http://www.redfin.com/CA/Santa-Rosa/2061-Stagecoach-Rd-95404/home/17051295,BAREIS,321088763,N,Y,38.4870049,-122.7093357
348,MLS Listing,,Single Family Residential,2000 Hot Springs Rd,Cloverdale,CA,95425,4950000.0,7.0,5.5,Cloverdale,10500.0,13068000.0,1982.0,40.0,471.0,,Active,,,http://www.redfin.com/CA/Cloverdale/2000-Hot-Springs-Rd-95425/home/12345780,BAREIS,321091305,N,Y,38.781346,-123.042329
349,MLS Listing,,Single Family Residential,1717 Bay Flat Rd,Bodega Bay,CA,94923,1098000.0,4.0,2.0,Bodega Bay,1378.0,7200.0,1971.0,40.0,,,Active,,,http://www.redfin.com/CA/Bodega-Bay/1717-Bay-Flat-Rd-94923/home/2472109,MetroList,321087707,N,Y,38.3367603,-123.0594906
350,MLS Listing,,Single Family Residential,293 Calle Del Sol,Bodega Bay,CA,94923,1995000.0,2.0,2.5,Sereno del Mar,2049.0,23000.0,2010.0,40.0,974.0,,Active,,,http://www.redfin.com/CA/Bodega-Bay/293-Calle-Del-Sol-94923/home/22457203,BAREIS,321090334,N,Y,38.3839393,-123.0756106
351,MLS Listing,,Single Family Residential,824 Mendocino Ave,Santa Rosa,CA,95401,1499999.0,5.0,3.0,Santa Rosa,3033.0,10999.0,1924.0,40.0,495.0,,Active,,,http://www.redfin.com/CA/Santa-Rosa/824-Mendocino-Ave-95401/home/176503665,BAREIS,321090866,N,Y,38.4486669,-122.7172993
352,MLS Listing,,Vacant Land,3888 Skyfarm Dr,Santa Rosa,CA,95403,425000.0,0.0,,Santa Rosa,,57064.0,,40.0,,75.0,Active,,,http://www.redfin.com/CA/Santa-Rosa/3888-Skyfarm-Dr-95403/home/2615561,BAREIS,321090871,N,Y,38.4980403,-122.72213
353,MLS Listing,,Single Family Residential,378 Singing Brook Cir,Santa Rosa,CA,95409,799000.0,3.0,2.0,Oakmont,2005.0,3772.0,1989.0,40.0,399.0,260.0,Active,,,http://www.redfin.com/CA/Santa-Rosa/378-Singing-Brook-Cir-95409/home/2246841,BAREIS,321091156,N,Y,38.423715,-122.5812607
354,MLS Listing,,Single Family Residential,2131 Dennis Ln,Santa Rosa,CA,95403,675000.0,3.0,2.5,Santa Rosa,1263.0,,2017.0,40.0,534.0,,Active,,,http://www.redfin.com/CA/Santa-Rosa/2131-Dennis-Ln-95403/home/144151971,BAREIS,321090670,N,Y,38.4829119,-122.7569312
355,MLS Listing,,Single Family Residential,929 - 931 Temple Ave,Santa Rosa,CA,95404,649000.0,3.0,2.0,Santa Rosa,1254.0,6199.0,,41.0,518.0,,Active,,,http://www.redfin.com/CA/Santa-Rosa/929-Temple-Ave-95404/home/2197296,BAREIS,321091573,N,Y,38.430634,-122.7066079
356,MLS Listing,,Vacant Land,19699 Old Cazadero Rd,Guerneville,CA,95446,1148000.0,0.0,,Guerneville,,17380440.0,,41.0,,,Active,,,http://www.redfin.com/CA/Guerneville/19699-Old-Cazadero-Rd-95446/home/80158749,BAREIS,321090553,N,Y,38.5425343,-123.0552638
357,MLS Listing,,Multi-Family (2-4 Unit),103 - 105 Kennedy Ln,Healdsburg,CA,95448,1650000.0,2.0,2.0,RiverHouse Healdsburg,1750.0,7981.0,,41.0,943.0,309.0,Active,,,http://www.redfin.com/CA/Healdsburg/103-Kennedy-Ln-95448/home/175575258,BAREIS,321091172,N,Y,38.6016835,-122.8606189
358,MLS Listing,,Multi-Family (5+ Unit),446 S E St,Santa Rosa,CA,95404,2750000.0,4.0,3.0,Santa Rosa,5400.0,9148.0,1964.0,41.0,509.0,,Active,,,http://www.redfin.com/CA/Santa-Rosa/446-S-E-St-95404/home/2196845,BAREIS,321090468,N,Y,38.4348825,-122.7048612
359,MLS Listing,,Single Family Residential,11 Hillside Ct,Cloverdale,CA,95425,829000.0,4.0,3.5,Cloverdale,2950.0,12698.0,2000.0,42.0,281.0,,Active,,,http://www.redfin.com/CA/Cloverdale/11-Hillside-Ct-95425/home/2487017,BAREIS,321087999,N,Y,38.8117071,-123.0278106
360,MLS Listing,,Vacant Land,321 King Rd,Petaluma,CA,94952,849000.0,0.0,,Petaluma,,217800.0,,42.0,,,Active,,,http://www.redfin.com/CA/Petaluma/321-King-Rd-94952/home/22410022,BAREIS,321084317,N,Y,38.269634,-122.718817
361,MLS Listing,,Single Family Residential,4658 Kilarney Cir,Santa Rosa,CA,95403,888000.0,3.0,3.0,Santa Rosa,1991.0,3255.0,2020.0,42.0,,521.0,Active,,,http://www.redfin.com/CA/Santa-Rosa/4658-Kilarney-Cir-95403/home/2615278,MetroList,321091028,N,Y,38.4898523,-122.7216433
362,MLS Listing,,Single Family Residential,4175 Concord Ave,Santa Rosa,CA,95407,490000.0,2.0,1.0,Not Applicable,832.0,17520.0,1947.0,42.0,589.0,,Active,,,http://www.redfin.com/CA/Santa-Rosa/4175-Concord-Ave-95407/home/2305342,GPSMLS,219067845,N,Y,38.4112052,-122.7706015
363,MLS Listing,,Single Family Residential,222 Katie Ln,Penngrove,CA,94951,1195000.0,3.0,2.5,Starlight Estates,2266.0,22351.0,1999.0,42.0,527.0,,Active,November-7-2021 02:00 PM,November-7-2021 04:00 PM,http://www.redfin.com/CA/Penngrove/222-Katie-Ln-94951/home/2363973,BAREIS,321090712,N,Y,38.297934,-122.6722011
364,MLS Listing,,Single Family Residential,1922 Matzen Ranch Cir,Petaluma,CA,94954,1780000.0,4.0,3.5,Cadar Highlands,3418.0,9683.0,1995.0,42.0,521.0,,Active,,,http://www.redfin.com/CA/Petaluma/1922-Matzen-Ranch-Cir-94954/home/2523933,BAREIS,321089229,N,Y,38.264072,-122.6267346
365,MLS Listing,,Single Family Residential,950 Sonoma Glen Cir,Glen Ellen,CA,95442,889000.0,3.0,2.5,Glen Ellen,1664.0,6120.0,1985.0,42.0,534.0,,Active,,,http://www.redfin.com/CA/Glen-Ellen/950-Sonoma-Glen-Cir-95442/home/2388023,BAREIS,321088713,N,Y,38.3418246,-122.5122789
366,MLS Listing,,Condo/Co-op,14632 Jomark Ln,Occidental,CA,95465,535000.0,2.0,1.0,Occidental,1024.0,945.0,2009.0,42.0,522.0,564.0,Active,,,http://www.redfin.com/CA/Occidental/14632-Jomark-Ln-95465/home/28929851,BAREIS,321090569,N,Y,38.4099828,-122.9499003
367,MLS Listing,,Vacant Land,3456 San Sonita Dr,Santa Rosa,CA,95403,265000.0,0.0,,San Miguel,,6721.0,,43.0,,,Active,,,http://www.redfin.com/CA/Santa-Rosa/3456-San-Sonita-Dr-95403/home/2291537,BAREIS,321090688,N,Y,38.4725187,-122.7489708
368,MLS Listing,,Single Family Residential,,Healdsburg,CA,95448,3500000.0,3.0,3.5,Healdsburg,,1742400.0,,43.0,,,Active,,,http://www.redfin.com/CA/Healdsburg/Undisclosed-address-95448/home/17546087,BAREIS,321087810,N,Y,38.6721387,-122.9459925
369,MLS Listing,,Vacant Land,0 Verano Ave,El Verano,CA,95433,324000.0,0.0,,El Verano,,7000.0,,43.0,,,Active,,,http://www.redfin.com/CA/EL-VERANO/VERANO-AVE-95433/home/22425421,BAREIS,321084610,N,Y,38.300257,-122.492065
370,MLS Listing,,Vacant Land,3211 Eastman Ln,Petaluma,CA,94952,399000.0,0.0,,Petaluma,,82764.0,,43.0,,,Active,,,http://www.redfin.com/CA/Petaluma/3211-Eastman-Ln-94952/home/17319307,BAREIS,321086724,N,Y,38.2383748,-122.6997169
371,MLS Listing,,Townhouse,601 Center St,Healdsburg,CA,95448,995000.0,2.0,2.5,Healdsburg Commons,1466.0,2156.0,2008.0,44.0,679.0,225.0,Active,,,http://www.redfin.com/CA/Healdsburg/601-Center-St-95448/home/17309766,BAREIS,321088372,N,Y,38.6162427,-122.8714175
372,MLS Listing,,Single Family Residential,3867 Coffey Ln,Santa Rosa,CA,95403,1088000.0,5.0,4.5,Santa Rosa,3195.0,18700.0,1907.0,45.0,341.0,,Active,,,http://www.redfin.com/CA/Santa-Rosa/3867-Coffey-Ln-95403/home/2398682,BAREIS,321087967,N,Y,38.4848996,-122.7475374
373,MLS Listing,,Single Family Residential,11645 River Rd,Forestville,CA,95436,629000.0,3.0,2.0,Forestville,1655.0,6364.0,1930.0,45.0,380.0,,Active,,,http://www.redfin.com/CA/Forestville/11645-River-Rd-95436/home/2429931,BAREIS,321088119,N,Y,38.503431,-122.940188
