,SALE TYPE,SOLD DATE,PROPERTY TYPE,ADDRESS,CITY,STATE OR PROVINCE,ZIP OR POSTAL CODE,PRICE,BEDS,BATHS,LOCATION,SQUARE FEET,LOT SIZE,YEAR BUILT,DAYS ON MARKET,$/SQUARE FEET,HOA/MONTH,STATUS,NEXT OPEN HOUSE START TIME,NEXT OPEN HOUSE END TIME,URL (SEE http://www.redfin.com/buy-a-home/comparative-market-analysis FOR INFO ON PRICING),SOURCE,MLS#,FAVORITE,INTERESTED,LATITUDE,LONGITUDE
0,MLS Listing,,Single Family Residential,50925 Paloma Ct,La Quinta,CA,92253.0,858000.0,3.0,2.5,Desert Club Estates,2237.0,12632.0,1990.0,1.0,384.0,,Pre On-Market,,,http://www.redfin.com/CA/La-Quinta/50925-Paloma-Ct-92253/home/6128949,GPSMLS,219069825,N,Y,33.6793015,-116.293992
1,MLS Listing,,Single Family Residential,737 Navarro Dr,Corona,CA,92879.0,719000.0,4.0,3.5,248 - Corona,2428.0,10019.0,1996.0,1.0,296.0,90.0,Active,November-3-2021 08:00 AM,November-3-2021 08:00 PM,http://www.redfin.com/CA/Corona/737-Navarro-Dr-92879/home/4608957,CRMLS,IV21239809,N,Y,33.893445,-117.5391024
2,MLS Listing,,Single Family Residential,9314 Hot Springs Rd,Corona,CA,92883.0,510000.0,3.0,2.0,248 - Corona,1227.0,6534.0,1986.0,1.0,416.0,68.0,Active,,,http://www.redfin.com/CA/Corona/9314-Hot-Springs-Rd-92883/home/5123239,CRMLS,IV21223052,N,Y,33.7836,-117.4979155
3,MLS Listing,,Condo/Co-op,1555 N Chaparral Rd #400,Palm Springs,CA,92262.0,550000.0,3.0,2.0,Desert Sun Resort,2408.0,1555.0,1997.0,3.0,228.0,486.0,Active,,,http://www.redfin.com/CA/Palm-Springs/1555-N-Chaparral-Rd-92262/unit-400/home/5682296,GPSMLS,219069696,N,Y,33.844608,-116.545062
4,MLS Listing,,Single Family Residential,6527 Concerto Dr,Corona,CA,92880.0,749900.0,4.0,2.5,248 - Corona,2536.0,4356.0,2015.0,4.0,296.0,55.0,Active,,,http://www.redfin.com/CA/Corona/6527-Concerto-Dr-92880/home/112784427,CRMLS,IV21237608,N,Y,33.9695711,-117.5954628
5,MLS Listing,,Single Family Residential,28606 Plantain St,Menifee,CA,92584.0,589000.0,4.0,2.5,699 - Not Defined,2335.0,10019.0,2009.0,4.0,252.0,37.0,Active,,,http://www.redfin.com/CA/Menifee/28606-Plantain-St-92584/home/22432424,CRMLS,SW21238028,N,Y,33.7052596,-117.1484883
6,MLS Listing,,Single Family Residential,38368 Applewood Ct,Murrieta,CA,92563.0,549900.0,3.0,2.5,699 - Not Defined,1752.0,4792.0,2003.0,4.0,314.0,40.0,Active,,,http://www.redfin.com/CA/Murrieta/38368-Applewood-Ct-92563/home/6431283,CRMLS,SW21238384,N,Y,33.563988,-117.1150083
7,MLS Listing,,Single Family Residential,82077 Sunset Ct,Indio,CA,92201.0,392000.0,4.0,2.0,Sun Dance,1746.0,6970.0,1980.0,4.0,225.0,,Active,,,http://www.redfin.com/CA/Indio/82077-Sunset-Ct-92201/home/5853530,GPSMLS,219069655,N,Y,33.700755,-116.2326303
8,MLS Listing,,Single Family Residential,29605 Peacock Mountain Dr,Menifee,CA,92584.0,549000.0,4.0,2.5,699 - Not Defined,2828.0,4356.0,2005.0,4.0,194.0,,Active,,,http://www.redfin.com/CA/Menifee/29605-Peacock-Mountain-Dr-92584/home/8163456,CRMLS,SW21238017,N,Y,33.6920684,-117.1480977
9,MLS Listing,,Single Family Residential,35308 Thorpe,Beaumont,CA,92223.0,615000.0,5.0,3.5,263 - Banning/Beaumont/Cherry Valley,3669.0,6534.0,2018.0,4.0,168.0,154.0,Active,,,http://www.redfin.com/CA/BEAUMONT/35308-THORPE-TRL-92223/home/112790625,CRMLS,IV21237580,N,Y,33.955593,-117.043484
10,MLS Listing,,Single Family Residential,29641 Branwin St,Murrieta,CA,92563.0,740000.0,4.0,3.0,699 - Not Defined,3155.0,8712.0,2005.0,4.0,235.0,,Active,,,http://www.redfin.com/CA/Murrieta/29641-Branwin-St-92563/home/8164317,CRMLS,SW21237934,N,Y,33.5568497,-117.1433644
11,MLS Listing,,Single Family Residential,11637 Forsythia St,Jurupa Valley,CA,91752.0,838888.0,5.0,3.0,251 - Jurupa Valley,3386.0,7405.0,2018.0,4.0,248.0,24.0,Active,,,http://www.redfin.com/CA/Jurupa-Valley/11637-Forsythia-St-91752/home/112783559,CRMLS,IV21237506,N,Y,33.9973474,-117.5382717
12,MLS Listing,,Single Family Residential,11454 Lyle Ln,Beaumont,CA,92223.0,699000.0,3.0,2.5,263 - Banning/Beaumont/Cherry Valley,2888.0,9583.0,2018.0,4.0,242.0,154.0,Pre On-Market,November-6-2021 01:00 PM,November-6-2021 04:00 PM,http://www.redfin.com/CA/BEAUMONT/11454-LYLE-LN-92223/home/112791358,CRMLS,EV21238128,N,Y,33.955258,-117.045086
13,MLS Listing,,Single Family Residential,84345 Volare Ave,Indio,CA,92203.0,599900.0,3.0,3.0,Aliante,2416.0,10019.0,2007.0,5.0,248.0,160.0,Active,,,http://www.redfin.com/CA/Indio/84345-Volare-Ave-92203/home/17329212,GPSMLS,219069620,N,Y,33.7298885,-116.1934292
14,MLS Listing,,Single Family Residential,16709 Fleur Blvd,Riverside,CA,92503.0,929999.0,4.0,2.5,252 - Riverside,2413.0,12632.0,2019.0,5.0,385.0,130.0,Active,,,http://www.redfin.com/CA/Riverside/16709-Fleur-Blvd-92503/home/112839284,CRMLS,IV21235081,N,Y,33.8776818,-117.4234862
15,MLS Listing,,Mobile/Manufactured Home,29170 Via Princesa,Murrieta,CA,92563.0,395000.0,2.0,2.0,SRCAR - Southwest Riverside County,1440.0,4356.0,1978.0,5.0,274.0,80.0,Active,,,http://www.redfin.com/CA/Murrieta/29170-Via-Princesa-92563/home/6175721,CRMLS,SW21235083,N,Y,33.5590256,-117.1532675
16,MLS Listing,,Single Family Residential,13068 Bowker Play Ct,Beaumont,CA,92223.0,499900.0,3.0,2.0,263 - Banning/Beaumont/Cherry Valley,1842.0,6098.0,2013.0,5.0,271.0,90.0,Active,,,http://www.redfin.com/CA/Beaumont/13068-Bowker-Play-Ct-92223/home/22471608,CRMLS,EV21237047,N,Y,33.9481982,-117.0085295
17,MLS Listing,,Single Family Residential,5978 Courtland Dr,Riverside,CA,92506.0,849900.0,4.0,2.0,252 - Riverside,2859.0,15682.0,1963.0,5.0,297.0,,Active,,,http://www.redfin.com/CA/Riverside/5978-Courtland-Dr-92506/home/5038942,CRMLS,EV21236798,N,Y,33.9441861,-117.3472558
18,MLS Listing,,Single Family Residential,13421 Planet Ct,Riverside,CA,92503.0,1150000.0,5.0,5.5,252 - Riverside,4677.0,23087.0,2019.0,11.0,246.0,130.0,Active,,,http://www.redfin.com/CA/Riverside/13421-Planet-Ct-92503/home/170631502,CRMLS,IV21230275,N,Y,33.8695397,-117.4262579
19,MLS Listing,,Condo/Co-op,2544 N Whitewater Club Dr Unit C,Palm Springs,CA,92262.0,355000.0,2.0,2.0,Palm Springs C.C.,1420.0,1742.0,1978.0,11.0,250.0,503.0,Active,,,http://www.redfin.com/CA/Palm-Springs/2544-N-Whitewater-Club-Dr-92262/unit-C/home/5663823,GPSMLS,219069354,N,Y,33.85459,-116.515751
20,MLS Listing,,Single Family Residential,39840 Vineland Pl,Cherry Valley,CA,92223.0,628000.0,3.0,2.0,263 - Banning/Beaumont/Cherry Valley,1697.0,39204.0,1989.0,12.0,370.0,,Pre On-Market,November-6-2021 01:00 PM,November-6-2021 04:00 PM,http://www.redfin.com/CA/Cherry-Valley/39840-Vineland-Pl-92223/home/5428475,CRMLS,EV21232749,N,Y,33.9728381,-116.9672824
21,MLS Listing,,Single Family Residential,40400 Carrigan Rd,Murrieta,CA,92562.0,674900.0,2.0,2.0,699 - Not Defined,1800.0,102366.0,1979.0,12.0,375.0,,Active,,,http://www.redfin.com/CA/Murrieta/40400-Carrigan-Rd-92562/home/6217716,CRMLS,SW21231589,N,Y,33.5616358,-117.1856386
22,MLS Listing,,Single Family Residential,3475 Claremont St,Hemet,CA,92545.0,449900.0,3.0,2.0,SRCAR - Southwest Riverside County,1556.0,9148.0,2004.0,13.0,289.0,,Active,,,http://www.redfin.com/CA/Hemet/3475-Claremont-St-92545/home/8158583,CRMLS,SW21230704,N,Y,33.7665704,-117.0086267
23,MLS Listing,,Single Family Residential,45284 Escalon St,Temecula,CA,92592.0,599000.0,4.0,2.5,SRCAR - Southwest Riverside County,2009.0,3372.0,2003.0,18.0,298.0,136.0,Active,,,http://www.redfin.com/CA/Temecula/45284-Escalon-St-92592/home/6485391,CRMLS,SW21228786,N,Y,33.4692277,-117.0776257
24,MLS Listing,,Single Family Residential,29315 Wild Lilac,Lake Elsinore,CA,92530.0,605000.0,4.0,3.0,SRCAR - Southwest Riverside County,2309.0,5663.0,2018.0,18.0,262.0,117.0,Active,,,http://www.redfin.com/CA/LAKE-ELSINORE/29315-WILD-LILAC-92530/home/167264761,CRMLS,CV21229116,N,Y,33.642122,-117.302917
25,MLS Listing,,Single Family Residential,37789 Mockingbird Ave,Murrieta,CA,92563.0,999000.0,5.0,4.5,699 - Not Defined,4403.0,10019.0,2015.0,18.0,227.0,,Active,,,http://www.redfin.com/CA/Murrieta/37789-Mockingbird-Ave-92563/home/62294195,CRMLS,SW21228793,N,Y,33.5705982,-117.1550137
26,MLS Listing,,Single Family Residential,75895 Vardon Way,Palm Desert,CA,92211.0,949900.0,4.0,2.5,Sunterrace,2505.0,,1998.0,18.0,379.0,150.0,Active,,,http://www.redfin.com/CA/Palm-Desert/75895-Vardon-Way-92211/home/5956975,GPSMLS,219069002,N,Y,33.7450733,-116.340695
27,MLS Listing,,Single Family Residential,33243 Romance Pl,Temecula,CA,92592.0,649900.0,4.0,2.5,SRCAR - Southwest Riverside County,2005.0,5227.0,2004.0,19.0,324.0,35.0,Active,,,http://www.redfin.com/CA/Temecula/33243-Romance-Pl-92592/home/6494571,CRMLS,SW21227949,N,Y,33.4566863,-117.0793393
28,MLS Listing,,Single Family Residential,33892 Flora Springs St,Temecula,CA,92592.0,799999.0,4.0,3.0,SRCAR - Southwest Riverside County,2726.0,5663.0,2004.0,19.0,293.0,99.0,Active,November-7-2021 12:00 PM,November-7-2021 03:00 PM,http://www.redfin.com/CA/Temecula/33892-Flora-Springs-St-92592/home/12508534,CRMLS,SW21227010,N,Y,33.4747923,-117.0682144
29,MLS Listing,,Single Family Residential,1561 Brentwood Dr,Corona,CA,92882.0,649900.0,4.0,2.5,248 - Corona,1495.0,7405.0,1963.0,20.0,435.0,,Active,,,http://www.redfin.com/CA/Corona/1561-Brentwood-Dr-92882/home/4245195,CRMLS,IV21226095,N,Y,33.8656986,-117.6010106
30,MLS Listing,,Single Family Residential,2464 Central Ave,Riverside,CA,92506.0,589900.0,4.0,2.0,252 - Riverside,1675.0,13068.0,1957.0,20.0,352.0,,Active,,,http://www.redfin.com/CA/Riverside/2464-Central-Ave-92506/home/4963408,CRMLS,EV21227468,N,Y,33.953515,-117.365351
31,MLS Listing,,Single Family Residential,32028 Corte Escobar,Temecula,CA,92592.0,769900.0,4.0,3.0,699 - Not Defined,2918.0,8276.0,1997.0,25.0,264.0,107.0,Active,,,http://www.redfin.com/CA/Temecula/32028-Corte-Escobar-92592/home/6231843,CRMLS,OC21224058,N,Y,33.5012453,-117.1008517
32,MLS Listing,,Single Family Residential,37182 Bosley St,Indio,CA,92203.0,529000.0,4.0,3.0,Talavera,3005.0,9148.0,2007.0,26.0,176.0,140.0,Active,,,http://www.redfin.com/CA/Indio/37182-Bosley-St-92203/home/12498342,GPSMLS,219068668,N,Y,33.7789716,-116.2716637
33,MLS Listing,,Single Family Residential,75377 Montecito Dr,Indian Wells,CA,92210.0,984999.0,4.0,3.0,Not Applicable,2877.0,9148.0,1987.0,31.0,342.0,6.0,Active,,,http://www.redfin.com/CA/Indian-Wells/75377-Montecito-Dr-92210/home/5959508,GPSMLS,219068403,N,Y,33.719745,-116.3498731
34,MLS Listing,,Single Family Residential,1636 Dunkirk Ln,Riverside,CA,92506.0,888000.0,4.0,3.0,252 - Riverside,2855.0,21780.0,1987.0,33.0,311.0,,Active,,,http://www.redfin.com/CA/Riverside/1636-Dunkirk-Ln-92506/home/5021127,CRMLS,IV21216517,N,Y,33.9157044,-117.3816153
35,MLS Listing,,Single Family Residential,73060 Santa Rosa Way,Palm Desert,CA,92260.0,474900.0,3.0,2.0,Not Applicable,1528.0,7405.0,1992.0,54.0,311.0,,Active,,,http://www.redfin.com/CA/Palm-Desert/73060-Santa-Rosa-Way-92260/home/5924169,GPSMLS,219067316,N,Y,33.7281423,-116.3901786
36,MLS Listing,,Single Family Residential,1047 Raven Ct,Calimesa,CA,92320.0,490000.0,3.0,3.0,269 - Yucaipa/Calimesa,1853.0,5284.0,2019.0,56.0,264.0,98.0,Active,,,http://www.redfin.com/CA/Calimesa/1047-Raven-Ct-92320/home/167402372,CRMLS,EV21197183,N,Y,33.963958,-117.036963
37,MLS Listing,,Single Family Residential,27369 Prominence Rd,Menifee,CA,92586.0,420000.0,3.0,2.0,SRCAR - Southwest Riverside County,1318.0,4356.0,1990.0,76.0,319.0,40.0,Active,,,http://www.redfin.com/CA/Menifee/27369-Prominence-Rd-92586/home/5286807,CRMLS,EV21182064,N,Y,33.7224005,-117.2132729
38,MLS Listing,,Single Family Residential,38820 Butterfly Dr,Yucaipa,CA,92399.0,958000.0,4.0,3.0,269 - Yucaipa/Calimesa,2395.0,23087.0,2002.0,84.0,400.0,,Active,November-6-2021 01:00 PM,November-6-2021 04:00 PM,http://www.redfin.com/CA/Yucaipa/38820-Butterfly-Dr-92399/home/5433577,CRMLS,EV21176154,N,Y,34.0015259,-116.9826208
39,MLS Listing,,Single Family Residential,29627 Vacation Dr,Canyon Lake,CA,92587.0,915000.0,4.0,3.5,SRCAR - Southwest Riverside County,3523.0,8712.0,2007.0,1.0,260.0,300.0,Active,,,http://www.redfin.com/CA/Canyon-Lake/29627-Vacation-Dr-92587/home/17348490,CRMLS,SW21240836,N,Y,33.6904225,-117.2607684
40,MLS Listing,,Single Family Residential,730 Spinnaker Dr,Perris,CA,92571.0,449900.0,3.0,2.5,SRCAR - Southwest Riverside County,1800.0,3920.0,1989.0,1.0,250.0,,Active,,,http://www.redfin.com/CA/Perris/730-Spinnaker-Dr-92571/home/17349767,CRMLS,IG21240508,N,Y,33.8079426,-117.2102546
41,MLS Listing,,Vacant Land,0 Connecticut Dr,Menifee,CA,92587.0,21500.0,,,SRCAR - Southwest Riverside County,,10019.0,,1.0,,,Active,,,http://www.redfin.com/CA/Menifee/29746-Arroyo-Dr-92587/home/176075474,CRMLS,PW21241302,N,Y,33.6917876,-117.2285866
42,MLS Listing,,Single Family Residential,40030 Holden Cir,Temecula,CA,92591.0,650000.0,5.0,3.0,SRCAR - Southwest Riverside County,2626.0,9583.0,1988.0,1.0,248.0,,Active,,,http://www.redfin.com/CA/Temecula/40030-Holden-Cir-92591/home/6182466,CRMLS,SW21241289,N,Y,33.5395076,-117.1265739
43,MLS Listing,,Single Family Residential,13118 Waterwheel Dr,Corona,CA,92883.0,545000.0,3.0,2.0,248 - Corona,1281.0,8276.0,1991.0,1.0,425.0,85.0,Active,November-6-2021 11:00 AM,November-6-2021 02:00 PM,http://www.redfin.com/CA/Corona/13118-Waterwheel-Dr-92883/home/5417955,CRMLS,CV21241075,N,Y,33.7338415,-117.4317648
44,MLS Listing,,Single Family Residential,19015 Spalding Ave,Riverside,CA,92508.0,745000.0,4.0,3.5,Riverside,2701.0,15682.0,2016.0,1.0,276.0,,Active,November-6-2021 12:00 PM,November-6-2021 05:00 PM,http://www.redfin.com/CA/Riverside/19015-Spalding-Ave-92508/home/62770673,TheMLS,21-101671,N,Y,33.8628268,-117.330751
45,MLS Listing,,Vacant Land,0 Oregon,Menifee,CA,92587.0,28500.0,,,SRCAR - Southwest Riverside County,,22651.0,,1.0,,,Active,,,http://www.redfin.com/CA/Menifee/0-Oregon-92587/home/177047111,CRMLS,PW21241273,N,Y,33.7010881,-117.255854
46,MLS Listing,,Single Family Residential,45180 Debbie Dr,La Quinta,CA,92253.0,549000.0,3.0,2.0,Desert Pride,1800.0,7405.0,1998.0,1.0,305.0,,Active,,,http://www.redfin.com/CA/La-Quinta/45180-Debbie-Dr-92253/home/5810950,GPSMLS,219069824,N,Y,33.719568,-116.2842121
47,MLS Listing,,Single Family Residential,12634 Microlite St,Jurupa Valley,CA,92509.0,699750.0,4.0,3.5,251 - Jurupa Valley,2959.0,7841.0,2017.0,1.0,236.0,,Pre On-Market,,,http://www.redfin.com/CA/Jurupa-Valley/12634-Microlite-St-92509/home/112789268,CRMLS,OC21241257,N,Y,34.016011,-117.4423093
48,MLS Listing,,Single Family Residential,34743 Serissa Ct,Murrieta,CA,92563.0,744000.0,4.0,4.5,SRCAR - Southwest Riverside County,3111.0,6970.0,2018.0,1.0,239.0,120.0,Pre On-Market,,,http://www.redfin.com/CA/Murrieta/34743-Serissa-Ct-92563/home/143980554,CRMLS,SW21241214,N,Y,33.6161153,-117.1197024
49,MLS Listing,,Vacant Land,0 Atwood Ave,Moreno Valley,CA,92553.0,279000.0,,,259 - Moreno Valley,,14375.0,,1.0,,,Active,,,http://www.redfin.com/CA/Moreno-Valley/23930-Sunnymead-Blvd-92553/home/104257789,CRMLS,IG21241252,N,Y,33.939329,-117.2451751
50,MLS Listing,,Single Family Residential,1224 Old Hickory Rd,Corona,CA,92882.0,800000.0,4.0,3.0,248 - Corona,2125.0,12197.0,1988.0,1.0,376.0,,Active,,,http://www.redfin.com/CA/Corona/1224-Old-Hickory-Rd-92882/home/4394802,CRMLS,OC21224546,N,Y,33.8538862,-117.5901671
51,MLS Listing,,Single Family Residential,9130 Oakmount Blvd,Desert Hot Springs,CA,92240.0,335000.0,4.0,3.0,Mission Lakes,2174.0,8712.0,1996.0,1.0,154.0,285.0,Active,,,http://www.redfin.com/CA/Desert-Hot-Springs/9130-Oakmount-Blvd-92240/home/6037011,GPSMLS,219069823,N,Y,33.9822666,-116.529051
52,MLS Listing,,Single Family Residential,2253 E Belding Dr,Palm Springs,CA,92262.0,1299000.0,3.0,2.0,Sunrise Park,1860.0,1018.0,1958.0,1.0,698.0,,Active,,,http://www.redfin.com/CA/Palm-Springs/2253-E-Belding-Dr-92262/home/5666447,GPSMLS,219069821,N,Y,33.8295029,-116.5225299
53,MLS Listing,,Single Family Residential,54165 Avenida Martinez,La Quinta,CA,92253.0,549990.0,3.0,2.0,La Quinta Cove,1502.0,4792.0,2001.0,1.0,366.0,,Active,,,http://www.redfin.com/CA/La-Quinta/54165-Avenida-Martinez-92253/home/6141851,GPSMLS,219069822,N,Y,33.6551697,-116.3073927
54,MLS Listing,,Single Family Residential,74795 Leslie Ave,Palm Desert,CA,92260.0,380000.0,3.0,2.0,699 - Not Defined,1232.0,6534.0,1961.0,1.0,308.0,60.0,Active,November-5-2021 04:00 PM,November-5-2021 06:00 PM,http://www.redfin.com/CA/Palm-Desert/74795-Leslie-Ave-92260/home/5899666,CRMLS,PTP2107632,N,Y,33.7386325,-116.3599749
55,MLS Listing,,Single Family Residential,1712 Melrose Dr,Corona,CA,92878.0,695000.0,4.0,3.0,248 - Corona,2304.0,7840.0,1972.0,1.0,302.0,,Active,November-6-2021 12:00 PM,November-6-2021 03:00 PM,http://www.redfin.com/CA/Corona/1712-Melrose-Dr-92880/home/4566596,CRMLS,OC21235944,N,Y,33.9065438,-117.5880809
56,MLS Listing,,Single Family Residential,11271 Chief Ln,Moreno Valley,CA,92557.0,615000.0,3.0,2.5,259 - Moreno Valley,2300.0,24829.0,1984.0,1.0,267.0,,Pre On-Market,,,http://www.redfin.com/CA/Moreno-Valley/11271-Chief-Ln-92557/home/5076652,CRMLS,IV21241201,N,Y,33.9570942,-117.2544302
57,MLS Listing,,Multi-Family (2-4 Unit),32908 Marie Dr,Lake Elsinore,CA,92530.0,288000.0,3.0,2.0,SRCAR - Southwest Riverside County,750.0,2614.0,1947.0,1.0,384.0,,Active,,,http://www.redfin.com/CA/Lake-Elsinore/32908-Marie-Dr-92530/home/5396260,CRMLS,CV21241228,N,Y,33.6558365,-117.3691785
58,MLS Listing,,Single Family Residential,860 Salinger Pl,San Jacinto,CA,92583.0,425000.0,3.0,2.0,Hemet/San Jacinto,1575.0,6970.0,,1.0,270.0,,Active,November-7-2021 11:00 AM,November-7-2021 04:00 PM,http://www.redfin.com/CA/San-Jacinto/860-Salinger-Pl-92583/home/22431386,TheMLS,21-101677,N,Y,33.7665462,-116.9469139
59,MLS Listing,,Single Family Residential,54620 Crest Dr,Idyllwild,CA,92549.0,1500000.0,3.0,2.5,Not Applicable,2894.0,87991.0,1982.0,1.0,518.0,,Active,,,http://www.redfin.com/CA/Idyllwild-Pine-Cove/54620-Crest-Dr-92549/home/5774965,GPSMLS,219069817,N,Y,33.7392294,-116.7088959
60,MLS Listing,,Single Family Residential,53755 Avenida Diaz,La Quinta,CA,92253.0,415000.0,3.0,2.0,La Quinta Cove,1325.0,4792.0,1986.0,1.0,313.0,,Active,,,http://www.redfin.com/CA/La-Quinta/53755-Avenida-Diaz-92253/home/6140551,GPSMLS,219069818,N,Y,33.6578256,-116.3160646
61,MLS Listing,,Single Family Residential,48842 Biery St,Indio,CA,92201.0,500000.0,3.0,2.0,Indian Palms,1833.0,5227.0,2006.0,1.0,273.0,281.0,Active,,,http://www.redfin.com/CA/Indio/48842-Biery-St-92201/home/12267354,GPSMLS,219069820,N,Y,33.6943423,-116.2248091
62,MLS Listing,,Single Family Residential,24044 Royale St,Moreno Valley,CA,92557.0,519990.0,3.0,2.0,259 - Moreno Valley,1634.0,7405.0,1984.0,1.0,318.0,,Active,,,http://www.redfin.com/CA/Moreno-Valley/24044-Royale-St-92557/home/5592624,CRMLS,IV21241209,N,Y,33.9589544,-117.2425799
63,MLS Listing,,Single Family Residential,28333 Grandview Dr,Moreno Valley,CA,92555.0,479000.0,2.0,2.5,259 - Moreno Valley,2089.0,5227.0,2003.0,1.0,229.0,126.0,Active,,,http://www.redfin.com/CA/Moreno-Valley/28333-Grandview-Dr-92555/home/6396687,CRMLS,IV21240439,N,Y,33.906733,-117.166883
64,MLS Listing,,Condo/Co-op,72837 Don Larson Ln,Palm Desert,CA,92260.0,425000.0,2.0,2.0,Deep Canyon Tennis C,1258.0,505.0,1979.0,1.0,338.0,615.0,Active,,,http://www.redfin.com/CA/Palm-Desert/72837-Don-Larson-Ln-92260/home/5930869,GPSMLS,219069819,N,Y,33.7064768,-116.3937018
65,MLS Listing,,Multi-Family (2-4 Unit),17462 Ranspot Ave,Lake Elsinore,CA,92530.0,425000.0,4.0,2.0,SRCAR - Southwest Riverside County,1889.0,7841.0,1947.0,1.0,225.0,,Active,,,http://www.redfin.com/CA/Lake-Elsinore/17462-Ranspot-Ave-92530/home/5401315,CRMLS,CV21240823,N,Y,33.6370052,-117.3517548
66,MLS Listing,,Single Family Residential,19587 Krameria Ave,Riverside,CA,92508.0,1020000.0,6.0,4.5,252 - Riverside,4479.0,11326.0,2005.0,1.0,228.0,25.0,Active,,,http://www.redfin.com/CA/Riverside/19587-Krameria-Ave-92508/home/6587217,CRMLS,IV21241192,N,Y,33.8799125,-117.3210174
67,MLS Listing,,Vacant Land,0 Gunnerson,Lake Elsinore,CA,92530.0,90000.0,,,699 - Not Defined,,986677560.0,,1.0,,,Active,,,http://www.redfin.com/CA/Unknown/Unknown-Unknown/home/22721798,CRMLS,TR21241202,N,Y,33.692315,-117.359264
68,MLS Listing,,Single Family Residential,619 W Christie St,Banning,CA,92220.0,279000.0,2.0,2.0,263 - Banning/Beaumont/Cherry Valley,908.0,8276.0,1949.0,1.0,307.0,,Active,,,http://www.redfin.com/CA/Banning/619-W-Christie-St-92220/home/5731741,CRMLS,SW21241178,N,Y,33.931911,-116.8836034
69,MLS Listing,,Multi-Family (2-4 Unit),33090 Pederson St,Lake Elsinore,CA,92530.0,355000.0,3.0,2.0,SRCAR - Southwest Riverside County,1000.0,3920.0,1948.0,1.0,355.0,,Active,,,http://www.redfin.com/CA/Lake-Elsinore/33090-Pederson-St-92530/home/5397039,CRMLS,CV21240799,N,Y,33.6351839,-117.3409203
70,MLS Listing,,Single Family Residential,33674 Channel St,Temecula,CA,92592.0,749999.0,4.0,2.5,SRCAR - Southwest Riverside County,2301.0,6098.0,2001.0,1.0,326.0,35.0,Pre On-Market,,,http://www.redfin.com/CA/Temecula/33674-Channel-St-92592/home/12512036,CRMLS,SW21240406,N,Y,33.4823339,-117.0702831
71,MLS Listing,,Vacant Land,1213 Herbert,Lake Elsinore,CA,93530.0,75000.0,,,699 - Not Defined,,10000.0,,1.0,,,Active,,,http://www.redfin.com/CA/Lake-Elsinore/1213-Herbert-St-92530/home/177046646,CRMLS,SW21241136,N,Y,33.690235,-117.358249
72,MLS Listing,,Single Family Residential,3660 E Chia Rd,Palm Springs,CA,92262.0,815000.0,3.0,2.0,332 - Central Palm Springs,1650.0,15246.0,1979.0,1.0,494.0,,Active,,,http://www.redfin.com/CA/Palm-Springs/3660-E-Chia-Rd-92262/home/6075589,CRMLS,IV21237151,N,Y,33.841534,-116.5072748
73,MLS Listing,,Condo/Co-op,816 E Cottonwood Rd #2,Palm Springs,CA,92262.0,257000.0,2.0,2.0,Desert Arches,816.0,871.0,1975.0,1.0,315.0,395.0,Active,,,http://www.redfin.com/CA/Palm-Springs/816-E-Cottonwood-Rd-92262/unit-2/home/5682561,GPSMLS,219069813,N,Y,33.8443361,-116.538654
74,MLS Listing,,Single Family Residential,33631 Navajo Trl,Cathedral City,CA,92234.0,360000.0,3.0,2.0,Rancho Ramon,1494.0,7841.0,1980.0,1.0,241.0,,Active,,,http://www.redfin.com/CA/Cathedral-City/33631-Navajo-Trl-92234/home/6088456,GPSMLS,219069816,N,Y,33.8040676,-116.4692461
75,MLS Listing,,Single Family Residential,21 Cresta Verde,Rancho Mirage,CA,92270.0,1195000.0,3.0,3.0,Mirage Cove,2837.0,10454.0,1984.0,1.0,421.0,470.0,Active,,,http://www.redfin.com/CA/Rancho-Mirage/21-Cresta-Verde-92270/home/6108624,GPSMLS,219069815,N,Y,33.7619507,-116.445991
76,MLS Listing,,Condo/Co-op,69130 Gerald Ford Dr #28,Cathedral City,CA,92234.0,155000.0,1.0,1.0,Jardin De Leon,600.0,871.0,1990.0,1.0,258.0,295.0,Active,,,http://www.redfin.com/CA/Cathedral-City/69130-Gerald-Ford-Dr-92234/unit-28/home/6053867,GPSMLS,219069814,N,Y,33.7875163,-116.4554877
77,MLS Listing,,Mobile/Manufactured Home,675 W Oakland Ave Unit E2,Hemet,CA,92543.0,98600.0,3.0,2.0,699 - Not Defined,1344.0,,2005.0,1.0,73.0,,Active,,,http://www.redfin.com/CA/Hemet/675-W-Oakland-Ave-92543/unit-E2/home/12493837,CRMLS,IG21241127,N,Y,33.7549512,-116.9779067
78,MLS Listing,,Mobile/Manufactured Home,111 SIR TRISTRAM DR Ave #111,Riverside,CA,92507.0,95000.0,2.0,2.0,252 - Riverside,1152.0,,1970.0,1.0,82.0,,Pre On-Market,,,http://www.redfin.com/CA/Riverside/111-Sir-Tristram-Dr-92507/unit-111/home/177046243,CRMLS,IV21240409,N,Y,33.9853129,-117.3425543
79,MLS Listing,,Single Family Residential,8781 Northstar Dr,Riverside,CA,92508.0,490000.0,3.0,2.0,252 - Riverside,1139.0,4792.0,1992.0,1.0,430.0,,Active,,,http://www.redfin.com/CA/Riverside/8781-Northstar-Dr-92508/home/5084340,CRMLS,SW21240778,N,Y,33.8920226,-117.3182181
80,MLS Listing,,Multi-Family (2-4 Unit),321 Granite St,Lake Elsinore,CA,92530.0,528000.0,4.0,3.0,SRCAR - Southwest Riverside County,1475.0,6970.0,1935.0,1.0,358.0,,Active,,,http://www.redfin.com/CA/Lake-Elsinore/321-Granite-St-92530/home/5386060,CRMLS,CV21240782,N,Y,33.6721419,-117.322567
81,MLS Listing,,Single Family Residential,1185 Willow Dr,Norco,CA,92860.0,825000.0,4.0,2.0,250 - Norco,2520.0,41382.0,2005.0,1.0,327.0,,Active,,,http://www.redfin.com/CA/Norco/1185-Willow-Dr-92860/home/12246473,CRMLS,IG21241170,N,Y,33.912336,-117.54956
82,MLS Listing,,Single Family Residential,41664 Camino Del Vino,Temecula,CA,92592.0,1850000.0,5.0,5.0,SRCAR - Southwest Riverside County,3787.0,97139.0,1991.0,1.0,489.0,,Pre On-Market,,,http://www.redfin.com/CA/Temecula/41664-Camino-Del-Vino-92592/home/6192649,CRMLS,SW21241113,N,Y,33.5220598,-117.0218239
83,MLS Listing,,Single Family Residential,1634 Avenida Del,Riverside,CA,92882.0,599000.0,3.0,2.0,252 - Riverside,1368.0,10019.0,1969.0,1.0,438.0,,Pre On-Market,November-6-2021 11:00 AM,November-6-2021 04:00 PM,http://www.redfin.com/CA/Corona/1634-Avenida-Del-Vis-92882/home/4245115,CRMLS,IV21240734,N,Y,33.8666428,-117.6040136
84,MLS Listing,,Single Family Residential,26234 Leos,Menifee,CA,92586.0,525000.0,2.0,2.0,SRCAR - Southwest Riverside County,1646.0,5663.0,2017.0,1.0,319.0,155.0,Active,,,http://www.redfin.com/CA/Menifee/26234-Leos-Trl-92586/home/12271492,CRMLS,PW21241115,N,Y,33.723043,-117.2011798
85,MLS Listing,,Single Family Residential,2781 Avalon St,Riverside,CA,92509.0,459000.0,4.0,2.0,699 - Not Defined,1292.0,7405.0,1961.0,1.0,355.0,,Pre On-Market,November-6-2021 12:00 PM,November-6-2021 04:00 PM,http://www.redfin.com/CA/Riverside/2781-Avalon-St-92509/home/4868930,CRMLS,OC21241153,N,Y,34.0106986,-117.398483
86,MLS Listing,,Mobile/Manufactured Home,28568 Memory Ln,Winchester,CA,92596.0,145000.0,2.0,2.0,SRCAR - Southwest Riverside County,1440.0,43560.0,1972.0,1.0,101.0,,Pre On-Market,November-6-2021 12:00 PM,November-6-2021 04:00 PM,http://www.redfin.com/CA/Winchester/28568-Memory-Ln-92596/home/5570074,CRMLS,SW21241008,N,Y,33.7061165,-117.1172604
87,MLS Listing,,Single Family Residential,21153 Paseo Montana,Murrieta,CA,92562.0,1295000.0,4.0,3.0,SRCAR - Southwest Riverside County,3300.0,270943.0,2001.0,1.0,392.0,92.0,Active,,,http://www.redfin.com/CA/Murrieta/21153-Pso-Montana-92562/home/6192912,CRMLS,SW21236506,N,Y,33.5795521,-117.297691
88,MLS Listing,,Condo/Co-op,183 Sandpiper St,Palm Desert,CA,92260.0,410000.0,2.0,2.0,323 - South Palm Desert,1389.0,,1959.0,1.0,295.0,525.0,Pre On-Market,November-13-2021 10:00 AM,November-13-2021 04:00 PM,http://www.redfin.com/CA/Palm-Desert/183-Sandpiper-St-92260/home/5993968,CRMLS,OC21240436,N,Y,33.71903,-116.391357
89,MLS Listing,,Vacant Land,69999-XX Westside Dr,Whitewater,CA,92282.0,149000.0,,,331 - North End Palm Springs,,217800.0,,1.0,,,Active,,,http://www.redfin.com/CA/Unknown/69999-XX-Westside-Dr-92282/home/177046129,CRMLS,PW21241154,N,Y,33.9361061,-116.6090581
90,MLS Listing,,Multi-Family (2-4 Unit),408 N Langstaff St,Lake Elsinore,CA,92530.0,510000.0,4.0,3.0,SRCAR - Southwest Riverside County,1900.0,9148.0,1943.0,1.0,268.0,,Active,,,http://www.redfin.com/CA/Lake-Elsinore/408-N-Langstaff-St-92530/home/5381198,CRMLS,CV21240730,N,Y,33.6749582,-117.3288456
91,MLS Listing,,Single Family Residential,42153 Thoroughbred Ln,Murrieta,CA,92562.0,569900.0,4.0,2.5,SRCAR - Southwest Riverside County,2230.0,10454.0,1989.0,1.0,256.0,,Active,,,http://www.redfin.com/CA/Murrieta/42153-Thoroughbred-Ln-92562/home/6166985,CRMLS,SW21238231,N,Y,33.5599219,-117.2247573
92,MLS Listing,,Single Family Residential,49-738 Hidden Valley Trl,Indian Wells,CA,92210.0,6975000.0,4.0,5.0,The Reserve,7656.0,25265.0,2008.0,1.0,911.0,986.0,Active,,,http://www.redfin.com/CA/Indian-Wells/49738-Hidden-Valley-Trl-92210/home/17343874,GPSMLS,219069810,N,Y,33.6908165,-116.3620715
93,MLS Listing,,Single Family Residential,31572 Pompei Ln,Winchester,CA,92596.0,615000.0,4.0,2.5,Winchester,2000.0,,2005.0,1.0,308.0,25.0,Pre On-Market,,,http://www.redfin.com/CA/Winchester/31572-Pompei-Ln-92596/home/12268126,SDMLS,210030364,N,Y,33.5916677,-117.1084067
94,MLS Listing,,Condo/Co-op,73537 Dalea Ln,Palm Desert,CA,92260.0,489000.0,2.0,2.0,Ironwood Country Clu,1214.0,2178.0,1974.0,1.0,403.0,590.0,Active,,,http://www.redfin.com/CA/Palm-Desert/73537-Dalea-Ln-92260/home/6027406,GPSMLS,219069811,N,Y,33.6937108,-116.3820927
95,MLS Listing,,Vacant Land,0 Rancho California Rd,Temecula,CA,92590.0,600000.0,,,SRCAR - Southwest Riverside County,,867715.0,,1.0,,,Active,,,http://www.redfin.com/CA/Temecula/41971-Main-St-92590/home/173870491,CRMLS,SW21241050,N,Y,33.4935651,-117.148439
96,MLS Listing,,Single Family Residential,20738 Brana Rd,Riverside,CA,92508.0,615000.0,5.0,3.0,252 - Riverside,2388.0,7405.0,1991.0,1.0,258.0,,Active,,,http://www.redfin.com/CA/Riverside/20738-Brana-Rd-92508/home/5154449,CRISNet,SR21241118,N,Y,33.9000979,-117.2977144
97,MLS Listing,,Vacant Land,1740 Turner St,Corona,CA,92881.0,125000.0,,,248 - Corona,,64033.0,,1.0,,,Active,,,http://www.redfin.com/CA/Corona/1740-Turner-St-92881/home/62306058,CRMLS,PW21241094,N,Y,33.822938,-117.538107
98,MLS Listing,,Mobile/Manufactured Home,3500-St Buchanan #62,Riverside,CA,92503.0,72000.0,2.0,2.0,252 - Riverside,1248.0,,1971.0,1.0,58.0,,Active,,,http://www.redfin.com/CA/Riverside/3500-Buchanan-St-92503/unit-62/home/177045612,CRMLS,IV21240320,N,Y,33.8856166,-117.4973191
99,MLS Listing,,Multi-Family (5+ Unit),137 E Graham Ave,Lake Elsinore,CA,92530.0,750000.0,5.0,5.0,SRCAR - Southwest Riverside County,2250.0,15246.0,1965.0,1.0,333.0,,Active,,,http://www.redfin.com/CA/Lake-Elsinore/137-E-Graham-Ave-92530/home/5378150,CRMLS,CV21240711,N,Y,33.6681178,-117.3263771
100,MLS Listing,,Single Family Residential,1483 Birmingham Dr,Perris,CA,92571.0,540000.0,5.0,4.0,SRCAR - Southwest Riverside County,3112.0,6534.0,2005.0,1.0,174.0,,Pre On-Market,,,http://www.redfin.com/CA/Perris/1483-Birmingham-Dr-92571/home/17334034,CRMLS,IV21241072,N,Y,33.8077169,-117.1936329
101,MLS Listing,,Multi-Family (5+ Unit),304 S Spring St,Lake Elsinore,CA,92530.0,1300000.0,11.0,7.0,SRCAR - Southwest Riverside County,4200.0,13504.0,1920.0,1.0,310.0,,Active,,,http://www.redfin.com/CA/Lake-Elsinore/304-S-Spring-St-92530/home/5383271,CRMLS,CV21240664,N,Y,33.6651268,-117.3300853
102,MLS Listing,,Single Family Residential,16208 Twilight Cir,Riverside,CA,92503.0,579900.0,3.0,2.0,252 - Riverside,1214.0,8712.0,1998.0,1.0,478.0,97.0,Pre On-Market,,,http://www.redfin.com/CA/Riverside/16208-Twilight-Cir-92503/home/4754968,CRMLS,IV21240316,N,Y,33.884305,-117.4927318
103,MLS Listing,,Single Family Residential,1562 S Indian Trl,Palm Springs,CA,92264.0,850000.0,2.0,2.0,334 - South End Palm Springs,1500.0,12197.0,1956.0,1.0,567.0,,Active,,,http://www.redfin.com/CA/Palm-Springs/1562-S-Indian-Trl-92264/home/5694824,CRMLS,OC21240634,N,Y,33.8036324,-116.5401342
104,MLS Listing,,Vacant Land,0 Monteflora,Desert Hot Springs,CA,92240.0,45000.0,,,Not Applicable,,7841.0,,1.0,,,Active,,,http://www.redfin.com/CA/Desert-Hot-Springs/67501-Camino-Campanero-92240/home/145585532,GPSMLS,219069807,N,Y,33.9394,-116.4852
105,MLS Listing,,Single Family Residential,1680 Pablo Ln,San Jacinto,CA,92583.0,400000.0,3.0,2.0,699 - Not Defined,1470.0,6534.0,1990.0,1.0,272.0,,Pre On-Market,,,http://www.redfin.com/CA/San-Jacinto/1680-Pablo-Ln-92583/home/5493826,CRMLS,CV21240026,N,Y,33.7702048,-116.9450203
106,MLS Listing,,Single Family Residential,14876 Briana St,Moreno Valley,CA,92553.0,310000.0,3.0,2.0,699 - Not Defined,996.0,4792.0,1987.0,1.0,311.0,,Active,,,http://www.redfin.com/CA/Moreno-Valley/14876-Briana-St-92553/home/5631833,CRMLS,DW21240700,N,Y,33.9046787,-117.2389742
107,MLS Listing,,Multi-Family (5+ Unit),33140 Olive St,Lake Elsinore,CA,92530.0,1180000.0,10.0,5.0,SRCAR - Southwest Riverside County,3750.0,22216.0,1965.0,1.0,315.0,,Active,,,http://www.redfin.com/CA/Lake-Elsinore/33140-Olive-St-92530/home/5398116,CRMLS,CV21240599,N,Y,33.6464644,-117.3607219
108,MLS Listing,,Single Family Residential,66414 Acoma Ave,Desert Hot Springs,CA,92240.0,255000.0,3.0,2.0,Not Applicable,1583.0,6534.0,1951.0,1.0,161.0,,Active,,,http://www.redfin.com/CA/Desert-Hot-Springs/66414-Acoma-Ave-92240/home/5994985,GPSMLS,219069809,N,Y,33.9607605,-116.5029078
109,MLS Listing,,Vacant Land,0 Gamble Ave,Riverside,CA,92504.0,259000.0,,,252 - Riverside,,198634.0,,1.0,,,Active,,,http://www.redfin.com/CA/Riverside/Gamble-Ave-Unknown/home/142692444,CRMLS,IV21226311,N,Y,33.8799019,-117.3530842
110,MLS Listing,,Single Family Residential,1543 Mariposa Dr,Corona,CA,92879.0,549900.0,4.0,2.0,248 - Corona,1851.0,7405.0,1963.0,1.0,297.0,,Active,,,http://www.redfin.com/CA/Corona/1543-Mariposa-Dr-92879/home/4452829,CRMLS,CV21241014,N,Y,33.8889303,-117.5384401
111,MLS Listing,,Single Family Residential,25917 Fran Lou Dr,Moreno Valley,CA,92557.0,625000.0,4.0,2.5,259 - Moreno Valley,2479.0,41818.0,1991.0,1.0,252.0,,Active,,,http://www.redfin.com/CA/Moreno-Valley/25917-Fran-Lou-Dr-92557/home/5581553,CRMLS,IV21239664,N,Y,33.9581695,-117.2107003
112,MLS Listing,,Condo/Co-op,40448 Calle Real,Murrieta,CA,92563.0,489000.0,3.0,2.5,SRCAR - Southwest Riverside County,1584.0,1069.0,2017.0,1.0,309.0,150.0,Pre On-Market,,,http://www.redfin.com/CA/Murrieta/40448-Calle-Real-92563/home/143979524,CRMLS,OC21240018,N,Y,33.548279,-117.172085
113,MLS Listing,,Single Family Residential,31796 Silk Vine Dr,Winchester,CA,92596.0,549000.0,4.0,3.0,Winchester,2356.0,8276.0,2006.0,1.0,233.0,24.0,Pre On-Market,,,http://www.redfin.com/CA/Winchester/31796-Silk-Vine-Dr-92596/home/12404728,CRMLS,NDP2112322,N,Y,33.6196145,-117.1048276
114,MLS Listing,,Single Family Residential,66282 Cahuilla Ave,Desert Hot Springs,CA,92240.0,129000.0,2.0,1.5,340 - Desert Hot Springs,936.0,6534.0,1948.0,1.0,138.0,,Active,,,http://www.redfin.com/CA/Desert-Hot-Springs/66282-Cahuilla-Ave-92240/home/5995130,CRMLS,CV21240997,N,Y,33.9588752,-116.5051547
115,MLS Listing,,Single Family Residential,7405 Westwood Dr,Riverside,CA,92504.0,625000.0,5.0,2.0,252 - Riverside,2065.0,13068.0,1952.0,1.0,303.0,,Active,,,http://www.redfin.com/CA/Riverside/7405-Westwood-Dr-92504/home/4987746,CRMLS,IV21236813,N,Y,33.9449894,-117.4097273
116,MLS Listing,,Single Family Residential,671 Le Harve Ave,Lake Elsinore,CA,92530.0,499990.0,3.0,2.0,SRCAR - Southwest Riverside County,1604.0,9148.0,1986.0,1.0,312.0,,Pre On-Market,November-6-2021 12:00 PM,November-6-2021 03:00 PM,http://www.redfin.com/CA/Lake-Elsinore/671-Le-Harve-Ave-92530/home/5394623,CRMLS,OC21240938,N,Y,33.6751196,-117.3855352
117,MLS Listing,,Single Family Residential,4116 Pearl St,Lake Elsinore,CA,92530.0,589000.0,4.0,3.0,SRCAR - Southwest Riverside County,2852.0,5663.0,2013.0,1.0,207.0,160.0,Active,November-6-2021 12:00 AM,November-6-2021 11:59 PM,http://www.redfin.com/CA/Lake-Elsinore/4116-Pearl-St-92530/home/62292427,CRMLS,TR21240932,N,Y,33.7036562,-117.3830612
118,MLS Listing,,Single Family Residential,1014 Shelby St,Beaumont,CA,92223.0,500000.0,4.0,2.0,263 - Banning/Beaumont/Cherry Valley,1644.0,6534.0,2002.0,1.0,304.0,,Active,,,http://www.redfin.com/CA/Beaumont/1014-Shelby-St-92223/home/6425846,CRMLS,EV21240958,N,Y,33.9459546,-116.9682943
119,MLS Listing,,Single Family Residential,39780 Oak Cliff Dr,Temecula,CA,92591.0,550000.0,3.0,2.5,SRCAR - Southwest Riverside County,1458.0,6970.0,1988.0,1.0,377.0,,Pre On-Market,November-6-2021 01:00 PM,November-6-2021 03:00 PM,http://www.redfin.com/CA/Temecula/39780-Oak-Cliff-Dr-92591/home/6172583,CRMLS,IV21239981,N,Y,33.5429615,-117.1502116
120,MLS Listing,,Multi-Family (2-4 Unit),2552 N Junipero Ave,Palm Springs,CA,92262.0,995000.0,4.0,4.0,Chino Canyon - 4975,3952.0,10454.0,1986.0,1.0,252.0,,Active,,,http://www.redfin.com/CA/Palm-Springs/2552-N-Junipero-Ave-92262/home/5677467,GPSMLS,219069805,N,Y,33.8529061,-116.5531292
121,MLS Listing,,Condo/Co-op,56730 Merion,La Quinta,CA,92253.0,1125000.0,4.0,4.5,PGA Nicklaus Private,2986.0,3049.0,1990.0,1.0,377.0,762.0,Active,,,http://www.redfin.com/CA/La-Quinta/56730-Merion-92253/home/6119461,GPSMLS,219069804,N,Y,33.636916,-116.270059
122,MLS Listing,,Single Family Residential,2405 E Francis Dr,Palm Springs,CA,92262.0,699000.0,4.0,2.0,Palm Springs North End,1584.0,11326.0,1972.0,1.0,441.0,,Active,November-5-2021 12:00 PM,November-5-2021 02:00 PM,http://www.redfin.com/CA/Palm-Springs/2405-E-Francis-Dr-92262/home/5659825,TheMLS,21-799596,N,Y,33.8556292,-116.5208247
123,MLS Listing,,Single Family Residential,34411 Devlin Dr,Beaumont,CA,92223.0,550000.0,5.0,3.0,263 - Banning/Beaumont/Cherry Valley,3252.0,6970.0,2008.0,1.0,169.0,154.0,Pre On-Market,,,http://www.redfin.com/CA/Beaumont/34411-Devlin-Dr-92223/home/21951841,CRMLS,WS21240810,N,Y,33.961836,-117.0662836
124,MLS Listing,,Single Family Residential,27165 Quail Creek Dr,Moreno Valley,CA,92555.0,585500.0,5.0,3.0,259 - Moreno Valley,3218.0,6098.0,2007.0,1.0,182.0,56.0,Pre On-Market,,,http://www.redfin.com/CA/Moreno-Valley/27165-Quail-Creek-Dr-92555/home/17329669,CRMLS,PW21238581,N,Y,33.9288182,-117.1885791
125,MLS Listing,,Single Family Residential,6392 San Diego Ave,Riverside,CA,92506.0,434888.0,2.0,1.0,252 - Riverside,1047.0,7841.0,1951.0,1.0,415.0,,Pre On-Market,,,http://www.redfin.com/CA/Riverside/6392-San-Diego-Ave-92506/home/4972929,CRMLS,OC21240878,N,Y,33.9509857,-117.3904165
126,MLS Listing,,Single Family Residential,353 Blowing Rock,Beaumont,CA,92223.0,430000.0,2.0,2.0,263 - Banning/Beaumont/Cherry Valley,1561.0,6534.0,2012.0,1.0,275.0,227.0,Active,,,http://www.redfin.com/CA/Beaumont/353-Blowing-Rock-92223/home/40950951,CRMLS,EV21240894,N,Y,33.9093165,-116.9624763
127,MLS Listing,,Single Family Residential,1997 Portal Dr,San Jacinto,CA,92582.0,400000.0,4.0,3.0,SRCAR - Southwest Riverside County,2057.0,3920.0,2016.0,1.0,194.0,124.0,Pre On-Market,,,http://www.redfin.com/CA/San-Jacinto/1997-Portal-Dr-92582/home/109044959,CRMLS,SW21240909,N,Y,33.7749909,-116.9996595
128,MLS Listing,,Single Family Residential,4522 Alondro Dr,Jurupa Valley,CA,92509.0,519900.0,4.0,2.0,251 - Jurupa Valley,1378.0,7405.0,1971.0,1.0,377.0,,Pre On-Market,,,http://www.redfin.com/CA/Riverside/4522-Alondro-Dr-92509/home/4860749,CRMLS,CV21240830,N,Y,34.0061314,-117.4614429
129,MLS Listing,,Single Family Residential,8360 Yarrow Ln,Riverside,CA,92508.0,724900.0,5.0,3.5,252 - Riverside,2621.0,7841.0,1999.0,1.0,277.0,,Pre On-Market,November-6-2021 10:00 AM,November-6-2021 04:00 PM,http://www.redfin.com/CA/Riverside/8360-Yarrow-Ln-92508/home/5157236,CRMLS,IV21240723,N,Y,33.8989717,-117.2960153
130,MLS Listing,,Condo/Co-op,30360 Town Square Dr,Menifee,CA,92584.0,412500.0,2.0,2.5,SRCAR - Southwest Riverside County,1395.0,,2019.0,1.0,296.0,226.0,Pre On-Market,November-6-2021 10:00 AM,November-6-2021 02:00 PM,http://www.redfin.com/CA/Menifee/30360-Town-Square-Dr-92584/home/173401258,CRMLS,ND21239937,N,Y,33.680244,-117.181053
131,MLS Listing,,Condo/Co-op,68105 Lakeland Dr,Cathedral City,CA,92234.0,239000.0,2.0,3.0,Cathedral City South,1197.0,1307.0,1990.0,1.0,200.0,1.0,Active,,,http://www.redfin.com/CA/Cathedral-City/68105-Lakeland-Dr-92234/home/3158522,TheMLS,21-101463,N,Y,33.8007549,-116.4686435
132,MLS Listing,,Single Family Residential,51445 Calle Guatemala,La Quinta,CA,92253.0,799000.0,3.0,2.0,Desert Club Estates,1928.0,6098.0,2004.0,1.0,414.0,,Active,,,http://www.redfin.com/CA/La-Quinta/51445-Cll-Guatemala-92253/home/6582237,GPSMLS,219069802,N,Y,33.6749394,-116.2989511
133,MLS Listing,,Vacant Land,45525-Site 593 Highway 79,Aguanga,CA,92536.0,385000.0,,,SRCAR - Southwest Riverside County,,4190.0,,1.0,,488.0,Active,,,http://www.redfin.com/CA/Aguanga/45525-Site-593-Highway-79-92536/home/177044527,CRMLS,SW21239685,N,Y,33.442702,-116.8651224
134,MLS Listing,,Mobile/Manufactured Home,1292 Western Dr,San Jacinto,CA,92583.0,120000.0,2.0,1.0,SRCAR - Southwest Riverside County,670.0,1742.0,1991.0,1.0,179.0,185.0,Active,,,http://www.redfin.com/CA/San-Jacinto/1292-Western-Dr-92583/home/5473655,CRMLS,EV21237429,N,Y,33.8049142,-116.976297
135,MLS Listing,,Single Family Residential,1671 Garden Ln,San Jacinto,CA,92582.0,399000.0,4.0,2.0,699 - Not Defined,1830.0,8276.0,2005.0,1.0,218.0,,Pre On-Market,,,http://www.redfin.com/CA/San-Jacinto/1671-Garden-Ln-92582/home/17337456,CRMLS,NDP2112319,N,Y,33.7816164,-116.9923015
136,MLS Listing,,Single Family Residential,10154 Keller Ave,Riverside,CA,92503.0,528888.0,3.0,2.0,252 - Riverside,1266.0,13939.0,1988.0,1.0,418.0,,Pre On-Market,,,http://www.redfin.com/CA/Riverside/10154-Keller-Ave-92503/home/4794278,CRMLS,CV21240051,N,Y,33.9344599,-117.4749317
137,MLS Listing,,Single Family Residential,42505 El Calamar Rd,Temecula,CA,92590.0,1135000.0,3.0,2.5,Temecula-Hills West,3754.0,430808.0,2003.0,1.0,302.0,9.0,Active,,,http://www.redfin.com/CA/Temecula/42505-El-Calamar-Rd-92590/home/58787636,TheMLS,21-101415,N,Y,33.4978744,-117.2637996
138,MLS Listing,,Townhouse,298 Tava Ln,Palm Desert,CA,92211.0,263000.0,2.0,2.0,Mountain View Falls,991.0,2178.0,1984.0,1.0,265.0,450.0,Active,,,http://www.redfin.com/CA/Palm-Desert/298-Tava-Ln-92211/home/5952509,GPSMLS,219069800,N,Y,33.7460893,-116.3497001
139,MLS Listing,,Single Family Residential,8576 Barnwood Ln,Riverside,CA,92503.0,799000.0,5.0,4.0,Not Applicable,3818.0,11326.0,2003.0,1.0,209.0,62.0,Active,,,http://www.redfin.com/CA/Riverside/8576-Barnwood-Ln-92508/home/6421678,GPSMLS,219069801,N,Y,33.894006,-117.329283
140,MLS Listing,,Vacant Land,37300 Marondi Dr,Calimesa,CA,92320.0,325000.0,,,269 - Yucaipa/Calimesa,,198634.0,,1.0,,,Active,,,http://www.redfin.com/CA/Calimesa/37300-Marondi-Dr-92320/home/22582363,CRMLS,EV21240800,N,Y,33.994829,-117.009038
141,MLS Listing,,Single Family Residential,576 Miracle Dr,San Jacinto,CA,92583.0,479900.0,4.0,3.0,SRCAR - Southwest Riverside County,2228.0,7405.0,2005.0,1.0,215.0,,Active,,,http://www.redfin.com/CA/San-Jacinto/576-Miracle-Dr-92583/home/6628986,CRMLS,SW21240637,N,Y,33.7819351,-116.9410644
142,MLS Listing,,Single Family Residential,7055 Montecito Ln,Eastvale,CA,92880.0,720000.0,4.0,3.5,249 - Eastvale,1947.0,2200.0,2020.0,1.0,370.0,283.0,Pre On-Market,,,http://www.redfin.com/CA/Eastvale/7055-Montecito-Ln-92880/home/171000232,CRMLS,OC21240751,N,Y,33.959072,-117.5999488
143,MLS Listing,,Single Family Residential,6199 Lucretia Ave,Jurupa Valley,CA,91752.0,699800.0,4.0,2.0,251 - Jurupa Valley,1749.0,20909.0,1976.0,1.0,400.0,,Pre On-Market,November-6-2021 11:00 AM,November-6-2021 02:00 PM,http://www.redfin.com/CA/Mira-Loma/6199-Lucretia-Ave-91752/home/4834322,CRMLS,SW21240627,N,Y,33.9756331,-117.5324523
144,MLS Listing,,Condo/Co-op,31850 Railroad Canyon Rd,Canyon Lake,CA,92587.0,249900.0,3.0,2.0,SRCAR - Southwest Riverside County,1312.0,1307.0,1976.0,1.0,190.0,698.0,Active,,,http://www.redfin.com/CA/Canyon-Lake/31850-Railroad-Canyon-Rd-92587/home/5333841,CRMLS,IG21240760,N,Y,33.672737,-117.2555
145,MLS Listing,,Single Family Residential,53360 Avenida Villa,La Quinta,CA,92253.0,350000.0,3.0,2.0,La Quinta Cove,1248.0,5227.0,1979.0,1.0,280.0,,Pre On-Market,,,http://www.redfin.com/CA/La-Quinta/53360-Avenida-Villa-92253/home/6139438,GPSMLS,219069797,N,Y,33.6607665,-116.3051324
146,MLS Listing,,Single Family Residential,32211 Cala Torrente,Temecula,CA,92592.0,619900.0,4.0,3.0,SRCAR - Southwest Riverside County,1752.0,8712.0,1995.0,1.0,354.0,107.0,Pre On-Market,,,http://www.redfin.com/CA/Temecula/32211-Cala-Torrente-92592/home/6232068,CRMLS,SW21239890,N,Y,33.504411,-117.096531
147,MLS Listing,,Single Family Residential,40644 Rosalie Ave,Hemet,CA,92544.0,340000.0,2.0,2.0,699 - Not Defined,1088.0,8276.0,1964.0,1.0,313.0,,Active,,,http://www.redfin.com/CA/Hemet/40644-Rosalie-Ave-92544/home/5531566,CRMLS,EV21240426,N,Y,33.7397709,-116.950908
148,MLS Listing,,Single Family Residential,6242 Brookdale Ave,Jurupa Valley,CA,92509.0,649000.0,4.0,2.0,251 - Jurupa Valley,2368.0,23087.0,1973.0,1.0,274.0,,Pre On-Market,November-13-2021 12:00 AM,November-13-2021 03:00 AM,http://www.redfin.com/CA/Riverside/6242-Brookdale-Ave-92509/home/4880914,CRMLS,IV21240649,N,Y,33.9961441,-117.4269597
149,MLS Listing,,Single Family Residential,40180 Starling St,Temecula,CA,92591.0,649000.0,4.0,2.5,SRCAR - Southwest Riverside County,2178.0,6534.0,1991.0,1.0,298.0,90.0,Pre On-Market,,,http://www.redfin.com/CA/Temecula/40180-Starling-St-92591/home/6173760,CRMLS,SW21240698,N,Y,33.5332041,-117.146765
150,MLS Listing,,Single Family Residential,21460 Vine St,Wildomar,CA,92595.0,475000.0,3.0,2.0,SRCAR - Southwest Riverside County,1325.0,11761.0,1961.0,1.0,358.0,,Pre On-Market,,,http://www.redfin.com/CA/Wildomar/21460-Vine-St-92595/home/5357387,CRMLS,SW21239341,N,Y,33.6399439,-117.2845458
151,MLS Listing,,Single Family Residential,320 Stewart St,Blythe,CA,92225.0,149800.0,6.0,4.0,Not Applicable,1848.0,8276.0,1989.0,1.0,81.0,,Active,,,http://www.redfin.com/CA/Blythe/320-Stewart-St-92225/home/6154914,GPSMLS,219069796,N,Y,33.6156696,-114.5937494
152,MLS Listing,,Single Family Residential,3914 Albillo,Perris,CA,92571.0,463428.0,3.0,2.5,699 - Not Defined,1714.0,4356.0,2003.0,1.0,270.0,97.0,Pre On-Market,,,http://www.redfin.com/CA/Perris/3914-Albillo-Loop-92571/home/22811956,CRMLS,CV21237899,N,Y,33.8412859,-117.1915195
153,MLS Listing,,Vacant Land,0 Big Horn,Mountain Center,CA,92561.0,175000.0,,,MNTC - Mountain Center,,130244.0,,1.0,,,Active,,,http://www.redfin.com/CA/Mountain-Center/Unknown-92561/home/147620900,CRMLS,SW21239361,N,Y,33.629528,-116.417924
154,MLS Listing,,Single Family Residential,3148 Hannover St,Corona,CA,92882.0,775000.0,3.0,3.5,248 - Corona,2187.0,5524.0,1999.0,1.0,354.0,42.0,Pre On-Market,November-13-2021 11:00 AM,November-13-2021 02:00 PM,http://www.redfin.com/CA/Corona/3148-Hannover-St-92882/home/6274273,CRMLS,PW21240638,N,Y,33.843164,-117.5854382
155,MLS Listing,,Single Family Residential,25516 Birchtree Dr,Murrieta,CA,92563.0,550000.0,3.0,2.0,699 - Not Defined,1350.0,9583.0,1988.0,1.0,407.0,,Pre On-Market,,,http://www.redfin.com/CA/Murrieta/25516-Birchtree-Dr-92563/home/6169777,CRMLS,CV21240648,N,Y,33.563083,-117.1750708
156,MLS Listing,,Single Family Residential,38682 Florence St,Beaumont,CA,92223.0,575000.0,5.0,2.5,263 - Banning/Beaumont/Cherry Valley,2277.0,37916.0,1940.0,1.0,253.0,,Active,,,http://www.redfin.com/CA/Beaumont/38682-Florence-St-92223/home/5441684,CRMLS,RS21240645,N,Y,33.9420067,-116.9869208
157,MLS Listing,,Single Family Residential,2030 Mount Verdugo Ln,Perris,CA,92571.0,525000.0,5.0,3.0,SRCAR - Southwest Riverside County,2375.0,6098.0,2006.0,1.0,221.0,,Active,,,http://www.redfin.com/CA/Perris/2030-Mt-Verdugo-Ln-92571/home/8166999,CRMLS,IV21240644,N,Y,33.8324482,-117.1825832
158,MLS Listing,,Single Family Residential,3594 Castle Reagh Pl,Riverside,CA,92506.0,1150000.0,5.0,3.5,252 - Riverside,3415.0,12632.0,1926.0,1.0,337.0,,Pre On-Market,November-6-2021 12:00 PM,November-6-2021 03:00 PM,http://www.redfin.com/CA/Riverside/3594-Castle-Reagh-Pl-92506/home/4944873,CRMLS,EV21230703,N,Y,33.9673103,-117.3835202
159,MLS Listing,,Single Family Residential,11262 Cullen Ct,Riverside,CA,92505.0,569000.0,3.0,2.0,252 - Riverside,1254.0,8276.0,1976.0,1.0,454.0,,Pre On-Market,,,http://www.redfin.com/CA/Riverside/11262-Cullen-Ct-92505/home/4779937,CRMLS,OC21231262,N,Y,33.9059053,-117.4836484
160,MLS Listing,,Single Family Residential,81891 Arus Ave,Indio,CA,92201.0,380000.0,3.0,2.0,Not Applicable,2092.0,7840.0,1965.0,1.0,182.0,,Active,,,http://www.redfin.com/CA/Indio/81891-Arus-Ave-92201/home/5861683,GPSMLS,219069795,N,Y,33.7031515,-116.2356757
161,MLS Listing,,Single Family Residential,13557 Abington Dr,Corona,CA,92883.0,529999.0,3.0,2.0,248 - Corona,1200.0,7841.0,1996.0,1.0,442.0,85.0,Active,,,http://www.redfin.com/CA/Corona/13557-Abington-Dr-92883/home/5421618,CRMLS,IG21240584,N,Y,33.7239258,-117.4238622
162,MLS Listing,,Single Family Residential,29861 Bridlegate Way,Menifee,CA,92584.0,556280.0,4.0,6.0,SRCAR - Southwest Riverside County,1910.0,6728.0,2022.0,1.0,291.0,137.0,Active,,,http://www.redfin.com/CA/MENIFEE/29861-BRIDLEGATE-WAY-92584/home/173400620,CRMLS,OC21240423,N,Y,33.68675,-117.2323
163,MLS Listing,,Single Family Residential,27055 Tube Rose St,Murrieta,CA,92562.0,795000.0,3.0,3.0,SRCAR - Southwest Riverside County,2905.0,9148.0,2004.0,1.0,274.0,250.0,Pre On-Market,November-6-2021 01:00 PM,November-6-2021 04:00 PM,http://www.redfin.com/CA/Murrieta/27055-Tube-Rose-St-92562/home/6548430,CRMLS,SW21240631,N,Y,33.6069999,-117.1873845
164,MLS Listing,,Single Family Residential,66041 3rd St,Desert Hot Springs,CA,92240.0,122000.0,1.0,1.0,340 - Desert Hot Springs,681.0,6534.0,1946.0,1.0,179.0,,Active,,,http://www.redfin.com/CA/Desert-Hot-Springs/66041-3rd-St-92240/home/5991668,CRMLS,SC21240608,N,Y,33.9640149,-116.5094065
165,MLS Listing,,Single Family Residential,45768 Quailbrush St,Palm Desert,CA,92260.0,839000.0,4.0,3.0,Not Applicable,2146.0,6970.0,1951.0,1.0,391.0,,Active,November-3-2021 12:00 PM,November-3-2021 04:00 PM,http://www.redfin.com/CA/Palm-Desert/45768-Quailbrush-St-92260/home/5903751,GPSMLS,219069794,N,Y,33.7159705,-116.3695655
166,MLS Listing,,Single Family Residential,78728 Aguave Dr,Palm Desert,CA,92211.0,559000.0,3.0,3.0,Sun City,1840.0,6970.0,1995.0,1.0,304.0,330.0,Active,,,http://www.redfin.com/CA/Palm-Desert/78728-Aguave-Dr-92211/home/5816633,GPSMLS,219069792,N,Y,33.7698817,-116.2908551
167,MLS Listing,,Condo/Co-op,1980 Las Colinas Cir #308,Corona,CA,92879.0,399000.0,2.0,2.0,248 - Corona,1063.0,1307.0,1991.0,1.0,375.0,365.0,Active,,,http://www.redfin.com/CA/Corona/1980-Las-Colinas-Cir-92879/unit-308/home/6666372,CRMLS,PW21240493,N,Y,33.9005008,-117.5316637
168,MLS Listing,,Single Family Residential,29853 Bridlegate Way,Menifee,CA,92584.0,609180.0,4.0,3.0,SRCAR - Southwest Riverside County,2771.0,6101.0,2022.0,1.0,220.0,137.0,Active,,,http://www.redfin.com/CA/MENIFEE/29853-BRIDLEGATE-WAY-92584/home/173400621,CRMLS,OC21240421,N,Y,33.686883,-117.232415
169,MLS Listing,,Single Family Residential,26351 Cynthia St,Hemet,CA,92544.0,340000.0,2.0,2.0,Sage-Southwest Hemet,1109.0,8276.0,1965.0,1.0,307.0,,Active,,,http://www.redfin.com/CA/Hemet/26351-Cynthia-St-92544/home/5531873,TheMLS,21-101295,N,Y,33.7390087,-116.9523758
170,MLS Listing,,Single Family Residential,400 Olympia Way,Hemet,CA,92543.0,295000.0,2.0,2.0,SRCAR - Southwest Riverside County,1427.0,5227.0,1965.0,1.0,207.0,100.0,Active,,,http://www.redfin.com/CA/Hemet/400-Olympia-Way-92543/home/5509625,CRMLS,SW21240297,N,Y,33.7416298,-116.9832876
171,MLS Listing,,Vacant Land,0 Arnold,Lake Elsinore,CA,92530.0,55000.0,,,SRCAR - Southwest Riverside County,,7405.0,,1.0,,,Active,,,http://www.redfin.com/CA/Lake-Elsinore/16665-Lakeshore-Dr-92530/home/173568222,CRMLS,SW21240563,N,Y,33.6856425,-117.3690269
172,MLS Listing,,Single Family Residential,22551 Blue Teal Dr,Canyon Lake,CA,92587.0,875000.0,4.0,3.5,SRCAR - Southwest Riverside County,4300.0,6969.0,1990.0,1.0,203.0,246.0,Pre On-Market,,,http://www.redfin.com/CA/Canyon-Lake/22551-Blue-Teal-Dr-92587/home/5325510,CRMLS,SW21240561,N,Y,33.6829731,-117.2649019
173,MLS Listing,,Vacant Land,0 Ryan,Lake Elsinore,CA,92277.0,49000.0,,,SRCAR - Southwest Riverside County,,10965.0,,1.0,,,Active,,,http://www.redfin.com/CA/Lake-Elsinore/Unknown-92530/home/172984494,CRMLS,SW21240564,N,Y,33.6763954,-117.3469085
174,MLS Listing,,Single Family Residential,1001 Orange Ave,Beaumont,CA,92223.0,320000.0,2.0,1.0,263 - Banning/Beaumont/Cherry Valley,876.0,9583.0,1955.0,1.0,365.0,,Active,November-6-2021 11:00 AM,November-6-2021 04:00 PM,http://www.redfin.com/CA/Beaumont/1001-Orange-Ave-92223/home/5446406,CRMLS,IV21239795,N,Y,33.9357664,-116.9746873
175,MLS Listing,,Single Family Residential,669 Garwood Ct,Riverside,CA,92506.0,698990.0,4.0,2.0,252 - Riverside,2305.0,18295.0,1991.0,1.0,303.0,,Pre On-Market,November-13-2021 11:00 AM,November-13-2021 05:00 PM,http://www.redfin.com/CA/Riverside/669-Garwood-Ct-92506/home/5105056,CRMLS,PW21236078,N,Y,33.9296486,-117.3206271
176,MLS Listing,,Condo/Co-op,2298 N Indian Canyon Dr Unit B,Palm Springs,CA,92262.0,259000.0,2.0,1.5,Racquet Club West,896.0,436.0,1971.0,1.0,289.0,310.0,Active,,,http://www.redfin.com/CA/Palm-Springs/2298-N-Indian-Canyon-Dr-92262/unit-B/home/5663131,GPSMLS,219069791,N,Y,33.8501921,-116.545065
177,MLS Listing,,Condo/Co-op,5300 E Waverly Dr Unit C4,Palm Springs,CA,92264.0,205000.0,1.0,1.5,Palm Springs South End,768.0,871.0,1978.0,1.0,267.0,338.0,Active,,,http://www.redfin.com/CA/Palm-Springs/5300-E-Waverly-Dr-92264/unit-C4/home/6092011,TheMLS,21-101278,N,Y,33.7931379,-116.488444
178,MLS Listing,,Condo/Co-op,15635 Lasselle St #94,Moreno Valley,CA,92551.0,299999.0,2.0,2.0,259 - Moreno Valley,1140.0,871.0,2008.0,1.0,263.0,250.0,Active,,,http://www.redfin.com/CA/Moreno-Valley/15635-Lasselle-St-92551/unit-94/home/21947027,CRMLS,IG21239833,N,Y,33.893137,-117.20921
179,MLS Listing,,Vacant Land,67251 Richards Rd,Cathedral City,CA,92234.0,200000.0,,,335 - Cathedral City North,,435600.0,,1.0,,,Active,,,http://www.redfin.com/CA/Cathedral-City/31910-Avenida-Alvera-92234/home/6035388,CRMLS,PW21240539,N,Y,33.8167011,-116.4636691
180,MLS Listing,,Single Family Residential,2295 Shanna Carle Dr,Corona,CA,92882.0,989000.0,4.0,3.5,248 - Corona,3931.0,11326.0,2005.0,1.0,252.0,,Active,November-5-2021 03:00 PM,November-5-2021 06:00 PM,http://www.redfin.com/CA/Corona/2295-Shanna-Carle-Dr-92882/home/6526157,CRMLS,CV21240516,N,Y,33.8549178,-117.5735683
181,MLS Listing,,Mobile/Manufactured Home,27 Santa Ana,Palm Springs,CA,92264.0,125000.0,3.0,2.0,Palm Springs South End,,,1961.0,1.0,,,Active,,,http://www.redfin.com/CA/Palm-Springs/27-Santa-Ana-St-92264/home/177042930,TheMLS,21-101039,N,Y,33.7939218,-116.5054313
182,MLS Listing,,Single Family Residential,2546 Northmoor Dr,Corona,CA,92882.0,649900.0,4.0,2.0,248 - Corona,2034.0,10454.0,1963.0,1.0,320.0,,Active,,,http://www.redfin.com/CA/Corona/2546-Northmoor-Dr-92882/home/4192742,CRMLS,IV21240511,N,Y,33.8804979,-117.6195324
183,MLS Listing,,Single Family Residential,734 Sweet Clover,San Jacinto,CA,92582.0,459000.0,3.0,3.0,SRCAR - Southwest Riverside County,2022.0,7405.0,2005.0,1.0,227.0,,Active,,,http://www.redfin.com/CA/San-Jacinto/734-Sweet-Clover-Loop-92582/home/17339842,CRMLS,SW21240327,N,Y,33.7769987,-117.0031545
184,MLS Listing,,Single Family Residential,40914 Lincoln Pl,Cherry Valley,CA,92223.0,355000.0,2.0,2.0,263 - Banning/Beaumont/Cherry Valley,1062.0,7841.0,1984.0,1.0,334.0,185.0,Active,,,http://www.redfin.com/CA/Cherry-Valley/40914-Lincoln-Pl-92223/home/5427847,CRMLS,IV21240509,N,Y,33.9645317,-116.9480562
185,MLS Listing,,Single Family Residential,10510 Bel Air Dr,Cherry Valley,CA,92223.0,377000.0,2.0,2.0,263 - Banning/Beaumont/Cherry Valley,1441.0,6534.0,1993.0,1.0,262.0,185.0,Active,,,http://www.redfin.com/CA/Cherry-Valley/10510-Bel-Air-Dr-92223/home/5425084,CRMLS,IV21240510,N,Y,33.9681523,-116.9494821
186,MLS Listing,,Single Family Residential,29878 Calle Edmundo,Menifee,CA,92586.0,562000.0,3.0,2.0,SRCAR - Southwest Riverside County,1345.0,7841.0,1985.0,1.0,418.0,,Active,,,http://www.redfin.com/CA/Menifee/29878-Cll-Edmundo-92586/home/5272014,CRMLS,IV21240504,N,Y,33.6865128,-117.1838467
187,MLS Listing,,Single Family Residential,216 Cliffhill Pl,Riverside,CA,92501.0,449000.0,4.0,2.0,252 - Riverside,1492.0,10019.0,1970.0,1.0,301.0,,Active,November-6-2021 01:00 PM,November-6-2021 04:00 PM,http://www.redfin.com/CA/Riverside/216-Cliffhill-Pl-92501/home/5028418,CRMLS,OC21233270,N,Y,34.0187061,-117.3450063
188,MLS Listing,,Vacant Land,29743 Buggywhip Ct,Canyon Lake,CA,92587.0,849000.0,,,SRCAR - Southwest Riverside County,,10890.0,,1.0,,305.0,Active,,,http://www.redfin.com/CA/Canyon-Lake/29743-Buggywhip-Ct-92587/home/5321881,CRMLS,LG21239848,N,Y,33.6878835,-117.2728013
189,MLS Listing,,Single Family Residential,2832 Locust St,Riverside,CA,92501.0,424999.0,3.0,1.0,252 - Riverside,1089.0,8712.0,1950.0,1.0,390.0,,Pre On-Market,,,http://www.redfin.com/CA/Riverside/2832-Locust-St-92501/home/4929548,CRMLS,IV21238719,N,Y,33.9933451,-117.3742077
190,MLS Listing,,Single Family Residential,374 Cabrillo Cir,Corona,CA,92879.0,629900.0,3.0,2.5,248 - Corona,1663.0,5227.0,1988.0,1.0,379.0,,Pre On-Market,November-13-2021 02:00 AM,November-13-2021 05:00 PM,http://www.redfin.com/CA/Corona/374-Cabrillo-Cir-92879/home/4467833,CRMLS,IG21240430,N,Y,33.8849429,-117.5303497
191,MLS Listing,,Single Family Residential,21358 Shakespeare Ct,Moreno Valley,CA,92557.0,563000.0,4.0,2.5,259 - Moreno Valley,1900.0,8712.0,1992.0,1.0,296.0,,Active,,,http://www.redfin.com/CA/Moreno-Valley/21358-Shakespeare-Ct-92557/home/5053709,CRMLS,IG21240024,N,Y,33.9531035,-117.2904589
192,MLS Listing,,Single Family Residential,27802 Lafayette Way,Moreno Valley,CA,92555.0,585000.0,5.0,3.0,259 - Moreno Valley,2841.0,7841.0,2004.0,1.0,206.0,22.0,Pre On-Market,November-13-2021 11:00 AM,November-13-2021 04:00 PM,http://www.redfin.com/CA/Moreno-Valley/27802-Lafayette-Way-92555/home/6543989,CRMLS,EV21236964,N,Y,33.9097685,-117.177598
193,MLS Listing,,Vacant Land,41060 Jojoba Hills Cir,Aguanga,CA,92536.0,199999.0,,,SRCAR - Southwest Riverside County,,218671.0,,1.0,,55.0,Active,,,http://www.redfin.com/CA/Aguanga/41060-Jojoba-Hills-Cir-92536/home/22136037,CRMLS,SW21240438,N,Y,33.527565,-116.895312
194,MLS Listing,,Single Family Residential,7372 Pebblewood Ct,Riverside,CA,92509.0,875000.0,4.0,3.5,252 - Riverside,3080.0,15246.0,2006.0,1.0,284.0,,Active,,,http://www.redfin.com/CA/Riverside/7372-Pebblewood-Ct-92509/home/4888399,CRMLS,IG21240441,N,Y,33.9970623,-117.4444659
195,MLS Listing,,Single Family Residential,851 Lunar Ln,Banning,CA,92220.0,478300.0,4.0,3.0,263 - Banning/Beaumont/Cherry Valley,1880.0,7841.0,1999.0,1.0,254.0,,Active,,,http://www.redfin.com/CA/Banning/851-Lunar-Ln-92220/home/5724709,CRMLS,IG21239748,N,Y,33.9331085,-116.9029275
196,MLS Listing,,Single Family Residential,36128 Darcy Pl,Murrieta,CA,92562.0,799990.0,3.0,3.0,SRCAR - Southwest Riverside County,3461.0,14810.0,2004.0,1.0,231.0,,Active,November-6-2021 12:00 AM,November-6-2021 11:59 PM,http://www.redfin.com/CA/Murrieta/36128-Darcy-Pl-92562/home/6623828,CRMLS,IG21240112,N,Y,33.5994788,-117.2043605
197,MLS Listing,,Vacant Land,"66th And Lincoln, Vacant Land",Mecca,CA,92254.0,2350000.0,,,Not Applicable,,2055596.0,,1.0,,,Active,,,http://www.redfin.com/CA/Mecca/66th-Lincoln-St-Unknown/home/177039635,GPSMLS,219069789,N,Y,33.56747,-116.080612
198,MLS Listing,,Condo/Co-op,1660 S La Reina Way Unit 1A,Palm Springs,CA,92264.0,525000.0,2.0,2.0,Palm Springs South End,1850.0,2178.0,1972.0,1.0,284.0,773.0,Active,November-6-2021 11:00 AM,November-6-2021 02:00 PM,http://www.redfin.com/CA/Palm-Springs/1660-La-Reina-Way-92264/unit-1A/home/3047927,TheMLS,21-799360,N,Y,33.8019981,-116.5210964
199,MLS Listing,,Single Family Residential,40571 Heyerdahl Ave,Murrieta,CA,92563.0,589000.0,4.0,3.5,SRCAR - Southwest Riverside County,2099.0,4356.0,2005.0,1.0,281.0,125.0,Active,,,http://www.redfin.com/CA/Murrieta/40571-Heyerdahl-Ave-92563/home/8162987,CRMLS,SW21235727,N,Y,33.5501847,-117.175852
200,MLS Listing,,Single Family Residential,40493 Calle Katerine,Temecula,CA,92591.0,1050000.0,4.0,3.5,SRCAR - Southwest Riverside County,3494.0,14810.0,1999.0,1.0,301.0,,Pre On-Market,,,http://www.redfin.com/CA/Temecula/40493-Calle-Katerine-92591/home/6242383,CRMLS,SW21240367,N,Y,33.5333816,-117.1066891
201,MLS Listing,,Single Family Residential,13260 Golden Horn Dr Dr,Corona,CA,92883.0,749500.0,4.0,2.0,248 - Corona,2346.0,16988.0,2001.0,1.0,319.0,85.0,Pre On-Market,,,http://www.redfin.com/CA/Corona/13260-Golden-Horn-Dr-92883/home/6284091,CRMLS,OC21240330,N,Y,33.7182814,-117.4291515
202,MLS Listing,,Mobile/Manufactured Home,4041 Pedley Rd #139,Jurupa Valley,CA,92509.0,100000.0,3.0,2.0,251 - Jurupa Valley,1840.0,,1977.0,1.0,54.0,,Active,,,http://www.redfin.com/CA/Riverside/4041-Pedley-Rd-92509/unit-139/home/6595859,CRMLS,IG21240337,N,Y,34.0146558,-117.4791525
203,MLS Listing,,Single Family Residential,23134 Sonnet Dr,Moreno Valley,CA,92557.0,409900.0,2.0,2.0,259 - Moreno Valley,1025.0,8276.0,1984.0,1.0,400.0,,Active,,,http://www.redfin.com/CA/Moreno-Valley/23134-Sonnet-Dr-92557/home/5075820,CRMLS,IV21240381,N,Y,33.9554812,-117.2589083
204,MLS Listing,,Single Family Residential,388 San Luis Way,Blythe,CA,92225.0,149000.0,2.0,1.0,Not Applicable,1000.0,7841.0,1981.0,1.0,149.0,,Active,,,http://www.redfin.com/CA/Blythe/388-San-Luis-Way-92225/home/6152282,GPSMLS,219069782,N,Y,33.61583,-114.6106838
205,MLS Listing,,Condo/Co-op,38751 Wisteria Dr,Palm Desert,CA,92211.0,499000.0,3.0,2.0,Palm Valley CC,1549.0,3049.0,1989.0,1.0,322.0,725.0,Active,,,http://www.redfin.com/CA/Palm-Desert/38751-Wisteria-Dr-92211/home/5918447,GPSMLS,219069784,N,Y,33.766889,-116.32683
206,MLS Listing,,Mobile/Manufactured Home,3423 E Via Escuela,Palm Springs,CA,92262.0,645000.0,3.0,2.0,Gene Autry,1248.0,9148.0,1984.0,1.0,517.0,,Pre On-Market,,,http://www.redfin.com/CA/Palm-Springs/3423-E-Via-Escuela-92262/home/6077526,GPSMLS,219069783,N,Y,33.8483243,-116.5089341
207,MLS Listing,,Condo/Co-op,26456 Arboretum Way #1104,Murrieta,CA,92563.0,359900.0,2.0,2.0,SRCAR - Southwest Riverside County,890.0,918.0,2004.0,1.0,404.0,190.0,Pre On-Market,,,http://www.redfin.com/CA/Murrieta/26456-Arboretum-Way-92563/unit-1104/home/6642405,CRMLS,SW21205187,N,Y,33.5418596,-117.1663632
208,MLS Listing,,Condo/Co-op,200 E Racquet Club Rd #28,Palm Springs,CA,92262.0,245000.0,2.0,2.0,Palm Springs North End,1400.0,3920.0,1986.0,1.0,175.0,350.0,Active,November-5-2021 11:00 AM,November-5-2021 02:00 PM,http://www.redfin.com/CA/Palm-Springs/200-E-Racquet-Club-Rd-92262/unit-28/home/5655978,TheMLS,21-100905,N,Y,33.8538446,-116.544512
209,MLS Listing,,Single Family Residential,39556 Long Ridge Dr,Temecula,CA,92591.0,509000.0,3.0,2.0,SRCAR - Southwest Riverside County,1143.0,6098.0,1987.0,1.0,445.0,,Pre On-Market,November-20-2021 12:00 PM,November-20-2021 04:00 PM,http://www.redfin.com/CA/Temecula/39556-Long-Ridge-Dr-92591/home/6358418,CRMLS,SW21230302,N,Y,33.5445913,-117.1463974
210,MLS Listing,,Single Family Residential,12840 Calle Amapola,Desert Hot Springs,CA,92240.0,293700.0,3.0,2.0,Not Applicable,1272.0,12197.0,1976.0,1.0,231.0,,Active,,,http://www.redfin.com/CA/Desert-Hot-Springs/12840-Calle-Amapola-92240/home/6002881,GPSMLS,219069780,N,Y,33.9551182,-116.4699625
211,MLS Listing,,Single Family Residential,66735 Buena Vista Ave,Desert Hot Springs,CA,92240.0,244370.0,2.0,2.0,Not Applicable,1404.0,7405.0,1972.0,1.0,174.0,,Active,,,http://www.redfin.com/CA/Desert-Hot-Springs/66735-Buena-Vista-Ave-92240/home/5995888,GPSMLS,219069778,N,Y,33.959341,-116.4971811
212,MLS Listing,,Single Family Residential,100 Chalaka Pl,Palm Desert,CA,92260.0,3800000.0,4.0,5.0,Bighorn Golf Club,4230.0,14724.0,1999.0,1.0,898.0,1150.0,Active,,,http://www.redfin.com/CA/Palm-Desert/100-Chalaka-Pl-92260/home/6326092,GPSMLS,219069779,N,Y,33.6832535,-116.4071704
213,MLS Listing,,Vacant Land,43830 Soaring Hawk Rd,Aguanga,CA,92536.0,99900.0,,,SRCAR - Southwest Riverside County,,255697.0,,1.0,,55.0,Pre On-Market,,,http://www.redfin.com/CA/Aguanga/43830-Soaring-Hawk-Rd-92536/home/22152877,CRMLS,SW21240267,N,Y,33.52348,-116.898679
214,MLS Listing,,Vacant Land,0 Calle Amapola,Desert Hot Springs,CA,92240.0,49037.0,,,Not Applicable,,10019.0,,1.0,,,Active,,,http://www.redfin.com/CA/Desert-Hot-Springs/13181-Calle-Amapola-92240/home/6003447,GPSMLS,219069781,N,Y,33.9529553,-116.4701239
215,MLS Listing,,Single Family Residential,8574 Lourenco Ln,Eastvale,CA,92880.0,875000.0,5.0,3.0,249 - Eastvale,3666.0,8276.0,2006.0,1.0,239.0,,Pre On-Market,,,http://www.redfin.com/CA/Corona/8574-Lourenco-Ln-92880/home/12493375,CRMLS,EV21240227,N,Y,33.9329128,-117.596013
216,MLS Listing,,Single Family Residential,18979 Berry Rd,Riverside,CA,92508.0,975000.0,5.0,2.5,252 - Riverside,3617.0,33977.0,1994.0,1.0,270.0,,Pre On-Market,,,http://www.redfin.com/CA/Riverside/18979-Berry-Rd-92508/home/6495301,CRMLS,IG21239870,N,Y,33.9160279,-117.3324957
217,MLS Listing,,Single Family Residential,2487 Pleasant St,Riverside,CA,92507.0,400000.0,3.0,2.0,252 - Riverside,1630.0,6534.0,1950.0,1.0,245.0,,Active,,,http://www.redfin.com/CA/Riverside/2487-Pleasant-St-92507/home/4959712,CRMLS,IV21230827,N,Y,33.967726,-117.3633231
218,MLS Listing,,Single Family Residential,6110 Valencia St,Eastvale,CA,92880.0,824999.0,4.0,2.0,249 - Eastvale,2200.0,9148.0,2004.0,1.0,375.0,,Pre On-Market,,,http://www.redfin.com/CA/Corona/6110-Valencia-St-92880/home/6575432,CRMLS,EV21239868,N,Y,33.9772972,-117.574217
219,MLS Listing,,Multi-Family (2-4 Unit),6061 Rutland Ave,Riverside,CA,92503.0,725000.0,10.0,5.0,252 - Riverside,3385.0,16553.0,1950.0,1.0,214.0,,Active,,,http://www.redfin.com/CA/Riverside/6061-Rutland-Ave-92503/home/4805224,CRMLS,IV21240260,N,Y,33.9433938,-117.4684558
220,MLS Listing,,Single Family Residential,1556 Elegante Ct,Corona,CA,92882.0,575000.0,2.0,2.5,248 - Corona,1471.0,2178.0,1990.0,1.0,391.0,380.0,Pre On-Market,November-6-2021 12:00 PM,November-6-2021 04:00 PM,http://www.redfin.com/CA/Corona/1556-Elegante-Ct-92882/home/4231424,CRMLS,IG21237178,N,Y,33.867557,-117.622401
221,MLS Listing,,Single Family Residential,1067 Normandy,Corona,CA,92878.0,590000.0,4.0,2.0,248 - Corona,1571.0,7405.0,1965.0,1.0,376.0,,Active,,,http://www.redfin.com/CA/Corona/1067-Normandy-Ter-92880/home/4520140,CRMLS,CV21238995,N,Y,33.8998904,-117.5719863
222,MLS Listing,,Single Family Residential,52705 Avenida Alvarado,La Quinta,CA,92253.0,569000.0,3.0,2.0,La Quinta Cove,1626.0,4792.0,2004.0,1.0,350.0,,Active,November-4-2021 01:00 PM,November-4-2021 03:00 PM,http://www.redfin.com/CA/La-Quinta/52705-Avenida-Alvarado-92253/home/6136204,GPSMLS,219069775,N,Y,33.665694,-116.3143579
223,MLS Listing,,Single Family Residential,55120 Spring Creek Ct,La Quinta,CA,92253.0,1450000.0,4.0,4.5,PGA West Monterra,3180.0,10454.0,2017.0,1.0,456.0,565.0,Active,,,http://www.redfin.com/CA/La-Quinta/55120-Spring-Creek-Ct-92253/home/170648181,GPSMLS,219069771,N,Y,33.6484006,-116.2361371
224,MLS Listing,,Condo/Co-op,225 Castellana N,Palm Desert,CA,92260.0,679000.0,3.0,3.5,Monterey Country Clu,2208.0,3485.0,1980.0,1.0,308.0,681.0,Active,,,http://www.redfin.com/CA/Palm-Desert/225-Castellana-N-92260/home/5887706,GPSMLS,219069774,N,Y,33.739136,-116.383055
225,MLS Listing,,Single Family Residential,39846 Cricket Cv,Palm Desert,CA,92211.0,739000.0,4.0,3.5,Regency Estates,3050.0,12196.0,1991.0,1.0,242.0,190.0,Active,,,http://www.redfin.com/CA/Palm-Desert/39846-Cricket-Cv-92211/home/5923752,GPSMLS,219069777,N,Y,33.7595948,-116.321669
226,MLS Listing,,Single Family Residential,53705 Avenida Cortez,La Quinta,CA,92253.0,509000.0,3.0,2.0,La Quinta Cove,1476.0,4792.0,1989.0,1.0,345.0,,Active,,,http://www.redfin.com/CA/La-Quinta/53705-Avenida-Cortez-92253/home/6139552,GPSMLS,219069772,N,Y,33.6584255,-116.3186016
227,MLS Listing,,Single Family Residential,80580 Denton Dr,Indio,CA,92203.0,400000.0,4.0,2.0,Talavera,1573.0,9148.0,2006.0,1.0,254.0,140.0,Active,,,http://www.redfin.com/CA/Indio/80580-Denton-Dr-92203/home/8171512,GPSMLS,219069776,N,Y,33.7763284,-116.2587686
228,MLS Listing,,Single Family Residential,64840 Sanderling Ct,Desert Hot Springs,CA,92240.0,619500.0,4.0,3.0,Mission Lakes,3032.0,10454.0,1991.0,1.0,204.0,401.0,Active,,,http://www.redfin.com/CA/Desert-Hot-Springs/64840-Sanderling-Ct-92240/home/6036585,TheMLS,21-101111,N,Y,33.9812154,-116.5328069
229,MLS Listing,,Single Family Residential,24901 Degan Ave,Blythe,CA,92225.0,60000.0,3.0,1.0,699 - Not Defined,900.0,14810.0,1920.0,1.0,67.0,,Active,,,http://www.redfin.com/CA/Ripley/24901-Degan-Ave-92225/home/6160172,CRMLS,DW21240246,N,Y,33.5238136,-114.657725
230,MLS Listing,,Condo/Co-op,28484 W Natoma Dr,Cathedral City,CA,92234.0,299900.0,2.0,2.0,336 - Cathedral City South,1212.0,1308.0,1985.0,1.0,247.0,710.0,Active,,,http://www.redfin.com/CA/Cathedral-City/28484-W-Natoma-Dr-92234/unit-401/home/3146959,CRMLS,NDP2112299,N,Y,33.8409555,-116.4842156
231,MLS Listing,,Single Family Residential,6170 Fairlane Ave,Eastvale,CA,92880.0,749999.0,4.0,3.0,249 - Eastvale,2579.0,6969.0,2003.0,1.0,291.0,,Active,November-6-2021 11:00 AM,November-6-2021 05:00 PM,http://www.redfin.com/CA/Corona/6170-Fairlane-Ave-92880/home/22750370,CRMLS,PW21234818,N,Y,33.975678,-117.5787957
232,MLS Listing,,Vacant Land,31307 Water Ave,Nuevo/Lakeview,CA,92567.0,175000.0,,,699 - Not Defined,,13398.0,,1.0,,,Active,,,http://www.redfin.com/CA/Nuevo/31307-Water-Ave-92567/home/5465264,CRMLS,NDP2112297,N,Y,33.8137745,-117.1158471
233,MLS Listing,,Single Family Residential,4377 Monroe St,Riverside,CA,92504.0,475000.0,3.0,2.0,252 - Riverside,1224.0,6970.0,1960.0,1.0,388.0,,Pre On-Market,,,http://www.redfin.com/CA/Riverside/4377-Monroe-St-92504/home/4917226,CRMLS,IV21239864,N,Y,33.937927,-117.438776
234,MLS Listing,,Single Family Residential,29512 Longship Dr,Menifee,CA,92585.0,589900.0,4.0,3.0,SRCAR - Southwest Riverside County,2544.0,10890.0,2017.0,1.0,232.0,70.0,Active,,,http://www.redfin.com/CA/Menifee/29512-Longship-Dr-92585/home/167254437,CRMLS,SW21240185,N,Y,33.721083,-117.1428147
235,MLS Listing,,Single Family Residential,3103 Oradon Way,Hemet,CA,92545.0,315000.0,2.0,2.0,SRCAR - Southwest Riverside County,1214.0,3049.0,1984.0,1.0,259.0,,Active,,,http://www.redfin.com/CA/Hemet/3103-Oradon-Way-92545/home/5503007,CRMLS,SW21239747,N,Y,33.7530792,-117.0042581
236,MLS Listing,,Single Family Residential,19459 Jennings St,Riverside,CA,92508.0,695000.0,6.0,3.0,252 - Riverside,3615.0,7405.0,2000.0,1.0,192.0,,Active,,,http://www.redfin.com/CA/Riverside/19459-Jennings-St-92508/home/6278533,CRMLS,IV21240175,N,Y,33.8984802,-117.3219534
237,MLS Listing,,Townhouse,1069 Clark St,Riverside,CA,92501.0,390000.0,2.0,1.5,252 - Riverside,1150.0,1307.0,1978.0,1.0,339.0,220.0,Active,,,http://www.redfin.com/CA/Riverside/1069-Clark-St-92501/home/4922313,CRMLS,IV21240002,N,Y,34.004648,-117.3544403
238,MLS Listing,,Vacant Land,2 Coronado Ct,Rancho Mirage,CA,92270.0,699000.0,,,Coronado RM,,43560.0,,1.0,,500.0,Active,,,http://www.redfin.com/CA/Rancho-Mirage/2-Coronado-Ct-92270/home/12471462,GPSMLS,219069769,N,Y,33.7533508,-116.400805
239,MLS Listing,,Single Family Residential,50380 Via Serenidad,La Quinta,CA,92253.0,1429000.0,4.0,4.5,Palmilla,4513.0,12632.0,2002.0,1.0,317.0,680.0,Active,,,http://www.redfin.com/CA/La-Quinta/50380-Via-Serenidad-92253/home/6371825,GPSMLS,219069768,N,Y,33.6821841,-116.27314
240,MLS Listing,,Condo/Co-op,74800 Sheryl Ave #131,Palm Desert,CA,92260.0,307125.0,3.0,2.0,Vista Palm Desert,960.0,2178.0,1990.0,1.0,320.0,390.0,Active,,,http://www.redfin.com/CA/Palm-Desert/74800-Sheryl-Ave-92260/unit-131/home/5900038,GPSMLS,219069766,N,Y,33.738026,-116.358574
241,MLS Listing,,Condo/Co-op,45 Camisa Ln,Palm Desert,CA,92260.0,575000.0,3.0,3.0,Chaparral C.C.,2051.0,3484.0,1981.0,1.0,280.0,865.0,Active,,,http://www.redfin.com/CA/Palm-Desert/45-Camisa-Ln-92260/home/5884685,GPSMLS,219069767,N,Y,33.744706,-116.375673
242,MLS Listing,,Vacant Land,14435 Quailridge Dr,Riverside,CA,92503.0,119000.0,,,252 - Riverside,,13503.0,,1.0,,,Active,,,http://www.redfin.com/CA/Riverside/14435-Quailridge-Dr-92503/home/168735171,CRMLS,SW21240187,N,Y,33.8761485,-117.4100913
243,MLS Listing,,Mobile/Manufactured Home,38201 Camino Cinife,Murrieta,CA,92563.0,355000.0,2.0,2.0,Murrieta,1886.0,4791.0,1975.0,1.0,188.0,85.0,Active,,,http://www.redfin.com/CA/Murrieta/38201-Camino-Cinife-92563/home/6238356,SDMLS,210030273,N,Y,33.5656147,-117.1514293
244,MLS Listing,,Condo/Co-op,5502 Trevino Way,Banning,CA,92220.0,325000.0,2.0,2.0,263 - Banning/Beaumont/Cherry Valley,1261.0,,1992.0,1.0,258.0,454.0,Active,,,http://www.redfin.com/CA/Banning/5502-Trevino-Way-92220/home/5458639,CRMLS,EV21238578,N,Y,33.911232,-116.936156
245,MLS Listing,,Single Family Residential,26094 Elderwood Pl,Hemet,CA,92544.0,225000.0,2.0,2.0,SRCAR - Southwest Riverside County,1073.0,5663.0,1963.0,1.0,210.0,99.0,Active,,,http://www.redfin.com/CA/Hemet/26094-Elderwood-Pl-92544/home/5756654,CRMLS,SW21236995,N,Y,33.7428742,-116.9021234
246,MLS Listing,,Mobile/Manufactured Home,1400 Lodgepole Dr,Hemet,CA,92545.0,210000.0,2.0,2.0,SRCAR - Southwest Riverside County,1766.0,5227.0,1981.0,1.0,119.0,187.0,Active,,,http://www.redfin.com/CA/Hemet/1400-Lodgepole-Dr-92545/home/6349417,CRMLS,SW21240144,N,Y,33.7242247,-116.99037
247,MLS Listing,,Mobile/Manufactured Home,54159 Kalsman Dr,Whitewater,CA,92282.0,265000.0,3.0,2.0,263 - Banning/Beaumont/Cherry Valley,1456.0,12632.0,2004.0,1.0,182.0,,Active,,,http://www.redfin.com/CA/Whitewater/54159-Kalsman-Dr-92282/home/5712633,CRMLS,SW21239438,N,Y,33.9316161,-116.7183126
248,MLS Listing,,Single Family Residential,242 Appaloosa Dr,Hemet,CA,92545.0,508000.0,4.0,4.0,SRCAR - Southwest Riverside County,3284.0,7405.0,2009.0,1.0,155.0,,Pre On-Market,,,http://www.redfin.com/CA/Hemet/242-Appaloosa-Dr-92545/home/22796416,CRMLS,OC21240004,N,Y,33.7486389,-117.0205364
249,MLS Listing,,Single Family Residential,35297 Amatista Ave,Wildomar,CA,92595.0,629900.0,4.0,3.0,SRCAR - Southwest Riverside County,3040.0,8276.0,2001.0,1.0,207.0,48.0,Pre On-Market,November-6-2021 01:00 PM,November-6-2021 04:00 PM,http://www.redfin.com/CA/Wildomar/35297-Amatista-Ave-92595/home/6343105,CRMLS,SW21238499,N,Y,33.6077041,-117.2368153
250,MLS Listing,,Single Family Residential,28715 Manzanita Ave,Moreno Valley,CA,92555.0,575000.0,4.0,3.5,259 - Moreno Valley,2765.0,20473.0,1988.0,1.0,208.0,,Active,,,http://www.redfin.com/CA/Moreno-Valley/28715-Manzanita-Ave-92555/home/5578650,CRMLS,IG21239893,N,Y,33.9606842,-117.1621821
251,MLS Listing,,Single Family Residential,68325 Peladora Rd,Cathedral City,CA,92234.0,550000.0,3.0,2.0,335 - Cathedral City North,1320.0,9148.0,1990.0,1.0,417.0,,Active,,,http://www.redfin.com/CA/Cathedral-City/68325-Peladora-Rd-92234/home/6061772,i-Tech MLS,320008261,N,Y,33.8394276,-116.4691098
252,MLS Listing,,Condo/Co-op,1327 E Amado Rd,Palm Springs,CA,92262.0,365000.0,2.0,2.0,Palm Regency,1595.0,2178.0,1980.0,1.0,229.0,492.0,Active,,,http://www.redfin.com/CA/Palm-Springs/1327-E-Amado-Rd-92262/home/3105821,GPSMLS,219069764,N,Y,33.825946,-116.530573
253,MLS Listing,,Mobile/Manufactured Home,2991 Blue Spruce Dr,Hemet,CA,92545.0,249000.0,2.0,3.0,SRCAR - Southwest Riverside County,1496.0,6970.0,1984.0,1.0,166.0,3.0,Active,,,http://www.redfin.com/CA/Hemet/2991-Blue-Spruce-Dr-92545/home/6349442,CRMLS,SW21240101,N,Y,33.7210342,-117.0025566
254,MLS Listing,,Vacant Land,0 Skyline Dr,Lake Elsinore,CA,92530.0,9000.0,,,SRCAR - Southwest Riverside County,,3485.0,,1.0,,,Active,,,http://www.redfin.com/CA/Unknown/Unknown-Unknown/home/62789281,CRMLS,SW21240091,N,Y,33.680762,-117.353256
255,MLS Listing,,Single Family Residential,36136 Saint Raphael Dr,Murrieta,CA,92562.0,599000.0,4.0,2.5,SRCAR - Southwest Riverside County,1885.0,9583.0,1988.0,1.0,318.0,,Active,November-7-2021 12:00 AM,November-7-2021 04:30 PM,http://www.redfin.com/CA/Murrieta/36136-St-Raphael-Dr-92562/home/6202062,CRMLS,SW21235548,N,Y,33.5931077,-117.1969158
256,MLS Listing,,Single Family Residential,1337 1st St,Norco,CA,92860.0,599000.0,3.0,2.0,250 - Norco,1225.0,7841.0,1961.0,1.0,489.0,,Active,,,http://www.redfin.com/CA/Norco/1337-First-St-92860/home/4646660,CRMLS,PW21239206,N,Y,33.9022679,-117.5528178
257,MLS Listing,,Single Family Residential,20802 Walking Beam Dr,Riverside,CA,92507.0,789990.0,4.0,3.0,252 - Riverside,2870.0,18731.0,2018.0,1.0,275.0,,Active,,,http://www.redfin.com/CA/Riverside/20802-Walking-Beam-Dr-92507/home/167234846,CRMLS,SW21239773,N,Y,34.014321,-117.298609
258,MLS Listing,,Single Family Residential,44860 Rutherford St,Temecula,CA,92592.0,799999.0,5.0,3.0,SRCAR - Southwest Riverside County,2902.0,5227.0,2004.0,1.0,276.0,99.0,Active,,,http://www.redfin.com/CA/Temecula/44860-Rutherford-St-92592/home/12508918,CRMLS,SW21240053,N,Y,33.4743996,-117.0675134
259,MLS Listing,,Single Family Residential,10230 56th St,Jurupa Valley,CA,91752.0,498000.0,3.0,1.0,251 - Jurupa Valley,1027.0,12197.0,1965.0,1.0,485.0,,Pre On-Market,,,http://www.redfin.com/CA/Mira-Loma/10230-56th-St-91752/home/4836392,CRMLS,IV21237058,N,Y,33.9862067,-117.5068606
260,MLS Listing,,Single Family Residential,51807 Ida Ave,Cabazon,CA,92230.0,357000.0,3.0,2.5,263 - Banning/Beaumont/Cherry Valley,2006.0,16117.0,1967.0,1.0,178.0,,Active,,,http://www.redfin.com/CA/Cabazon/51807-Ida-Ave-92230/home/5716031,CRMLS,EV21240037,N,Y,33.8979922,-116.757909
261,MLS Listing,,Condo/Co-op,404 Desert Holly Dr,Palm Desert,CA,92211.0,669000.0,3.0,2.0,Indian Ridge,1903.0,3049.0,1994.0,1.0,352.0,838.0,Active,,,http://www.redfin.com/CA/Palm-Desert/404-Desert-Holly-Dr-92211/home/5956399,GPSMLS,219069762,N,Y,33.7530829,-116.325604
262,MLS Listing,,Single Family Residential,50305 Mazatlan Dr,Coachella,CA,92236.0,315000.0,3.0,2.0,Placitas De La Paz,1097.0,5663.0,2003.0,1.0,287.0,,Active,,,http://www.redfin.com/CA/Coachella/50305-Mazatlan-Dr-92236/home/12509207,GPSMLS,219069761,N,Y,33.6837594,-116.1926447
263,MLS Listing,,Vacant Land,0 Road Runner Rdg,Riverside,CA,92503.0,99000.0,,,252 - Riverside,,9583.0,,1.0,,,Active,,,http://www.redfin.com/CA/Riverside/0-Road-Runner-RDG-92503/home/174106087,CRMLS,IG21239994,N,Y,33.8833867,-117.4438924
264,MLS Listing,,Condo/Co-op,2935 W Sundance Cir,Palm Springs,CA,92262.0,700000.0,2.0,2.0,Palm Springs North End,1742.0,4792.0,1982.0,1.0,402.0,720.0,Active,,,http://www.redfin.com/CA/Palm-Springs/2935-Sundance-Cir-W-92262/home/6317640,TheMLS,21-101023,N,Y,33.8577973,-116.5381986
265,MLS Listing,,Single Family Residential,4230 Emerson St,Riverside,CA,92506.0,499999.0,3.0,1.5,252 - Riverside,1244.0,8276.0,1948.0,1.0,402.0,,Active,,,http://www.redfin.com/CA/Riverside/4230-Emerson-St-92506/home/4969493,CRMLS,AR21239942,N,Y,33.9583366,-117.3982535
266,MLS Listing,,Single Family Residential,28422 Sun City Blvd,Menifee,CA,92586.0,345000.0,2.0,2.0,SRCAR - Southwest Riverside County,1328.0,6970.0,1980.0,1.0,260.0,33.0,Pre On-Market,,,http://www.redfin.com/CA/Menifee/28422-Sun-City-Blvd-92586/home/5284416,CRMLS,SW21239400,N,Y,33.7275614,-117.1928059
267,MLS Listing,,Single Family Residential,44952 Vista Del Mar,Temecula,CA,92590.0,3000000.0,5.0,7.0,699 - Not Defined,7759.0,412949.0,2003.0,1.0,387.0,,Active,,,http://www.redfin.com/CA/Temecula/44952-Vista-Del-Mar-92590/home/175935125,CRMLS,IV21239987,N,Y,33.479957,-117.289719
268,MLS Listing,,Vacant Land,18975 Palomar St,Lake Elsinore,CA,92530.0,995000.0,,,SRCAR - Southwest Riverside County,,523591.0,,1.0,,,Active,,,http://www.redfin.com/CA/Lake-Elsinore/18975-Palomar-St-92530/home/22700678,CRMLS,SW21239974,N,Y,33.6316518,-117.318849
269,MLS Listing,,Multi-Family (5+ Unit),6020 Crest Ave,Riverside,CA,92503.0,1290000.0,9.0,6.0,252 - Riverside,3498.0,14810.0,1963.0,1.0,369.0,,Active,,,http://www.redfin.com/CA/Riverside/6020-Crest-Ave-92503/home/4803627,CRMLS,TR21239964,N,Y,33.943287,-117.4730507
270,MLS Listing,,Vacant Land,16269 Los Gatos & Buena Vis,Temecula,CA,92590.0,618000.0,,,699 - Not Defined,,368953.0,,1.0,,,Active,,,http://www.redfin.com/CA/Unknown/16269-92590/home/177025497,CRMLS,IV21239949,N,Y,33.4784439,-117.2871481
271,MLS Listing,,Single Family Residential,26373 Bradshaw Dr,Menifee,CA,92585.0,556000.0,3.0,2.0,SRCAR - Southwest Riverside County,1558.0,7841.0,2002.0,1.0,357.0,33.0,Active,,,http://www.redfin.com/CA/Menifee/26373-Bradshaw-Dr-92585/home/6397637,CRMLS,IV21239945,N,Y,33.7305037,-117.1996514
272,MLS Listing,,Single Family Residential,2141 Foxtail Ct,Perris,CA,92571.0,440000.0,3.0,2.5,SRCAR - Southwest Riverside County,1511.0,4356.0,1993.0,1.0,291.0,,Active,,,http://www.redfin.com/CA/Perris/2141-Foxtail-Ct-92571/home/17348713,CRMLS,CV21239355,N,Y,33.8104321,-117.2144902
273,MLS Listing,,Single Family Residential,66614 Desert View Ave,Desert Hot Springs,CA,92240.0,340000.0,3.0,3.0,Desert Hot Springs,1501.0,6534.0,1986.0,1.0,227.0,,Active,,,http://www.redfin.com/CA/Desert-Hot-Springs/66614-Desert-View-Ave-92240/home/5995919,TheMLS,21-100934,N,Y,33.9580719,-116.4994084
274,MLS Listing,,Single Family Residential,39495 Regency Way,Palm Desert,CA,92211.0,650000.0,3.0,2.5,Regency Palms,2128.0,11761.0,1988.0,1.0,305.0,205.0,Active,November-6-2021 11:00 AM,November-6-2021 01:00 PM,http://www.redfin.com/CA/Palm-Desert/39495-Regency-Way-92211/home/5920161,GPSMLS,219069760,N,Y,33.7624151,-116.324252
275,MLS Listing,,Single Family Residential,641 E Ocotillo Ave,Palm Springs,CA,92264.0,1950000.0,3.0,3.5,Tahquitz River Estat,2914.0,15246.0,1951.0,1.0,669.0,,Active,,,http://www.redfin.com/CA/Palm-Springs/641-Ocotillo-Ave-92264/home/5694452,GPSMLS,219069759,N,Y,33.8065492,-116.5407563
276,MLS Listing,,Vacant Land,5721 Lillian Ln,Temecula,CA,92590.0,1000000.0,,,699 - Not Defined,,871200.0,,1.0,,,Active,,,http://www.redfin.com/CA/Unknown/5721-Lillian-Ln-92590/home/177025286,CRMLS,IV21239925,N,Y,33.4857075,-117.2754275
277,MLS Listing,,Single Family Residential,26179 Beech Dr,Moreno Valley,CA,92555.0,535000.0,3.0,3.0,259 - Moreno Valley,2592.0,6970.0,2004.0,1.0,206.0,,Active,November-6-2021 11:00 AM,November-6-2021 02:00 PM,http://www.redfin.com/CA/Moreno-Valley/26179-Beech-Dr-92555/home/12508932,CRMLS,IV21239850,N,Y,33.9360283,-117.2058995
278,MLS Listing,,Single Family Residential,2832 Litchfield Dr,Riverside,CA,92503.0,575000.0,3.0,2.0,252 - Riverside,1465.0,6970.0,1974.0,1.0,392.0,,Active,,,http://www.redfin.com/CA/Riverside/2832-Litchfield-Dr-92503/home/5017245,CRMLS,CV21239838,N,Y,33.9034487,-117.440795
279,MLS Listing,,Single Family Residential,1738 Hillside Ave,Norco,CA,92860.0,710000.0,3.0,2.0,250 - Norco,1538.0,46609.0,1974.0,1.0,462.0,,Active,,,http://www.redfin.com/CA/Norco/1738-Hillside-Ave-92860/home/4632223,CRMLS,IV21239787,N,Y,33.9070905,-117.5445169
280,MLS Listing,,Vacant Land,16269 Vista Del Mar,Temecula,CA,92590.0,575000.0,,,699 - Not Defined,,409028.0,,1.0,,,Active,,,http://www.redfin.com/CA/Temecula/16269-Vista-Del-Mar-92590/home/177024920,CRMLS,IV21239881,N,Y,33.4751198,-117.2976522
281,MLS Listing,,Single Family Residential,6535 Jade Ct,Eastvale,CA,92880.0,825000.0,5.0,3.0,249 - Eastvale,3686.0,8712.0,2003.0,1.0,224.0,,Pre On-Market,,,http://www.redfin.com/CA/Corona/6535-Jade-Ct-92880/home/6537109,CRMLS,CV21239871,N,Y,33.9689545,-117.563778
282,MLS Listing,,Single Family Residential,1223 Bridgeport Rd,Corona,CA,92882.0,950000.0,4.0,3.0,248 - Corona,2326.0,11761.0,1988.0,1.0,408.0,,Active,,,http://www.redfin.com/CA/Corona/1223-Bridgeport-Rd-92882/home/4400945,CRMLS,IG21239741,N,Y,33.8533552,-117.5902817
283,MLS Listing,,Single Family Residential,1278 Millbrook Rd,Corona,CA,92882.0,859900.0,4.0,3.0,248 - Corona,2326.0,9583.0,1988.0,1.0,370.0,,Pre On-Market,,,http://www.redfin.com/CA/Corona/1278-Millbrook-Rd-92882/home/4394675,CRMLS,CV21239855,N,Y,33.8551358,-117.5912446
284,MLS Listing,,Mobile/Manufactured Home,249 Standing Bear,Cathedral City,CA,92234.0,85000.0,2.0,2.0,Royal Palms,1440.0,1.0,1972.0,1.0,59.0,,Active,,,http://www.redfin.com/CA/CATHEDRAL-CITY/249-STANDING-BEAR-92234/home/6596571,GPSMLS,219069758,N,Y,33.795986,-116.460363
285,MLS Listing,,Mobile/Manufactured Home,67 Rio Street St,Rancho Mirage,CA,92270.0,195000.0,2.0,2.0,The Colony,1800.0,4000.0,1978.0,1.0,108.0,,Active,,,http://www.redfin.com/CA/Rancho-Mirage/67-Rio-St-92270/home/28581065,GPSMLS,219069756,N,Y,33.7847325,-116.4337737
286,MLS Listing,,Multi-Family (2-4 Unit),29585 Avenida La Paz,Cathedral City,CA,92234.0,789000.0,6.0,4.0,Panorama - 7260,3330.0,7405.0,2001.0,1.0,237.0,,Active,,,http://www.redfin.com/CA/Cathedral-City/29585-Avenida-La-Paz-92234/home/6324670,GPSMLS,219069753,N,Y,33.8332017,-116.4747566
287,MLS Listing,,Single Family Residential,660 Equinox Way,Palm Springs,CA,92262.0,1397000.0,3.0,2.5,Escena,2552.0,6970.0,2014.0,1.0,547.0,180.0,Active,,,http://www.redfin.com/CA/Palm-Springs/660-Equinox-Way-92262/home/22446645,GPSMLS,219069755,N,Y,33.8324987,-116.4960685
288,MLS Listing,,Single Family Residential,30203 Muirlands Dr,Menifee,CA,92584.0,635000.0,4.0,3.0,SRCAR - Southwest Riverside County,2839.0,6534.0,2016.0,1.0,224.0,198.0,Pre On-Market,November-13-2021 10:00 AM,November-13-2021 04:00 PM,http://www.redfin.com/CA/Menifee/30203-Muirlands-Dr-92584/home/109006551,CRMLS,SW21238949,N,Y,33.682124,-117.1426267
289,MLS Listing,,Vacant Land,16269 Los Gatos Rd,Temecula,CA,92590.0,618000.0,,,699 - Not Defined,,419483.0,,1.0,,,Active,,,http://www.redfin.com/CA/Temecula/16269-Los-Gatos-Rd-92590/home/177024496,CRMLS,IV21239832,N,Y,33.486829,-117.2852471
290,MLS Listing,,Single Family Residential,2447 Monterey Peninsula Dr,Corona,CA,92882.0,699000.0,4.0,2.5,248 - Corona,1812.0,7841.0,1963.0,1.0,386.0,,Active,,,http://www.redfin.com/CA/Corona/2447-Monterey-Peninsula-Dr-92882/home/4192809,CRMLS,EV21238597,N,Y,33.8783367,-117.6176528
291,MLS Listing,,Single Family Residential,148 Wanish Pl,Palm Desert,CA,92260.0,4500000.0,4.0,5.0,Bighorn Golf Club,6220.0,15246.0,2000.0,1.0,723.0,1150.0,Active,,,http://www.redfin.com/CA/Palm-Desert/148-Wanish-Pl-92260/home/6326073,GPSMLS,219069757,N,Y,33.6782369,-116.4161813
292,MLS Listing,,Condo/Co-op,2498 E Oakcrest Dr,Palm Springs,CA,92264.0,629000.0,3.0,2.0,Palm Springs South End,1944.0,3049.0,1973.0,1.0,324.0,640.0,Active,,,http://www.redfin.com/CA/Palm-Springs/2498-E-Oakcrest-Dr-92264/home/5672750,TheMLS,21-100853,N,Y,33.808084,-116.519698
293,MLS Listing,,Single Family Residential,29310 Hwy 243,Mountain Center,CA,92549.0,999900.0,3.0,2.0,MNTC - Mountain Center,1975.0,270072.0,2004.0,1.0,506.0,,Active,,,http://www.redfin.com/CA/Idyllwild-Pine-Cove/29310-CA-243-92549/home/5763406,CRMLS,SW21239442,N,Y,33.7074959,-116.724922
294,MLS Listing,,Single Family Residential,32576 Wildflower Dr,Lake Elsinore,CA,92532.0,525000.0,4.0,2.5,SRCAR - Southwest Riverside County,2118.0,4356.0,2005.0,1.0,248.0,118.0,Active,,,http://www.redfin.com/CA/Lake-Elsinore/32576-Wildflower-Dr-92532/home/8161294,CRMLS,SW21239802,N,Y,33.6599593,-117.2511002
295,MLS Listing,,Vacant Land,0 E Nicolet,Banning,CA,92220.0,95000.0,,,263 - Banning/Beaumont/Cherry Valley,,33977.0,,1.0,,,Active,,,http://www.redfin.com/CA/Banning/101-E-Nicolet-St-92220/home/142762122,CRMLS,EV21239800,N,Y,33.9290531,-116.875412
296,MLS Listing,,Condo/Co-op,27429 Charleston Ct #3,Murrieta,CA,92562.0,486500.0,3.0,2.5,SRCAR - Southwest Riverside County,1815.0,843.0,2009.0,1.0,268.0,185.0,Active,,,http://www.redfin.com/CA/Murrieta/27429-Charleston-Ct-92562/unit-3/home/17324233,CRMLS,SW21235289,N,Y,33.6000446,-117.1801791
297,MLS Listing,,Single Family Residential,27406 Stanford St,Hemet,CA,92544.0,475000.0,6.0,4.5,SRCAR - Southwest Riverside County,2628.0,10890.0,1960.0,1.0,181.0,,Active,,,http://www.redfin.com/CA/Hemet/27406-Stanford-St-92544/home/5542795,CRMLS,CV21237609,N,Y,33.7235692,-116.9321473
298,MLS Listing,,Vacant Land,0 Scott Rd,Menifee,CA,92584.0,1100000.0,,,699 - Not Defined,,870329.0,,1.0,,,Active,,,http://www.redfin.com/CA/Menifee/26035-Scott-Rd-92584/home/5341694,CRMLS,SW21239822,N,Y,33.6408414,-117.2048888
299,MLS Listing,,Single Family Residential,6191 Bluffwood Dr,Riverside,CA,92506.0,599000.0,4.0,2.0,252 - Riverside,1616.0,10890.0,1977.0,1.0,371.0,,Active,,,http://www.redfin.com/CA/Riverside/6191-Bluffwood-Dr-92506/home/5024338,CRMLS,IV21239730,N,Y,33.9392658,-117.3529943
300,MLS Listing,,Single Family Residential,31922 Silk Vine Dr,Winchester,CA,92596.0,675000.0,5.0,3.0,SRCAR - Southwest Riverside County,3340.0,9148.0,2006.0,1.0,202.0,25.0,Active,,,http://www.redfin.com/CA/Winchester/31922-Silk-Vine-Dr-92596/home/12501588,CRMLS,SW21222961,N,Y,33.6196276,-117.1027133
301,MLS Listing,,Single Family Residential,243 Sunburst Ln,Corona,CA,92879.0,975000.0,5.0,4.0,248 - Corona,4057.0,8276.0,2004.0,1.0,240.0,183.0,Active,November-6-2021 01:00 AM,November-6-2021 04:00 AM,http://www.redfin.com/CA/Corona/243-Sunburst-Ln-92879/home/6605664,CRMLS,IG21239370,N,Y,33.8513644,-117.5673549
302,MLS Listing,,Single Family Residential,32055 Merlot,Temecula,CA,92591.0,785000.0,6.0,3.0,SRCAR - Southwest Riverside County,2721.0,8712.0,1998.0,1.0,288.0,,Active,,,http://www.redfin.com/CA/Temecula/32055-Merlot-Crst-92591/home/6226579,CRMLS,SW21238316,N,Y,33.5195213,-117.103368
303,MLS Listing,,Single Family Residential,7191 Miracle Mile,Riverside,CA,92506.0,2550000.0,6.0,6.5,252 - Riverside,6352.0,91040.0,2018.0,1.0,401.0,98.0,Pre On-Market,,,http://www.redfin.com/CA/Riverside/7191-Miracle-Mile-92506/home/22776538,CRMLS,IV21239746,N,Y,33.9214933,-117.3524204
304,MLS Listing,,Single Family Residential,29478 Catano Rd,Menifee,CA,92584.0,479000.0,3.0,2.0,SRCAR - Southwest Riverside County,1300.0,7841.0,1989.0,1.0,368.0,,Active,,,http://www.redfin.com/CA/Menifee/29478-Catano-Rd-92584/home/5302538,CRMLS,IV21238249,N,Y,33.6921843,-117.2085181
305,MLS Listing,,Single Family Residential,36587 Fontaine St,Winchester,CA,92596.0,550000.0,3.0,2.0,SRCAR - Southwest Riverside County,2408.0,7405.0,2003.0,1.0,228.0,,Pre On-Market,November-6-2021 11:00 AM,November-6-2021 03:00 PM,http://www.redfin.com/CA/Winchester/36587-Fontaine-St-92596/home/6468181,CRMLS,SW21239715,N,Y,33.5891935,-117.0889236
306,MLS Listing,,Mobile/Manufactured Home,33520 Westchester Dr,Thousand Palms,CA,92276.0,159770.0,2.0,2.0,Tri Palm Estates,1440.0,6098.0,1974.0,1.0,111.0,325.0,Active,,,http://www.redfin.com/CA/Thousand-Palms/33520-Westchester-Dr-92276/home/17345732,GPSMLS,219069752,N,Y,33.8064867,-116.3838381
307,MLS Listing,,Vacant Land,0 W Via Olivera,Palm Springs,CA,92262.0,999000.0,,,Not Applicable,,15682.0,,1.0,,,Active,,,http://www.redfin.com/CA/Palm-Springs/290-W-Via-Olivera-92262/home/176500727,GPSMLS,219069748,N,Y,33.8504947,-116.5487404
308,MLS Listing,,Single Family Residential,31455 San Ardo Ave,Cathedral City,CA,92234.0,465000.0,3.0,2.0,Rich Sands Estates,1990.0,8712.0,1986.0,1.0,234.0,,Active,,,http://www.redfin.com/CA/Cathedral-City/31455-San-Ardo-Ave-92234/home/6045429,GPSMLS,219069751,N,Y,33.8201485,-116.4554647
309,MLS Listing,,Condo/Co-op,73454 Boxthorn Ln,Palm Desert,CA,92260.0,875000.0,2.0,3.0,Ironwood Country Clu,2102.0,4356.0,1974.0,1.0,416.0,763.0,Active,,,http://www.redfin.com/CA/Palm-Desert/73454-Boxthorn-Ln-92260/home/6026602,GPSMLS,219069749,N,Y,33.695467,-116.380835
310,MLS Listing,,Single Family Residential,48509 Calle Cantara,Coachella,CA,92236.0,434000.0,4.0,2.0,Not Applicable,1564.0,6534.0,2004.0,1.0,277.0,,Active,,,http://www.redfin.com/CA/Coachella/48509-Calle-Cantara-92236/home/6496784,GPSMLS,219069750,N,Y,33.6956929,-116.1913063
311,MLS Listing,,Single Family Residential,24545 Comanche Creek Dr,Menifee,CA,92584.0,569999.0,4.0,3.0,SRCAR - Southwest Riverside County,2269.0,5663.0,2018.0,1.0,251.0,137.0,Pre On-Market,,,http://www.redfin.com/CA/Menifee/24545-Comanche-Creek-Dr-92587/home/143860554,CRMLS,ND21208576,N,Y,33.6796927,-117.2316406
312,MLS Listing,,Single Family Residential,40255 Thornton Ave,Hemet,CA,92544.0,750000.0,4.0,2.5,SRCAR - Southwest Riverside County,2590.0,22216.0,2003.0,1.0,290.0,,Active,,,http://www.redfin.com/CA/Hemet/40255-Thornton-Ave-92544/home/5546676,CRMLS,SW21239733,N,Y,33.7255012,-116.9583364
313,MLS Listing,,Mobile/Manufactured Home,853 S Palm Ave,Hemet,CA,92543.0,140000.0,2.0,2.0,SRCAR - Southwest Riverside County,1536.0,3920.0,1974.0,1.0,91.0,122.0,Active,,,http://www.redfin.com/CA/Hemet/853-S-Palm-Ave-92543/home/5512436,CRMLS,SW21239726,N,Y,33.7340948,-116.9805742
314,MLS Listing,,Single Family Residential,43125 Lancashire Cmn,Temecula,CA,92592.0,659000.0,4.0,2.0,SRCAR - Southwest Riverside County,1843.0,6098.0,1999.0,1.0,358.0,76.0,Active,November-6-2021 10:00 AM,November-6-2021 02:00 PM,http://www.redfin.com/CA/Temecula/43125-Lancashire-Cmn-92592/home/12512696,CRMLS,SW21235886,N,Y,33.4947492,-117.0819595
315,MLS Listing,,Vacant Land,0 Sandstone,Aguanga,CA,92536.0,109000.0,,,SRCAR - Southwest Riverside County,,851162.0,,1.0,,,Active,,,http://www.redfin.com/CA/Aguanga/Sandstone-Rd-92536/home/102907425,CRMLS,SW21239693,N,Y,33.4568763007058,-116.8948139979
316,MLS Listing,,Multi-Family (2-4 Unit),41606 Marine Dr,Hemet,CA,92544.0,619900.0,8.0,,SRCAR - Southwest Riverside County,3552.0,7405.0,1964.0,1.0,175.0,,Active,,,http://www.redfin.com/CA/Hemet/41606-Marine-Dr-92544/home/5490571,CRISNet,SR21237175,N,Y,33.7466017,-116.9350844
317,MLS Listing,,Townhouse,23432 Continental Way,Canyon Lake,CA,92587.0,695000.0,2.0,2.0,SRCAR - Southwest Riverside County,1780.0,2614.0,1982.0,1.0,390.0,673.0,Active,,,http://www.redfin.com/CA/Canyon-Lake/23432-Continental-Way-92587/home/5334115,CRMLS,SW21238482,N,Y,33.6791979,-117.2495845
318,MLS Listing,,Single Family Residential,9241 Stephanie St,Riverside,CA,92508.0,649990.0,5.0,3.0,252 - Riverside,2340.0,7405.0,1989.0,1.0,278.0,,Active,November-6-2021 03:00 PM,November-6-2021 05:00 PM,http://www.redfin.com/CA/Riverside/9241-Stephanie-St-92508/home/5091549,CRMLS,OC21239699,N,Y,33.8829027,-117.3271288
319,MLS Listing,,Single Family Residential,13710 Pattilynn Dr,Moreno Valley,CA,92553.0,450000.0,3.0,2.5,259 - Moreno Valley,1474.0,3485.0,1982.0,1.0,305.0,,Active,November-6-2021 12:00 AM,November-6-2021 11:59 PM,http://www.redfin.com/CA/Moreno-Valley/13710-Pattilynn-Dr-92553/home/5165536,CRMLS,TR21239411,N,Y,33.9219796,-117.2553717
320,MLS Listing,,Single Family Residential,13045 shirebourn Rd,Moreno Valley,CA,92553.0,424999.0,3.0,2.0,259 - Moreno Valley,1061.0,14810.0,1978.0,1.0,401.0,,Active,,,http://www.redfin.com/CA/Moreno-Valley/13045-Shirebourn-Rd-92553/home/5603875,CRMLS,CV21239696,N,Y,33.9309837,-117.2218675
321,MLS Listing,,Single Family Residential,39864 Snow Gum Ln,Murrieta,CA,92562.0,499999.0,3.0,2.0,SRCAR - Southwest Riverside County,1364.0,6970.0,1988.0,1.0,367.0,,Pre On-Market,,,http://www.redfin.com/CA/Murrieta/39864-Snow-Gum-Ln-92562/home/6210719,CRMLS,SW21232933,N,Y,33.5748812,-117.1857764
322,MLS Listing,,Vacant Land,0 Berdoo Canyon Rd,Indio,CA,92203.0,300000.0,,,Indio Hills,,1742400.0,,1.0,,,Active,,,http://www.redfin.com/CA/Indio/0-Berdoo-Canyon-Rd-92240/home/147629555,GPSMLS,219069746,N,Y,33.815107,-116.159302
323,MLS Listing,,Single Family Residential,424 E Murphy St,Blythe,CA,92225.0,229999.0,3.0,2.0,Not Applicable,1250.0,11326.0,1940.0,1.0,184.0,,Active,,,http://www.redfin.com/CA/Blythe/424-E-Murphy-St-92225/home/6155360,GPSMLS,219069747,N,Y,33.6120929,-114.5922183
324,MLS Listing,,Single Family Residential,40751 Adams St,Bermuda Dunes,CA,92203.0,1800000.0,4.0,3.0,Not Applicable,2084.0,98446.0,1952.0,1.0,864.0,,Active,,,http://www.redfin.com/CA/Bermuda-Dunes/40751-Adams-St-92203/home/5825659,GPSMLS,219069743,N,Y,33.7531618,-116.2868878
325,MLS Listing,,Condo/Co-op,54853 Oakhill,La Quinta,CA,92253.0,520000.0,2.0,2.0,PGA Palmer Private,1549.0,2502.0,1985.0,1.0,336.0,620.0,Active,November-6-2021 10:00 AM,November-6-2021 02:00 PM,http://www.redfin.com/CA/La-Quinta/54853-Oak-Hill-92253/home/6145537,GPSMLS,219069744,N,Y,33.651591,-116.26669
326,MLS Listing,,Single Family Residential,1430 Misty Ln Unit A,Beaumont,CA,92223.0,450000.0,4.0,3.0,263 - Banning/Beaumont/Cherry Valley,1725.0,1307.0,2015.0,1.0,261.0,108.0,Active,November-6-2021 11:00 AM,November-6-2021 01:00 PM,http://www.redfin.com/CA/Beaumont/1430-Misty-Ln-92223/unit-A/home/112790197,CRMLS,IV21239673,N,Y,33.947735,-116.959935
327,MLS Listing,,Single Family Residential,43003 Corte Fresca,Temecula,CA,92592.0,749900.0,4.0,2.5,Temecula,2400.0,7840.0,1994.0,1.0,312.0,100.0,Active,,,http://www.redfin.com/CA/Temecula/43003-Corte-Fresca-92592/home/6199359,SDMLS,210030226,N,Y,33.4973396,-117.146811
328,MLS Listing,,Single Family Residential,40243 Atmore Ct,Temecula,CA,92591.0,639000.0,4.0,3.0,SRCAR - Southwest Riverside County,2210.0,8712.0,1988.0,1.0,289.0,,Pre On-Market,November-6-2021 12:00 PM,November-6-2021 04:00 PM,http://www.redfin.com/CA/Temecula/40243-Atmore-Ct-92591/home/6182849,CRMLS,SW21239655,N,Y,33.5357873,-117.134449
329,MLS Listing,,Vacant Land,0 Margaret,Lake Elsinore,CA,92530.0,24900.0,,,SRCAR - Southwest Riverside County,,16112.0,,1.0,,,Active,,,http://www.redfin.com/CA/Lake-Elsinore/Margaret-92530/home/177020623,CRMLS,SW21239586,N,Y,33.6392361,-117.3851496
330,MLS Listing,,Vacant Land,0 Rancho,Cherry Valley,CA,92223.0,135000.0,,,263 - Banning/Beaumont/Cherry Valley,,339768.0,,1.0,,,Active,,,http://www.redfin.com/CA/Cherry-Valley/10376-Beaumont-Ave-92223/home/173621293,CRMLS,EV21239652,N,Y,33.9706282,-116.9768362
331,MLS Listing,,Single Family Residential,1231 Mount Diablo St,Perris,CA,92570.0,430000.0,3.0,2.5,SRCAR - Southwest Riverside County,1790.0,6098.0,1992.0,1.0,240.0,,Pre On-Market,November-6-2021 12:00 PM,November-6-2021 04:00 PM,http://www.redfin.com/CA/Perris/1231-Mt-Diablo-St-92570/home/5259176,CRMLS,SW21229994,N,Y,33.7850951,-117.2534427
332,MLS Listing,,Single Family Residential,25719 Lacebark Rd,Corona,CA,92883.0,888800.0,4.0,4.5,248 - Corona,4143.0,10890.0,2007.0,1.0,215.0,140.0,Active,,,http://www.redfin.com/CA/Corona/25719-Lacebark-Rd-92883/home/17331624,CRMLS,TR21239657,N,Y,33.7465784,-117.4607318
333,MLS Listing,,Single Family Residential,39575 Desert Sun Dr,Rancho Mirage,CA,92270.0,1420000.0,3.0,4.0,Desert Ranch Estates,3264.0,13939.0,2002.0,1.0,435.0,,Active,,,http://www.redfin.com/CA/Rancho-Mirage/39575-Desert-Sun-Dr-92270/home/6353223,GPSMLS,219069742,N,Y,33.7610598,-116.4184208
334,MLS Listing,,Single Family Residential,24680 Rugby Ln,Moreno Valley,CA,92551.0,449950.0,3.0,2.0,259 - Moreno Valley,1323.0,7405.0,1987.0,1.0,340.0,,Active,,,http://www.redfin.com/CA/Moreno-Valley/24680-Rugby-Ln-92551/home/5641339,CRISNet,SR21239389,N,Y,33.9008686,-117.2321989
335,MLS Listing,,Single Family Residential,22041 Windtree Ave,Wildomar,CA,92595.0,640000.0,4.0,2.5,SRCAR - Southwest Riverside County,2246.0,20038.0,1985.0,1.0,285.0,,Active,November-6-2021 11:00 AM,November-6-2021 02:00 PM,http://www.redfin.com/CA/Wildomar/22041-Windtree-Ave-92595/home/5359745,CRMLS,SW21234772,N,Y,33.6364077,-117.2746612
336,MLS Listing,,Single Family Residential,27325 Landau Blvd,Cathedral City,CA,92234.0,499900.0,3.0,2.0,335 - Cathedral City North,1727.0,7405.0,1988.0,1.0,289.0,,Pre On-Market,,,http://www.redfin.com/CA/Cathedral-City/27325-Landau-Blvd-92234/home/6074243,CRMLS,IG21239631,N,Y,33.8493404,-116.4761394
337,MLS Listing,,Single Family Residential,3883 Albillo,Perris,CA,92571.0,484900.0,3.0,2.5,699 - Not Defined,1876.0,4356.0,2004.0,1.0,258.0,97.0,Pre On-Market,,,http://www.redfin.com/CA/Perris/3883-Albillo-Loop-92571/home/6472200,CRMLS,PW21239626,N,Y,33.842046,-117.194283
338,MLS Listing,,Single Family Residential,42585 Morningside Ct,Hemet,CA,92544.0,949999.0,4.0,3.5,SRCAR - Southwest Riverside County,3846.0,33106.0,2002.0,1.0,247.0,,Active,,,http://www.redfin.com/CA/Hemet/42585-Morningside-Ct-92543/home/5762802,CRMLS,SW21239623,N,Y,33.723543,-116.917643
339,MLS Listing,,Single Family Residential,23571 Brook Dr,Canyon Lake,CA,92587.0,675000.0,4.0,2.0,SRCAR - Southwest Riverside County,1888.0,9583.0,1983.0,1.0,358.0,290.0,Pre On-Market,,,http://www.redfin.com/CA/Canyon-Lake/23571-Brook-Dr-92587/home/5319355,CRMLS,OC21236941,N,Y,33.6876224,-117.2474717
340,MLS Listing,,Single Family Residential,31325 Euclid Loop,Winchester,CA,92596.0,675000.0,5.0,3.0,SRCAR - Southwest Riverside County,2922.0,7405.0,2004.0,1.0,231.0,,Active,,,http://www.redfin.com/CA/Winchester/31325-Euclid-Loop-92596/home/12509035,CRMLS,EV21238976,N,Y,33.6070205,-117.1143648
341,MLS Listing,,Condo/Co-op,7519 Regency Dr,Palm Springs,CA,92264.0,399000.0,2.0,2.0,Palm Springs South End,1486.0,1307.0,1988.0,1.0,269.0,557.0,Active,,,http://www.redfin.com/CA/Palm-Springs/7519-Regency-Dr-92264/home/6105117,TheMLS,21-100375,N,Y,33.7877438,-116.4714636
342,MLS Listing,,Single Family Residential,11265 Shore Ct,Beaumont,CA,92223.0,470000.0,4.0,3.0,263 - Banning/Beaumont/Cherry Valley,2099.0,6534.0,2007.0,1.0,224.0,154.0,Active,,,http://www.redfin.com/CA/Beaumont/11265-Shore-Ct-92223/home/17326124,CRMLS,OC21239010,N,Y,33.9615905,-117.0635713
343,MLS Listing,,Single Family Residential,45640 Big Canyon St,Indio,CA,92201.0,482900.0,4.0,3.0,Indian Springs,1898.0,5663.0,2003.0,1.0,254.0,310.0,Active,,,http://www.redfin.com/CA/Indio/45640-Big-Canyon-St-92201/home/6471896,GPSMLS,219069741,N,Y,33.7172824,-116.2691955
344,MLS Listing,,Single Family Residential,27041 Val Deane Way,Hemet,CA,92544.0,380000.0,2.0,2.0,699 - Not Defined,1188.0,7405.0,1964.0,1.0,320.0,,Active,,,http://www.redfin.com/CA/Hemet/27041-Val-Deane-Way-92544/home/5541777,CRMLS,IV21239571,N,Y,33.7288914,-116.9388104
345,MLS Listing,,Single Family Residential,820 Shepard Crest Dr,Corona,CA,92882.0,889000.0,5.0,3.0,248 - Corona,3640.0,7841.0,2000.0,1.0,244.0,35.0,Active,,,http://www.redfin.com/CA/Corona/820-Shepard-Crest-Dr-92882/home/4451623,CRMLS,IG21239545,N,Y,33.8326669,-117.5828996
346,MLS Listing,,Single Family Residential,76240 Via Volterra,Indian Wells,CA,92210.0,2375000.0,4.0,4.5,Toscana CC,3766.0,11761.0,2007.0,1.0,631.0,600.0,Active,,,http://www.redfin.com/CA/Indian-Wells/76240-Via-Volterra-92210/home/17334734,GPSMLS,219069740,N,Y,33.7378342,-116.3336382
347,MLS Listing,,Vacant Land,69411 Ramon Rd #807,Cathedral City,CA,92234.0,169000.0,,,Outdoor Resorts Palm Springs,,2178.0,,2.0,,419.0,Active,,,http://www.redfin.com/CA/Cathedral-City/69411-Ramon-Rd-92234/unit-807/home/6051305,GPSMLS,219069739,N,Y,33.8153236,-116.4484113
